~V
VERS. 2.00: Ver 2.00
WRAP.   NO:        
~W
 STRT.FT 656:
 STOP.FT 6986:
 STEP.FT 0.5:
 NULL. -999.250000:
 COMP. Richfield (ARCO):Company
 WELL. SAN EMIDIO A #11-28 REDRILL:Well
 FLD. SAN EMIDIO A #11-28 REDRILL:Field
 LOC. S28 T11N R22W:Location
 STAT. CA:State
 SRVC. :Service Company
 SON. :Service Order #
 DATE. :Log Date
 UWI. 1539401:Unique Well ID
~C
 DEPT.FT :
 AM16.OHMM :
 AO10.OHMM :
 AO19.OHMM :
 AZIM.DEG :
 BVES. :
 DEVI.DEG :
 EAST.FT :
 LTHE. :
 MCRV. :
 MM. :
 NORT.FT :
 OFFS.FT :
 PHZC. :
 RD.OHMM :
 RM.OHMM :
 RS.OHMM :
 SBL.MV :
 SCLN. :
 SP.MV :
 SPN. :
 STUS. :
 TVD.FT :
 VCDS. :
 VCLY. :
 VCWS. :
 VSHS. :
~P
~A
# ...
   1081.0000      4.8280      5.8130      5.9920     44.1999   -999.2500      0.7183      4.1489   -999.2500   -999.2500   -999.2500      6.0929      7.2420   -999.2500      5.9920      5.8130      4.8280     -9.3600   -999.2500    -25.3600     -9.8526   -999.2500   1080.9573   -999.2500   -999.2500   -999.2500   -999.2500
   1081.5000      4.9360      5.7480      6.2780     44.2999   -999.2500      0.7192      4.1533   -999.2500   -999.2500   -999.2500      6.0974      7.2483   -999.2500      6.2780      5.7480      4.9360    -10.7570   -999.2500    -26.7570    -11.3232   -999.2500   1081.4573   -999.2500   -999.2500   -999.2500   -999.2500
   1082.0000      5.1440      5.6690      6.5130     44.3999   -999.2500      0.7200      4.1577   -999.2500   -999.2500   -999.2500      6.1018      7.2546   -999.2500      6.5130      5.6690      5.1440    -11.8660   -999.2500    -27.8660    -12.4905   -999.2500   1081.9573   -999.2500   -999.2500   -999.2500   -999.2500
   1082.5000      5.3020      6.1430      6.7120     44.4999   -999.2500      0.7208      4.1621   -999.2500   -999.2500   -999.2500      6.1063      7.2609   -999.2500      6.7120      6.1430      5.3020    -12.8680   -999.2500    -28.8680    -13.5453   -999.2500   1082.4573   -999.2500   -999.2500   -999.2500   -999.2500
   1083.0000      5.3380      6.4450      6.8250     44.5999   -999.2500      0.7217      4.1665   -999.2500   -999.2500   -999.2500      6.1108      7.2672   -999.2500      6.8250      6.4450      5.3380    -13.8700   -999.2500    -29.8700    -14.6000   -999.2500   1082.9570   -999.2500   -999.2500   -999.2500   -999.2500
   1083.5000      5.3230      6.4950      6.9240     44.6999   -999.2500      0.7225      4.1710   -999.2500   -999.2500   -999.2500      6.1153      7.2735   -999.2500      6.9240      6.4950      5.3230    -13.1870   -999.2500    -29.1870    -13.8811   -999.2500   1083.4570   -999.2500   -999.2500   -999.2500   -999.2500
   1084.0000      5.1650      6.4810      6.9360     44.7999   -999.2500      0.7233      4.1754   -999.2500   -999.2500   -999.2500      6.1198      7.2798   -999.2500      6.9360      6.4810      5.1650    -10.4250   -999.2500    -26.4250    -10.9737   -999.2500   1083.9570   -999.2500   -999.2500   -999.2500   -999.2500
   1084.5000      4.9630      6.4010      6.7900     44.8999   -999.2500      0.7242      4.1799   -999.2500   -999.2500   -999.2500      6.1243      7.2861   -999.2500      6.7900      6.4010      4.9630     -9.3480   -999.2500    -25.3480     -9.8400   -999.2500   1084.4570   -999.2500   -999.2500   -999.2500   -999.2500
   1085.0000      4.7910      6.3220      6.6300     44.9999   -999.2500      0.7250      4.1843   -999.2500   -999.2500   -999.2500      6.1287      7.2924   -999.2500      6.6300      6.3220      4.7910     -8.7720   -999.2500    -24.7720     -9.2337   -999.2500   1084.9570   -999.2500   -999.2500   -999.2500   -999.2500
   1085.5000      4.5670      5.9260      6.1890     45.0999   -999.2500      0.7258      4.1888   -999.2500   -999.2500   -999.2500      6.1332      7.2988   -999.2500      6.1890      5.9260      4.5670     -8.2330   -999.2500    -24.2330     -8.6663   -999.2500   1085.4570   -999.2500   -999.2500   -999.2500   -999.2500
   1086.0000      4.4240      5.3870      5.9130     45.1999   -999.2500      0.7267      4.1933   -999.2500   -999.2500   -999.2500      6.1377      7.3051   -999.2500      5.9130      5.3870      4.4240     -7.9800   -999.2500    -23.9800     -8.4000   -999.2500   1085.9568   -999.2500   -999.2500   -999.2500   -999.2500
   1086.5000      4.2940      5.1280      5.6240     45.2999   -999.2500      0.7275      4.1978   -999.2500   -999.2500   -999.2500      6.1421      7.3115   -999.2500      5.6240      5.1280      4.2940     -7.5840   -999.2500    -23.5840     -7.9832   -999.2500   1086.4568   -999.2500   -999.2500   -999.2500   -999.2500
   1087.0000      4.2220      5.0050      5.5060     45.3999   -999.2500      0.7283      4.2024   -999.2500   -999.2500   -999.2500      6.1466      7.3178   -999.2500      5.5060      5.0050      4.2220     -7.3310   -999.2500    -23.3310     -7.7168   -999.2500   1086.9568   -999.2500   -999.2500   -999.2500   -999.2500
   1087.5000      4.1860      4.9410      5.3820     45.4999   -999.2500      0.7292      4.2069   -999.2500   -999.2500   -999.2500      6.1511      7.3242   -999.2500      5.3820      4.9410      4.1860     -7.0420   -999.2500    -23.0420     -7.4126   -999.2500   1087.4568   -999.2500   -999.2500   -999.2500   -999.2500
   1088.0000      4.1930      4.8830      5.3150     45.5999   -999.2500      0.7300      4.2115   -999.2500   -999.2500   -999.2500      6.1555      7.3306   -999.2500      5.3150      4.8830      4.1930     -6.7900   -999.2500    -22.7900     -7.1474   -999.2500   1087.9568   -999.2500   -999.2500   -999.2500   -999.2500
   1088.5000      4.2500      4.8610      5.3200     45.6999   -999.2500      0.7308      4.2160   -999.2500   -999.2500   -999.2500      6.1600      7.3369   -999.2500      5.3200      4.8610      4.2500     -6.6450   -999.2500    -22.6450     -6.9947   -999.2500   1088.4568   -999.2500   -999.2500   -999.2500   -999.2500
   1089.0000      4.3580      4.8610      5.3610     45.7999   -999.2500      0.7317      4.2206   -999.2500   -999.2500   -999.2500      6.1644      7.3433   -999.2500      5.3610      4.8610      4.3580     -6.4640   -999.2500    -22.4640     -6.8042   -999.2500   1088.9565   -999.2500   -999.2500   -999.2500   -999.2500
   1089.5000      4.4730      4.8820      5.4240     45.8999   -999.2500      0.7325      4.2252   -999.2500   -999.2500   -999.2500      6.1689      7.3497   -999.2500      5.4240      4.8820      4.4730     -6.3540   -999.2500    -22.3540     -6.6884   -999.2500   1089.4565   -999.2500   -999.2500   -999.2500   -999.2500
   1090.0000      4.6740      4.9250      5.5220     45.9999   -999.2500      0.7333      4.2298   -999.2500   -999.2500   -999.2500      6.1733      7.3561   -999.2500      5.5220      4.9250      4.6740     -6.8540   -999.2500    -22.8540     -7.2147   -999.2500   1089.9565   -999.2500   -999.2500   -999.2500   -999.2500
   1090.5000      4.8380      4.9970      5.6120     46.0999   -999.2500      0.7342      4.2344   -999.2500   -999.2500   -999.2500      6.1778      7.3625   -999.2500      5.6120      4.9970      4.8380     -8.3300   -999.2500    -24.3300     -8.7684   -999.2500   1090.4565   -999.2500   -999.2500   -999.2500   -999.2500
   1091.0000      5.0320      5.0680      5.7010     46.1999   -999.2500      0.7350      4.2390   -999.2500   -999.2500   -999.2500      6.1822      7.3689   -999.2500      5.7010      5.0680      5.0320     -8.4060   -999.2500    -24.4060     -8.8484   -999.2500   1090.9565   -999.2500   -999.2500   -999.2500   -999.2500
   1091.5000      5.3470      5.3260      5.9450     46.2999   -999.2500      0.7358      4.2437   -999.2500   -999.2500   -999.2500      6.1866      7.3753   -999.2500      5.9450      5.3260      5.3470     -8.2500   -999.2500    -24.2500     -8.6842   -999.2500   1091.4565   -999.2500   -999.2500   -999.2500   -999.2500
   1092.0000      5.6340      5.5980      6.0890     46.3999   -999.2500      0.7367      4.2483   -999.2500   -999.2500   -999.2500      6.1911      7.3818   -999.2500      6.0890      5.5980      5.6340     -8.0940   -999.2500    -24.0940     -8.5200   -999.2500   1091.9563   -999.2500   -999.2500   -999.2500   -999.2500
   1092.5000      5.8850      5.7630      6.3260     46.4999   -999.2500      0.7375      4.2530   -999.2500   -999.2500   -999.2500      6.1955      7.3882   -999.2500      6.3260      5.7630      5.8850     -7.9210   -999.2500    -23.9210     -8.3379   -999.2500   1092.4563   -999.2500   -999.2500   -999.2500   -999.2500
   1093.0000      6.0790      5.9170      6.4040     46.5999   -999.2500      0.7383      4.2577   -999.2500   -999.2500   -999.2500      6.1999      7.3946   -999.2500      6.4040      5.9170      6.0790     -7.9260   -999.2500    -23.9260     -8.3432   -999.2500   1092.9563   -999.2500   -999.2500   -999.2500   -999.2500
