~V
VERS. 2.00: Ver 2.00
WRAP.   NO:        
~W
 STRT.FT 656:
 STOP.FT 6986:
 STEP.FT 0.5:
 NULL. -999.250000:
 COMP. Richfield (ARCO):Company
 WELL. SAN EMIDIO A #11-28 REDRILL:Well
 FLD. SAN EMIDIO A #11-28 REDRILL:Field
 LOC. S28 T11N R22W:Location
 STAT. CA:State
 SRVC. :Service Company
 SON. :Service Order #
 DATE. :Log Date
 UWI. 1539401:Unique Well ID
~C
 DEPT.FT :
 AM16.OHMM :
 AO10.OHMM :
 AO19.OHMM :
 AZIM.DEG :
 BVES. :
 DEVI.DEG :
 EAST.FT :
 LTHE. :
 MCRV. :
 MM. :
 NORT.FT :
 OFFS.FT :
 PHZC. :
 RD.OHMM :
 RM.OHMM :
 RS.OHMM :
 SBL.MV :
 SCLN. :
 SP.MV :
 SPN. :
 STUS. :
 TVD.FT :
 VCDS. :
 VCLY. :
 VCWS. :
 VSHS. :
~P
~A
# ...
   4868.5000      2.2610      2.2180      2.3910     46.3670   -999.2500      1.5571     28.9502   -999.2500   -999.2500   -999.2500     27.5693     39.9654   -999.2500      2.3910      2.2180      2.2610     -6.2257   -999.2500    -19.2450     -6.5534   -999.2500   4868.1514   -999.2500   -999.2500   -999.2500   -999.2500
   4869.0000      2.3180      2.1890      2.2920     46.3770   -999.2500      1.5575     28.9601   -999.2500   -999.2500   -999.2500     27.5787     39.9789   -999.2500      2.2920      2.1890      2.3180     -5.7992   -999.2500    -18.8180     -6.1044   -999.2500   4868.6514   -999.2500   -999.2500   -999.2500   -999.2500
   4869.5000      2.5180      2.1880      2.3010     46.3870   -999.2500      1.5579     28.9699   -999.2500   -999.2500   -999.2500     27.5881     39.9925   -999.2500      2.3010      2.1880      2.5180     -5.6937   -999.2500    -18.7120     -5.9934   -999.2500   4869.1514   -999.2500   -999.2500   -999.2500   -999.2500
   4870.0000      2.7040      2.2660      2.4890     46.3970   -999.2500      1.5584     28.9798   -999.2500   -999.2500   -999.2500     27.5974     40.0061   -999.2500      2.4890      2.2660      2.7040     -5.6972   -999.2500    -18.7150     -5.9970   -999.2500   4869.6514   -999.2500   -999.2500   -999.2500   -999.2500
   4870.5000      2.9400      2.4880      2.6770     46.4070   -999.2500      1.5588     28.9896   -999.2500   -999.2500   -999.2500     27.6068     40.0197   -999.2500      2.6770      2.4880      2.9400     -6.8497   -999.2500    -19.8670     -7.2102   -999.2500   4870.1514   -999.2500   -999.2500   -999.2500   -999.2500
   4871.0000      3.1120      2.7240      2.7530     46.4170   -999.2500      1.5592     28.9995   -999.2500   -999.2500   -999.2500     27.6162     40.0333   -999.2500      2.7530      2.7240      3.1120     -8.9361   -999.2500    -21.9530     -9.4065   -999.2500   4870.6504   -999.2500   -999.2500   -999.2500   -999.2500
   4871.5000      3.2540      2.8310      2.8300     46.4270   -999.2500      1.5596     29.0093   -999.2500   -999.2500   -999.2500     27.6256     40.0469   -999.2500      2.8300      2.8310      3.2540    -12.7826   -999.2500    -25.7990    -13.4554   -999.2500   4871.1504   -999.2500   -999.2500   -999.2500   -999.2500
   4872.0000      3.2930      2.8660      2.8670     46.4370   -999.2500      1.5600     29.0192   -999.2500   -999.2500   -999.2500     27.6350     40.0605   -999.2500      2.8670      2.8660      3.2930    -19.8981   -999.2500    -32.9140    -20.9454   -999.2500   4871.6504   -999.2500   -999.2500   -999.2500   -999.2500
   4872.5000      3.3320      2.8930      2.8750     46.4470   -999.2500      1.5604     29.0291   -999.2500   -999.2500   -999.2500     27.6443     40.0742   -999.2500      2.8750      2.8930      3.3320    -21.3026   -999.2500    -34.3180    -22.4238   -999.2500   4872.1504   -999.2500   -999.2500   -999.2500   -999.2500
   4873.0000      3.4960      2.8920      2.9770     46.4570   -999.2500      1.5608     29.0389   -999.2500   -999.2500   -999.2500     27.6537     40.0878   -999.2500      2.9770      2.8920      3.4960    -21.6651   -999.2500    -34.6800    -22.8053   -999.2500   4872.6504   -999.2500   -999.2500   -999.2500   -999.2500
   4873.5000      3.5740      2.8920      3.1010     46.4670   -999.2500      1.5613     29.0488   -999.2500   -999.2500   -999.2500     27.6631     40.1014   -999.2500      3.1010      2.8920      3.5740    -17.6455   -999.2500    -30.6600    -18.5743   -999.2500   4873.1494   -999.2500   -999.2500   -999.2500   -999.2500
   4874.0000      3.7020      2.9770      3.2670     46.4770   -999.2500      1.5617     29.0587   -999.2500   -999.2500   -999.2500     27.6725     40.1150   -999.2500      3.2670      2.9770      3.7020    -16.3190   -999.2500    -29.3330    -17.1779   -999.2500   4873.6494   -999.2500   -999.2500   -999.2500   -999.2500
   4874.5000      3.8310      3.2060      3.5630     46.4870   -999.2500      1.5621     29.0686   -999.2500   -999.2500   -999.2500     27.6819     40.1286   -999.2500      3.5630      3.2060      3.8310    -15.6045   -999.2500    -28.6180    -16.4258   -999.2500   4874.1494   -999.2500   -999.2500   -999.2500   -999.2500
   4875.0000      3.9660      4.3540      3.9160     46.4970   -999.2500      1.5625     29.0785   -999.2500   -999.2500   -999.2500     27.6913     40.1423   -999.2500      3.9160      4.3540      3.9660    -15.6430   -999.2500    -28.6560    -16.4663   -999.2500   4874.6494   -999.2500   -999.2500   -999.2500   -999.2500
   4875.5000      4.0660      5.5020      5.5980     46.5070   -999.2500      1.5629     29.0884   -999.2500   -999.2500   -999.2500     27.7006     40.1559   -999.2500      5.5980      5.5020      4.0660    -17.9095   -999.2500    -30.9220    -18.8521   -999.2500   4875.1494   -999.2500   -999.2500   -999.2500   -999.2500
   4876.0000      4.1220      5.7810      6.9420     46.5170   -999.2500      1.5633     29.0983   -999.2500   -999.2500   -999.2500     27.7100     40.1695   -999.2500      6.9420      5.7810      4.1220    -20.3910   -999.2500    -33.4030    -21.4642   -999.2500   4875.6484   -999.2500   -999.2500   -999.2500   -999.2500
   4876.5000      3.9780      4.3440      7.2090     46.5270   -999.2500      1.5638     29.1082   -999.2500   -999.2500   -999.2500     27.7194     40.1832   -999.2500      7.2090      4.3440      3.9780    -21.7594   -999.2500    -34.7710    -22.9047   -999.2500   4876.1484   -999.2500   -999.2500   -999.2500   -999.2500
   4877.0000      3.7330      5.9020      7.3540     46.5370   -999.2500      1.5642     29.1181   -999.2500   -999.2500   -999.2500     27.7288     40.1968   -999.2500      7.3540      5.9020      3.7330    -20.8639   -999.2500    -33.8750    -21.9620   -999.2500   4876.6484   -999.2500   -999.2500   -999.2500   -999.2500
   4877.5000      3.6820      6.0950      7.4340     46.5470   -999.2500      1.5646     29.1280   -999.2500   -999.2500   -999.2500     27.7382     40.2105   -999.2500      7.4340      6.0950      3.6820    -19.1794   -999.2500    -32.1900    -20.1888   -999.2500   4877.1484   -999.2500   -999.2500   -999.2500   -999.2500
   4878.0000      3.7600      6.1590      7.1340     46.5570   -999.2500      1.5650     29.1379   -999.2500   -999.2500   -999.2500     27.7476     40.2241   -999.2500      7.1340      6.1590      3.7600    -18.4639   -999.2500    -31.4740    -19.4357   -999.2500   4877.6484   -999.2500   -999.2500   -999.2500   -999.2500
   4878.5000      3.8380      6.1650      6.6250     46.5670   -999.2500      1.5654     29.1478   -999.2500   -999.2500   -999.2500     27.7570     40.2378   -999.2500      6.6250      6.1650      3.8380    -18.2154   -999.2500    -31.2250    -19.1741   -999.2500   4878.1475   -999.2500   -999.2500   -999.2500   -999.2500
   4879.0000      3.8940      6.1060      5.9150     46.5770   -999.2500      1.5658     29.1577   -999.2500   -999.2500   -999.2500     27.7664     40.2514   -999.2500      5.9150      6.1060      3.8940    -19.5118   -999.2500    -32.5210    -20.5388   -999.2500   4878.6475   -999.2500   -999.2500   -999.2500   -999.2500
   4879.5000      3.9650      5.9910      4.2720     46.5870   -999.2500      1.5663     29.1677   -999.2500   -999.2500   -999.2500     27.7758     40.2651   -999.2500      4.2720      5.9910      3.9650    -21.2753   -999.2500    -34.2840    -22.3951   -999.2500   4879.1475   -999.2500   -999.2500   -999.2500   -999.2500
   4880.0000      3.9070      5.7240      3.4260     46.5970   -999.2500      1.5667     29.1776   -999.2500   -999.2500   -999.2500     27.7852     40.2787   -999.2500      3.4260      5.7240      3.9070    -24.5468   -999.2500    -37.5550    -25.8388   -999.2500   4879.6475   -999.2500   -999.2500   -999.2500   -999.2500
   4880.5000      3.8280      2.8870      2.8940     46.6069   -999.2500      1.5671     29.1875   -999.2500   -999.2500   -999.2500     27.7945     40.2924   -999.2500      2.8940      2.8870      3.8280    -30.0793   -999.2500    -43.0870    -31.6624   -999.2500   4880.1475   -999.2500   -999.2500   -999.2500   -999.2500
