~V
VERS. 2.00: Ver 2.00
WRAP.   NO:        
~W
 STRT.FT 656:
 STOP.FT 6986:
 STEP.FT 0.5:
 NULL. -999.250000:
 COMP. Richfield (ARCO):Company
 WELL. SAN EMIDIO A #11-28 REDRILL:Well
 FLD. SAN EMIDIO A #11-28 REDRILL:Field
 LOC. S28 T11N R22W:Location
 STAT. CA:State
 SRVC. :Service Company
 SON. :Service Order #
 DATE. :Log Date
 UWI. 1539401:Unique Well ID
~C
 DEPT.FT :
 AM16.OHMM :
 AO10.OHMM :
 AO19.OHMM :
 AZIM.DEG :
 BVES. :
 DEVI.DEG :
 EAST.FT :
 LTHE. :
 MCRV. :
 MM. :
 NORT.FT :
 OFFS.FT :
 PHZC. :
 RD.OHMM :
 RM.OHMM :
 RS.OHMM :
 SBL.MV :
 SCLN. :
 SP.MV :
 SPN. :
 STUS. :
 TVD.FT :
 VCDS. :
 VCLY. :
 VCWS. :
 VSHS. :
~P
~A
# ...
   3606.0000      3.8210      4.4460      4.4770    130.1597   -999.2500      0.5733     20.6480   -999.2500   -999.2500   -999.2500     19.3447     28.2791   -999.2500      4.4770      4.4460      3.8210     -4.0515   -999.2500    -18.2870     -4.2647   -999.2500   3605.7827   -999.2500   -999.2500   -999.2500   -999.2500
   3606.5000      3.6770      4.2230      4.3400    130.3397   -999.2500      0.5725     20.6518   -999.2500   -999.2500   -999.2500     19.3415     28.2795   -999.2500      4.3400      4.2230      3.6770     -3.9469   -999.2500    -18.1820     -4.1547   -999.2500   3606.2827   -999.2500   -999.2500   -999.2500   -999.2500
   3607.0000      3.5480      4.0000      4.1460    130.5197   -999.2500      0.5717     20.6556   -999.2500   -999.2500   -999.2500     19.3383     28.2799   -999.2500      4.1460      4.0000      3.5480     -3.8054   -999.2500    -18.0400     -4.0057   -999.2500   3606.7827   -999.2500   -999.2500   -999.2500   -999.2500
   3607.5000      3.4470      3.8850      4.0090    130.6997   -999.2500      0.5708     20.6594   -999.2500   -999.2500   -999.2500     19.3350     28.2803   -999.2500      4.0090      3.8850      3.4470     -3.6279   -999.2500    -17.8620     -3.8188   -999.2500   3607.2827   -999.2500   -999.2500   -999.2500   -999.2500
   3608.0000      3.3750      3.8060      3.8510    130.8797   -999.2500      0.5700     20.6631   -999.2500   -999.2500   -999.2500     19.3318     28.2807   -999.2500      3.8510      3.8060      3.3750     -3.2704   -999.2500    -17.5040     -3.4425   -999.2500   3607.7827   -999.2500   -999.2500   -999.2500   -999.2500
   3608.5000      3.3400      3.7420      3.7360    131.0597   -999.2500      0.5692     20.6669   -999.2500   -999.2500   -999.2500     19.3285     28.2810   -999.2500      3.7360      3.7420      3.3400     -3.0219   -999.2500    -17.2550     -3.1809   -999.2500   3608.2827   -999.2500   -999.2500   -999.2500   -999.2500
   3609.0000      3.3680      3.7130      3.6280    131.2397   -999.2500      0.5683     20.6706   -999.2500   -999.2500   -999.2500     19.3252     28.2813   -999.2500      3.6280      3.7130      3.3680     -2.7723   -999.2500    -17.0050     -2.9183   -999.2500   3608.7827   -999.2500   -999.2500   -999.2500   -999.2500
   3609.5000      3.4330      3.7060      3.6060    131.4197   -999.2500      0.5675     20.6743   -999.2500   -999.2500   -999.2500     19.3219     28.2816   -999.2500      3.6060      3.7060      3.4330     -2.7388   -999.2500    -16.9710     -2.8830   -999.2500   3609.2827   -999.2500   -999.2500   -999.2500   -999.2500
   3610.0000      3.5120      3.7780      3.5910    131.5997   -999.2500      0.5667     20.6780   -999.2500   -999.2500   -999.2500     19.3187     28.2819   -999.2500      3.5910      3.7780      3.5120     -2.9563   -999.2500    -17.1880     -3.1119   -999.2500   3609.7827   -999.2500   -999.2500   -999.2500   -999.2500
   3610.5000      3.6560      3.9070      3.7630    131.7797   -999.2500      0.5658     20.6817   -999.2500   -999.2500   -999.2500     19.3154     28.2822   -999.2500      3.7630      3.9070      3.6560     -3.3178   -999.2500    -17.5490     -3.4924   -999.2500   3610.2827   -999.2500   -999.2500   -999.2500   -999.2500
   3611.0000      3.7530      4.0070      3.8560    131.9597   -999.2500      0.5650     20.6854   -999.2500   -999.2500   -999.2500     19.3121     28.2825   -999.2500      3.8560      4.0070      3.7530     -3.4823   -999.2500    -17.7130     -3.6655   -999.2500   3610.7827   -999.2500   -999.2500   -999.2500   -999.2500
   3611.5000      3.8500      4.0870      4.0210    132.1396   -999.2500      0.5642     20.6890   -999.2500   -999.2500   -999.2500     19.3088     28.2827   -999.2500      4.0210      4.0870      3.8500     -3.6457   -999.2500    -17.8760     -3.8376   -999.2500   3611.2822   -999.2500   -999.2500   -999.2500   -999.2500
   3612.0000      4.1080      4.2160      4.1350    132.3196   -999.2500      0.5633     20.6926   -999.2500   -999.2500   -999.2500     19.3055     28.2829   -999.2500      4.1350      4.2160      4.1080     -3.7922   -999.2500    -18.0220     -3.9918   -999.2500   3611.7822   -999.2500   -999.2500   -999.2500   -999.2500
   3612.5000      4.3380      4.2950      4.2140    132.4996   -999.2500      0.5625     20.6963   -999.2500   -999.2500   -999.2500     19.3022     28.2832   -999.2500      4.2140      4.2950      4.3380     -3.7937   -999.2500    -18.0230     -3.9934   -999.2500   3612.2822   -999.2500   -999.2500   -999.2500   -999.2500
   3613.0000      4.5250      4.3740      4.2850    132.6796   -999.2500      0.5617     20.6999   -999.2500   -999.2500   -999.2500     19.2988     28.2834   -999.2500      4.2850      4.3740      4.5250     -3.7962   -999.2500    -18.0250     -3.9960   -999.2500   3612.7822   -999.2500   -999.2500   -999.2500   -999.2500
   3613.5000      4.6400      4.4240      4.3210    132.8596   -999.2500      0.5608     20.7035   -999.2500   -999.2500   -999.2500     19.2955     28.2835   -999.2500      4.3210      4.4240      4.6400     -3.9067   -999.2500    -18.1350     -4.1123   -999.2500   3613.2822   -999.2500   -999.2500   -999.2500   -999.2500
   3614.0000      4.7550      4.4890      4.3570    133.0396   -999.2500      0.5600     20.7070   -999.2500   -999.2500   -999.2500     19.2922     28.2837   -999.2500      4.3570      4.4890      4.7550     -4.3402   -999.2500    -18.5680     -4.5686   -999.2500   3613.7822   -999.2500   -999.2500   -999.2500   -999.2500
   3614.5000      5.1570      4.5680      4.3920    133.2196   -999.2500      0.5592     20.7106   -999.2500   -999.2500   -999.2500     19.2888     28.2839   -999.2500      4.3920      4.5680      5.1570     -4.8806   -999.2500    -19.1080     -5.1375   -999.2500   3614.2822   -999.2500   -999.2500   -999.2500   -999.2500
   3615.0000      5.3000      4.6680      4.4640    133.3996   -999.2500      0.5583     20.7141   -999.2500   -999.2500   -999.2500     19.2855     28.2840   -999.2500      4.4640      4.6680      5.3000     -6.2481   -999.2500    -20.4750     -6.5770   -999.2500   3614.7822   -999.2500   -999.2500   -999.2500   -999.2500
   3615.5000      5.4150      4.8410      4.5710    133.5796   -999.2500      0.5575     20.7177   -999.2500   -999.2500   -999.2500     19.2821     28.2841   -999.2500      4.5710      4.8410      5.4150     -8.4416   -999.2500    -22.6680     -8.8859   -999.2500   3615.2822   -999.2500   -999.2500   -999.2500   -999.2500
   3616.0000      5.5660      4.9840      4.6640    133.7596   -999.2500      0.5567     20.7212   -999.2500   -999.2500   -999.2500     19.2788     28.2842   -999.2500      4.6640      4.9840      5.5660    -10.2761   -999.2500    -24.5020    -10.8169   -999.2500   3615.7822   -999.2500   -999.2500   -999.2500   -999.2500
   3616.5000      5.7240      5.0560      4.7570    133.9396   -999.2500      0.5558     20.7247   -999.2500   -999.2500   -999.2500     19.2754     28.2843   -999.2500      4.7570      5.0560      5.7240    -14.0496   -999.2500    -28.2750    -14.7890   -999.2500   3616.2822   -999.2500   -999.2500   -999.2500   -999.2500
   3617.0000      5.8600      5.1780      4.9860    134.1196   -999.2500      0.5550     20.7281   -999.2500   -999.2500   -999.2500     19.2720     28.2844   -999.2500      4.9860      5.1780      5.8600    -19.6560   -999.2500    -33.8810    -20.6906   -999.2500   3616.7822   -999.2500   -999.2500   -999.2500   -999.2500
   3617.5000      5.9470      5.2430      5.0720    134.2996   -999.2500      0.5542     20.7316   -999.2500   -999.2500   -999.2500     19.2686     28.2844   -999.2500      5.0720      5.2430      5.9470    -20.5925   -999.2500    -34.8170    -21.6763   -999.2500   3617.2822   -999.2500   -999.2500   -999.2500   -999.2500
   3618.0000      6.0330      5.2930      5.2010    134.4796   -999.2500      0.5533     20.7350   -999.2500   -999.2500   -999.2500     19.2653     28.2845   -999.2500      5.2010      5.2930      6.0330    -19.7320   -999.2500    -33.9560    -20.7705   -999.2500   3617.7822   -999.2500   -999.2500   -999.2500   -999.2500
