~V
VERS. 2.00: Ver 2.00
WRAP.   NO:        
~W
 STRT.FT 656:
 STOP.FT 6986:
 STEP.FT 0.5:
 NULL. -999.250000:
 COMP. Richfield (ARCO):Company
 WELL. SAN EMIDIO A #11-28 REDRILL:Well
 FLD. SAN EMIDIO A #11-28 REDRILL:Field
 LOC. S28 T11N R22W:Location
 STAT. CA:State
 SRVC. :Service Company
 SON. :Service Order #
 DATE. :Log Date
 UWI. 1539401:Unique Well ID
~C
 DEPT.FT :
 AM16.OHMM :
 AO10.OHMM :
 AO19.OHMM :
 AZIM.DEG :
 BVES. :
 DEVI.DEG :
 EAST.FT :
 LTHE. :
 MCRV. :
 MM. :
 NORT.FT :
 OFFS.FT :
 PHZC. :
 RD.OHMM :
 RM.OHMM :
 RS.OHMM :
 SBL.MV :
 SCLN. :
 SP.MV :
 SPN. :
 STUS. :
 TVD.FT :
 VCDS. :
 VCLY. :
 VCWS. :
 VSHS. :
~P
~A
    656.0000      5.5730      0.3020      0.2170     53.7600   -999.2500      0.5366      0.2372   -999.2500   -999.2500   -999.2500      3.6006      2.7137   -999.2500      0.2170      0.3020      5.5730     -9.8980   -999.2500    -25.8980    -10.4189   -999.2500    655.9858   -999.2500   -999.2500   -999.2500   -999.2500
    656.5000      6.1050      0.3020      0.2160     54.2400   -999.2500      0.5362      0.2410   -999.2500   -999.2500   -999.2500      3.6033      2.7184   -999.2500      0.2160      0.3020      6.1050     -9.1120   -999.2500    -25.1120     -9.5916   -999.2500    656.4858   -999.2500   -999.2500   -999.2500   -999.2500
    657.0000      6.3560      0.3020      0.2150     54.7200   -999.2500      0.5358      0.2449   -999.2500   -999.2500   -999.2500      3.6060      2.7230   -999.2500      0.2150      0.3020      6.3560     -8.3980   -999.2500    -24.3980     -8.8400   -999.2500    656.9858   -999.2500   -999.2500   -999.2500   -999.2500
    657.5000      6.5360      0.3090      0.2140     55.2000   -999.2500      0.5354      0.2487   -999.2500   -999.2500   -999.2500      3.6087      2.7276   -999.2500      0.2140      0.3090      6.5360     -7.9340   -999.2500    -23.9340     -8.3516   -999.2500    657.4858   -999.2500   -999.2500   -999.2500   -999.2500
    658.0000      6.6580      0.3230      0.2130     55.6800   -999.2500      0.5350      0.2526   -999.2500   -999.2500   -999.2500      3.6113      2.7322   -999.2500      0.2130      0.3230      6.6580     -7.5060   -999.2500    -23.5060     -7.9011   -999.2500    657.9857   -999.2500   -999.2500   -999.2500   -999.2500
    658.5000      6.7520      0.3240      0.2120     56.1600   -999.2500      0.5346      0.2564   -999.2500   -999.2500   -999.2500      3.6139      2.7367   -999.2500      0.2120      0.3240      6.7520     -6.9710   -999.2500    -22.9710     -7.3379   -999.2500    658.4857   -999.2500   -999.2500   -999.2500   -999.2500
    659.0000      6.8020      0.3160      0.2110     56.6400   -999.2500      0.5341      0.2603   -999.2500   -999.2500   -999.2500      3.6165      2.7413   -999.2500      0.2110      0.3160      6.8020     -6.6160   -999.2500    -22.6160     -6.9642   -999.2500    658.9857   -999.2500   -999.2500   -999.2500   -999.2500
    659.5000      6.8530      0.3090      0.2030     57.1199   -999.2500      0.5337      0.2642   -999.2500   -999.2500   -999.2500      3.6190      2.7459   -999.2500      0.2030      0.3090      6.8530     -6.4390   -999.2500    -22.4390     -6.7779   -999.2500    659.4857   -999.2500   -999.2500   -999.2500   -999.2500
    660.0000      6.9100      0.2880      0.1940     57.6000   -999.2500      0.5333      0.2682   -999.2500   -999.2500   -999.2500      3.6215      2.7504   -999.2500      0.1940      0.2880      6.9100     -7.0160   -999.2500    -23.0160     -7.3853   -999.2500    659.9857   -999.2500   -999.2500   -999.2500   -999.2500
    660.5000      6.8520      0.2730      0.1930     58.0799   -999.2500      0.5329      0.2721   -999.2500   -999.2500   -999.2500      3.6240      2.7549   -999.2500      0.1930      0.2730      6.8520     -7.4130   -999.2500    -23.4130     -7.8032   -999.2500    660.4857   -999.2500   -999.2500   -999.2500   -999.2500
    661.0000      6.7450      0.2590      0.1850     58.5600   -999.2500      0.5325      0.2761   -999.2500   -999.2500   -999.2500      3.6264      2.7594   -999.2500      0.1850      0.2590      6.7450     -8.0610   -999.2500    -24.0610     -8.4853   -999.2500    660.9856   -999.2500   -999.2500   -999.2500   -999.2500
    661.5000      6.6150      0.2300      0.1840     59.0399   -999.2500      0.5321      0.2801   -999.2500   -999.2500   -999.2500      3.6288      2.7640   -999.2500      0.1840      0.2300      6.6150     -8.4570   -999.2500    -24.4570     -8.9021   -999.2500    661.4856   -999.2500   -999.2500   -999.2500   -999.2500
    662.0000      6.4930      0.2120      0.1820     59.5200   -999.2500      0.5317      0.2841   -999.2500   -999.2500   -999.2500      3.6311      2.7684   -999.2500      0.1820      0.2120      6.4930     -8.3530   -999.2500    -24.3530     -8.7926   -999.2500    661.9856   -999.2500   -999.2500   -999.2500   -999.2500
    662.5000      6.3990      0.1940      0.1890     59.9999   -999.2500      0.5312      0.2881   -999.2500   -999.2500   -999.2500      3.6334      2.7729   -999.2500      0.1890      0.1940      6.3990     -6.8850   -999.2500    -22.8850     -7.2474   -999.2500    662.4856   -999.2500   -999.2500   -999.2500   -999.2500
    663.0000      6.3130      0.1290      0.1950     60.4799   -999.2500      0.5308      0.2921   -999.2500   -999.2500   -999.2500      3.6357      2.7774   -999.2500      0.1950      0.1290      6.3130     -6.2070   -999.2500    -22.2070     -6.5337   -999.2500    662.9856   -999.2500   -999.2500   -999.2500   -999.2500
    663.5000      6.2770      0.0930      0.1940     60.9599   -999.2500      0.5304      0.2961   -999.2500   -999.2500   -999.2500      3.6380      2.7818   -999.2500      0.1940      0.0930      6.2770     -5.8870   -999.2500    -21.8870     -6.1968   -999.2500    663.4855   -999.2500   -999.2500   -999.2500   -999.2500
    664.0000      6.3130      0.0930      0.1930     61.4399   -999.2500      0.5300      0.3002   -999.2500   -999.2500   -999.2500      3.6402      2.7863   -999.2500      0.1930      0.0930      6.3130     -5.7820   -999.2500    -21.7820     -6.0863   -999.2500    663.9855   -999.2500   -999.2500   -999.2500   -999.2500
    664.5000      6.5430      1.8340      0.1920     61.9199   -999.2500      0.5296      0.3043   -999.2500   -999.2500   -999.2500      3.6424      2.7907   -999.2500      0.1920      1.8340      6.5430     -6.0000   -999.2500    -22.0000     -6.3158   -999.2500    664.4855   -999.2500   -999.2500   -999.2500   -999.2500
    665.0000      6.7300      3.0060      0.1900     62.3999   -999.2500      0.5292      0.3084   -999.2500   -999.2500   -999.2500      3.6445      2.7951   -999.2500      0.1900      3.0060      6.7300     -6.9350   -999.2500    -22.9350     -7.3000   -999.2500    664.9855   -999.2500   -999.2500   -999.2500   -999.2500
    665.5000      6.9530      3.9470      0.1890     62.8799   -999.2500      0.5287      0.3125   -999.2500   -999.2500   -999.2500      3.6466      2.7995   -999.2500      0.1890      3.9470      6.9530     -8.6940   -999.2500    -24.6940     -9.1516   -999.2500    665.4855   -999.2500   -999.2500   -999.2500   -999.2500
    666.0000      7.0250      5.4790      0.1880     63.3599   -999.2500      0.5283      0.3166   -999.2500   -999.2500   -999.2500      3.6487      2.8039   -999.2500      0.1880      5.4790      7.0250     -9.9160   -999.2500    -25.9160    -10.4379   -999.2500    665.9855   -999.2500   -999.2500   -999.2500   -999.2500
    666.5000      7.0540      6.7230      0.1870     63.8399   -999.2500      0.5279      0.3207   -999.2500   -999.2500   -999.2500      3.6507      2.8082   -999.2500      0.1870      6.7230      7.0540    -10.7790   -999.2500    -26.7790    -11.3463   -999.2500    666.4854   -999.2500   -999.2500   -999.2500   -999.2500
    667.0000      6.9890      7.0320      0.1860     64.3199   -999.2500      0.5275      0.3249   -999.2500   -999.2500   -999.2500      3.6527      2.8126   -999.2500      0.1860      7.0320      6.9890    -11.4620   -999.2500    -27.4620    -12.0653   -999.2500    666.9854   -999.2500   -999.2500   -999.2500   -999.2500
    667.5000      6.8240      7.2260      0.1850     64.7999   -999.2500      0.5271      0.3290   -999.2500   -999.2500   -999.2500      3.6546      2.8169   -999.2500      0.1850      7.2260      6.8240    -12.0030   -999.2500    -28.0030    -12.6347   -999.2500    667.4854   -999.2500   -999.2500   -999.2500   -999.2500
    668.0000      6.5070      7.2840      0.1810     65.2800   -999.2500      0.5267      0.3332   -999.2500   -999.2500   -999.2500      3.6566      2.8212   -999.2500      0.1810      7.2840      6.5070    -12.4720   -999.2500    -28.4720    -13.1284   -999.2500    667.9854   -999.2500   -999.2500   -999.2500   -999.2500
