~V
VERS. 2.00: Ver 2.00
WRAP.   NO:        
~W
 STRT.FT 656:
 STOP.FT 6986:
 STEP.FT 0.5:
 NULL. -999.250000:
 COMP. Richfield (ARCO):Company
 WELL. SAN EMIDIO A #11-28 REDRILL:Well
 FLD. SAN EMIDIO A #11-28 REDRILL:Field
 LOC. S28 T11N R22W:Location
 STAT. CA:State
 SRVC. :Service Company
 SON. :Service Order #
 DATE. :Log Date
 UWI. 1539401:Unique Well ID
~C
 DEPT.FT :
 AM16.OHMM :
 AO10.OHMM :
 AO19.OHMM :
 AZIM.DEG :
 BVES. :
 DEVI.DEG :
 EAST.FT :
 LTHE. :
 MCRV. :
 MM. :
 NORT.FT :
 OFFS.FT :
 PHZC. :
 RD.OHMM :
 RM.OHMM :
 RS.OHMM :
 SBL.MV :
 SCLN. :
 SP.MV :
 SPN. :
 STUS. :
 TVD.FT :
 VCDS. :
 VCLY. :
 VCWS. :
 VSHS. :
~P
~A
# ...
   2756.0000     10.6880      6.5780      9.3030    293.9202   -999.2500      0.4000     18.9670   -999.2500   -999.2500   -999.2500     16.9920     25.4268   -999.2500      9.3030      6.5780     10.6880    -31.8456   -999.2500    -46.9000    -33.5217   -999.2500   2755.8037   -999.2500   -999.2500   -999.2500   -999.2500
   2756.5000     10.7820      6.6580      9.3820    294.5802   -999.2500      0.4021     18.9638   -999.2500   -999.2500   -999.2500     16.9935     25.4256   -999.2500      9.3820      6.6580     10.7820    -33.6281   -999.2500    -48.6820    -35.3979   -999.2500   2756.3037   -999.2500   -999.2500   -999.2500   -999.2500
   2757.0000     10.8550      6.7130      9.4550    295.2402   -999.2500      0.4042     18.9606   -999.2500   -999.2500   -999.2500     16.9950     25.4244   -999.2500      9.4550      6.7130     10.8550    -34.3025   -999.2500    -49.3560    -36.1079   -999.2500   2756.8037   -999.2500   -999.2500   -999.2500   -999.2500
   2757.5000     10.8700      6.7670      9.4990    295.9002   -999.2500      0.4063     18.9574   -999.2500   -999.2500   -999.2500     16.9965     25.4232   -999.2500      9.4990      6.7670     10.8700    -35.1540   -999.2500    -50.2070    -37.0042   -999.2500   2757.3037   -999.2500   -999.2500   -999.2500   -999.2500
   2758.0000     10.8700      6.8540      9.5140    296.5602   -999.2500      0.4084     18.9542   -999.2500   -999.2500   -999.2500     16.9981     25.4221   -999.2500      9.5140      6.8540     10.8700    -35.6125   -999.2500    -50.6650    -37.4868   -999.2500   2757.8037   -999.2500   -999.2500   -999.2500   -999.2500
   2758.5000     10.8710      6.9410      9.5010    297.2202   -999.2500      0.4104     18.9510   -999.2500   -999.2500   -999.2500     16.9997     25.4210   -999.2500      9.5010      6.9410     10.8710    -35.6400   -999.2500    -50.6920    -37.5158   -999.2500   2758.3037   -999.2500   -999.2500   -999.2500   -999.2500
   2759.0000     10.8360      6.9920      9.4870    297.8802   -999.2500      0.4125     18.9478   -999.2500   -999.2500   -999.2500     17.0014     25.4200   -999.2500      9.4870      6.9920     10.8360    -35.6335   -999.2500    -50.6850    -37.5089   -999.2500   2758.8037   -999.2500   -999.2500   -999.2500   -999.2500
   2759.5000     10.8010      7.0710      9.4730    298.5402   -999.2500      0.4146     18.9447   -999.2500   -999.2500   -999.2500     17.0031     25.4189   -999.2500      9.4730      7.0710     10.8010    -35.5539   -999.2500    -50.6050    -37.4252   -999.2500   2759.3037   -999.2500   -999.2500   -999.2500   -999.2500
   2760.0000     10.7590      7.1580      9.4420    299.2003   -999.2500      0.4167     18.9415   -999.2500   -999.2500   -999.2500     17.0049     25.4180   -999.2500      9.4420      7.1580     10.7590    -35.4384   -999.2500    -50.4890    -37.3036   -999.2500   2759.8037   -999.2500   -999.2500   -999.2500   -999.2500
   2760.5000     10.7020      7.3450      9.4110    299.8602   -999.2500      0.4188     18.9383   -999.2500   -999.2500   -999.2500     17.0067     25.4170   -999.2500      9.4110      7.3450     10.7020    -35.2649   -999.2500    -50.3150    -37.1210   -999.2500   2760.3037   -999.2500   -999.2500   -999.2500   -999.2500
   2761.0000     10.5520      7.4890      9.2330    300.5203   -999.2500      0.4208     18.9352   -999.2500   -999.2500   -999.2500     17.0086     25.4161   -999.2500      9.2330      7.4890     10.5520    -34.8394   -999.2500    -49.8890    -36.6730   -999.2500   2760.8037   -999.2500   -999.2500   -999.2500   -999.2500
   2761.5000     10.4590      7.6190      9.0610    301.1802   -999.2500      0.4229     18.9320   -999.2500   -999.2500   -999.2500     17.0105     25.4152   -999.2500      9.0610      7.6190     10.4590    -33.8049   -999.2500    -48.8540    -35.5841   -999.2500   2761.3037   -999.2500   -999.2500   -999.2500   -999.2500
   2762.0000     10.2810      7.7490      8.8110    301.8403   -999.2500      0.4250     18.9288   -999.2500   -999.2500   -999.2500     17.0125     25.4144   -999.2500      8.8110      7.7490     10.2810    -32.9864   -999.2500    -48.0350    -34.7225   -999.2500   2761.8037   -999.2500   -999.2500   -999.2500   -999.2500
   2762.5000      9.9660      7.9080      8.5540    302.5002   -999.2500      0.4271     18.9257   -999.2500   -999.2500   -999.2500     17.0145     25.4135   -999.2500      8.5540      7.9080      9.9660    -32.4018   -999.2500    -47.4500    -34.1072   -999.2500   2762.3037   -999.2500   -999.2500   -999.2500   -999.2500
   2763.0000      9.7950      8.0370      8.1460    303.1603   -999.2500      0.4292     18.9226   -999.2500   -999.2500   -999.2500     17.0165     25.4128   -999.2500      8.1460      8.0370      9.7950    -31.8163   -999.2500    -46.8640    -33.4909   -999.2500   2762.8037   -999.2500   -999.2500   -999.2500   -999.2500
   2763.5000      9.3650      8.1170      7.8600    303.8203   -999.2500      0.4313     18.9194   -999.2500   -999.2500   -999.2500     17.0186     25.4120   -999.2500      7.8600      8.1170      9.3650    -30.5298   -999.2500    -45.5770    -32.1366   -999.2500   2763.3032   -999.2500   -999.2500   -999.2500   -999.2500
   2764.0000      9.1070      8.1530      7.5240    304.4803   -999.2500      0.4333     18.9163   -999.2500   -999.2500   -999.2500     17.0208     25.4114   -999.2500      7.5240      8.1530      9.1070    -29.2813   -999.2500    -44.3280    -30.8224   -999.2500   2763.8032   -999.2500   -999.2500   -999.2500   -999.2500
   2764.5000      8.8000      8.3690      7.2520    305.1403   -999.2500      0.4354     18.9132   -999.2500   -999.2500   -999.2500     17.0229     25.4107   -999.2500      7.2520      8.3690      8.8000    -28.2838   -999.2500    -43.3300    -29.7724   -999.2500   2764.3032   -999.2500   -999.2500   -999.2500   -999.2500
   2765.0000      8.5210      8.5420      7.0880    305.8003   -999.2500      0.4375     18.9101   -999.2500   -999.2500   -999.2500     17.0252     25.4101   -999.2500      7.0880      8.5420      8.5210    -27.1412   -999.2500    -42.1870    -28.5697   -999.2500   2764.8032   -999.2500   -999.2500   -999.2500   -999.2500
   2765.5000      8.2560      8.6870      6.9380    306.4603   -999.2500      0.4396     18.9070   -999.2500   -999.2500   -999.2500     17.0275     25.4095   -999.2500      6.9380      8.6870      8.2560    -26.2857   -999.2500    -41.3310    -27.6692   -999.2500   2765.3032   -999.2500   -999.2500   -999.2500   -999.2500
   2766.0000      7.5900      8.7660      6.8390    307.1203   -999.2500      0.4417     18.9040   -999.2500   -999.2500   -999.2500     17.0298     25.4090   -999.2500      6.8390      8.7660      7.5900    -25.8612   -999.2500    -40.9060    -27.2223   -999.2500   2765.8032   -999.2500   -999.2500   -999.2500   -999.2500
   2766.5000      7.2390      8.8460      6.7320    307.7803   -999.2500      0.4438     18.9009   -999.2500   -999.2500   -999.2500     17.0322     25.4085   -999.2500      6.7320      8.8460      7.2390    -25.1857   -999.2500    -40.2300    -26.5112   -999.2500   2766.3032   -999.2500   -999.2500   -999.2500   -999.2500
   2767.0000      6.9530      8.8750      6.6330    308.4403   -999.2500      0.4458     18.8979   -999.2500   -999.2500   -999.2500     17.0346     25.4081   -999.2500      6.6330      8.8750      6.9530    -24.7982   -999.2500    -39.8420    -26.1033   -999.2500   2766.8032   -999.2500   -999.2500   -999.2500   -999.2500
   2767.5000      6.6810      8.8970      6.4970    309.1003   -999.2500      0.4479     18.8948   -999.2500   -999.2500   -999.2500     17.0370     25.4077   -999.2500      6.4970      8.8970      6.6810    -24.4106   -999.2500    -39.4540    -25.6954   -999.2500   2767.3032   -999.2500   -999.2500   -999.2500   -999.2500
   2768.0000      6.5450      8.8690      6.1110    309.7603   -999.2500      0.4500     18.8918   -999.2500   -999.2500   -999.2500     17.0396     25.4073   -999.2500      6.1110      8.8690      6.5450    -22.0491   -999.2500    -37.0920    -23.2096   -999.2500   2767.8032   -999.2500   -999.2500   -999.2500   -999.2500
