~V
VERS. 2.00: Ver 2.00
WRAP.   NO:        
~W
 STRT.FT 656:
 STOP.FT 6986:
 STEP.FT 0.5:
 NULL. -999.250000:
 COMP. Richfield (ARCO):Company
 WELL. SAN EMIDIO A #11-28 REDRILL:Well
 FLD. SAN EMIDIO A #11-28 REDRILL:Field
 LOC. S28 T11N R22W:Location
 STAT. CA:State
 SRVC. :Service Company
 SON. :Service Order #
 DATE. :Log Date
 UWI. 1539401:Unique Well ID
~C
 DEPT.FT :
 AM16.OHMM :
 AO10.OHMM :
 AO19.OHMM :
 AZIM.DEG :
 BVES. :
 DEVI.DEG :
 EAST.FT :
 LTHE. :
 MCRV. :
 MM. :
 NORT.FT :
 OFFS.FT :
 PHZC. :
 RD.OHMM :
 RM.OHMM :
 RS.OHMM :
 SBL.MV :
 SCLN. :
 SP.MV :
 SPN. :
 STUS. :
 TVD.FT :
 VCDS. :
 VCLY. :
 VCWS. :
 VSHS. :
~P
~A
# ...
   1493.5000      4.2030      4.9620      6.0950     47.4046   -999.2500      0.7338      7.2040   -999.2500   -999.2500   -999.2500      7.4929     10.3923   -999.2500      6.0950      4.9620      4.2030     -4.0870   -999.2500    -20.0870     -4.3021   -999.2500   1493.4409   -999.2500   -999.2500   -999.2500   -999.2500
   1494.0000      4.1720      4.8330      5.9000     47.2196   -999.2500      0.7350      7.2087   -999.2500   -999.2500   -999.2500      7.4973     10.3987   -999.2500      5.9000      4.8330      4.1720     -3.3690   -999.2500    -19.3690     -3.5463   -999.2500   1493.9409   -999.2500   -999.2500   -999.2500   -999.2500
   1494.5000      4.1550      4.7190      5.7420     47.0346   -999.2500      0.7363      7.2134   -999.2500   -999.2500   -999.2500      7.5016     10.4051   -999.2500      5.7420      4.7190      4.1550     -2.9740   -999.2500    -18.9740     -3.1305   -999.2500   1494.4409   -999.2500   -999.2500   -999.2500   -999.2500
   1495.0000      4.1380      4.5980      5.8210     46.8496   -999.2500      0.7375      7.2181   -999.2500   -999.2500   -999.2500      7.5060     10.4115   -999.2500      5.8210      4.5980      4.1380     -3.4040   -999.2500    -19.4040     -3.5832   -999.2500   1494.9409   -999.2500   -999.2500   -999.2500   -999.2500
   1495.5000      4.1030      4.5780      6.3090     46.6646   -999.2500      0.7388      7.2228   -999.2500   -999.2500   -999.2500      7.5105     10.4180   -999.2500      6.3090      4.5780      4.1030     -3.6180   -999.2500    -19.6180     -3.8084   -999.2500   1495.4409   -999.2500   -999.2500   -999.2500   -999.2500
   1496.0000      4.1040      5.6290      6.4960     46.4796   -999.2500      0.7400      7.2274   -999.2500   -999.2500   -999.2500      7.5149     10.4244   -999.2500      6.4960      5.6290      4.1040     -3.7240   -999.2500    -19.7240     -3.9200   -999.2500   1495.9407   -999.2500   -999.2500   -999.2500   -999.2500
   1496.5000      4.1480      6.0470      6.6180     46.2946   -999.2500      0.7413      7.2321   -999.2500   -999.2500   -999.2500      7.5194     10.4309   -999.2500      6.6180      6.0470      4.1480     -3.8300   -999.2500    -19.8300     -4.0316   -999.2500   1496.4407   -999.2500   -999.2500   -999.2500   -999.2500
   1497.0000      4.2570      6.1340      6.7180     46.1096   -999.2500      0.7425      7.2368   -999.2500   -999.2500   -999.2500      7.5239     10.4374   -999.2500      6.7180      6.1340      4.2570     -3.8300   -999.2500    -19.8300     -4.0316   -999.2500   1496.9407   -999.2500   -999.2500   -999.2500   -999.2500
   1497.5000      4.3660      6.2750      6.7180     45.9246   -999.2500      0.7438      7.2414   -999.2500   -999.2500   -999.2500      7.5284     10.4438   -999.2500      6.7180      6.2750      4.3660     -3.9010   -999.2500    -19.9010     -4.1063   -999.2500   1497.4407   -999.2500   -999.2500   -999.2500   -999.2500
   1498.0000      4.4390      6.4170      6.6810     45.7396   -999.2500      0.7450      7.2461   -999.2500   -999.2500   -999.2500      7.5329     10.4503   -999.2500      6.6810      6.4170      4.4390     -4.6890   -999.2500    -20.6890     -4.9358   -999.2500   1497.9407   -999.2500   -999.2500   -999.2500   -999.2500
   1498.5000      4.4830      6.5650      6.6380     45.5546   -999.2500      0.7463      7.2507   -999.2500   -999.2500   -999.2500      7.5375     10.4569   -999.2500      6.6380      6.5650      4.4830     -5.2980   -999.2500    -21.2980     -5.5768   -999.2500   1498.4407   -999.2500   -999.2500   -999.2500   -999.2500
   1499.0000      4.5560      6.7140      6.7740     45.3696   -999.2500      0.7475      7.2554   -999.2500   -999.2500   -999.2500      7.5421     10.4634   -999.2500      6.7740      6.7140      4.5560     -5.9060   -999.2500    -21.9060     -6.2168   -999.2500   1498.9404   -999.2500   -999.2500   -999.2500   -999.2500
   1499.5000      4.5940      6.8940      7.0250     45.1846   -999.2500      0.7488      7.2600   -999.2500   -999.2500   -999.2500      7.5467     10.4699   -999.2500      7.0250      6.8940      4.5940     -6.5500   -999.2500    -22.5500     -6.8947   -999.2500   1499.4404   -999.2500   -999.2500   -999.2500   -999.2500
   1500.0000      4.6300      6.9530      7.2050     44.9996   -999.2500      0.7500      7.2647   -999.2500   -999.2500   -999.2500      7.5513     10.4765   -999.2500      7.2050      6.9530      4.6300     -7.2660   -999.2500    -23.2660     -7.6484   -999.2500   1499.9404   -999.2500   -999.2500   -999.2500   -999.2500
   1500.5000      4.6530      7.0040      7.2040     44.8996   -999.2500      0.7500      7.2693   -999.2500   -999.2500   -999.2500      7.5559     10.4830   -999.2500      7.2040      7.0040      4.6530     -8.3410   -999.2500    -24.3410     -8.7800   -999.2500   1500.4404   -999.2500   -999.2500   -999.2500   -999.2500
   1501.0000      4.6330      7.0270      7.1900     44.7996   -999.2500      0.7500      7.2739   -999.2500   -999.2500   -999.2500      7.5606     10.4896   -999.2500      7.1900      7.0270      4.6330     -9.2360   -999.2500    -25.2360     -9.7221   -999.2500   1500.9404   -999.2500   -999.2500   -999.2500   -999.2500
   1501.5000      4.3460      6.9990      7.0310     44.6996   -999.2500      0.7500      7.2785   -999.2500   -999.2500   -999.2500      7.5652     10.4961   -999.2500      7.0310      6.9990      4.3460     -6.8700   -999.2500    -22.8700     -7.2316   -999.2500   1501.4404   -999.2500   -999.2500   -999.2500   -999.2500
   1502.0000      4.1670      6.9790      6.5350     44.5996   -999.2500      0.7500      7.2831   -999.2500   -999.2500   -999.2500      7.5699     10.5026   -999.2500      6.5350      6.9790      4.1670     -6.4020   -999.2500    -22.4020     -6.7389   -999.2500   1501.9402   -999.2500   -999.2500   -999.2500   -999.2500
   1502.5000      4.1000      6.8650      6.0960     44.4996   -999.2500      0.7500      7.2877   -999.2500   -999.2500   -999.2500      7.5746     10.5092   -999.2500      6.0960      6.8650      4.1000     -5.9710   -999.2500    -21.9710     -6.2853   -999.2500   1502.4402   -999.2500   -999.2500   -999.2500   -999.2500
   1503.0000      4.0330      6.5070      5.8510     44.3996   -999.2500      0.7500      7.2922   -999.2500   -999.2500   -999.2500      7.5792     10.5157   -999.2500      5.8510      6.5070      4.0330     -5.3970   -999.2500    -21.3970     -5.6811   -999.2500   1502.9402   -999.2500   -999.2500   -999.2500   -999.2500
   1503.5000      3.8760      5.8320      5.6270     44.2996   -999.2500      0.7500      7.2968   -999.2500   -999.2500   -999.2500      7.5839     10.5223   -999.2500      5.6270      5.8320      3.8760     -4.6430   -999.2500    -20.6430     -4.8874   -999.2500   1503.4402   -999.2500   -999.2500   -999.2500   -999.2500
   1504.0000      3.8340      5.3150      5.4330     44.1996   -999.2500      0.7500      7.3014   -999.2500   -999.2500   -999.2500      7.5886     10.5288   -999.2500      5.4330      5.3150      3.8340     -4.0330   -999.2500    -20.0330     -4.2453   -999.2500   1503.9402   -999.2500   -999.2500   -999.2500   -999.2500
   1504.5000      3.8280      4.9350      5.2820     44.0996   -999.2500      0.7500      7.3059   -999.2500   -999.2500   -999.2500      7.5933     10.5354   -999.2500      5.2820      4.9350      3.8280     -3.6370   -999.2500    -19.6370     -3.8284   -999.2500   1504.4399   -999.2500   -999.2500   -999.2500   -999.2500
   1505.0000      3.8290      4.6840      5.1810     43.9996   -999.2500      0.7500      7.3105   -999.2500   -999.2500   -999.2500      7.5980     10.5419   -999.2500      5.1810      4.6840      3.8290     -3.6370   -999.2500    -19.6370     -3.8284   -999.2500   1504.9399   -999.2500   -999.2500   -999.2500   -999.2500
   1505.5000      3.8730      4.5780      5.1300     43.8996   -999.2500      0.7500      7.3150   -999.2500   -999.2500   -999.2500      7.6027     10.5485   -999.2500      5.1300      4.5780      3.8730     -3.6360   -999.2500    -19.6360     -3.8274   -999.2500   1505.4399   -999.2500   -999.2500   -999.2500   -999.2500
