~V
VERS. 2.00: Ver 2.00
WRAP.   NO:        
~W
 STRT.FT 656:
 STOP.FT 6986:
 STEP.FT 0.5:
 NULL. -999.250000:
 COMP. Richfield (ARCO):Company
 WELL. SAN EMIDIO A #11-28 REDRILL:Well
 FLD. SAN EMIDIO A #11-28 REDRILL:Field
 LOC. S28 T11N R22W:Location
 STAT. CA:State
 SRVC. :Service Company
 SON. :Service Order #
 DATE. :Log Date
 UWI. 1539401:Unique Well ID
~C
 DEPT.FT :
 AM16.OHMM :
 AO10.OHMM :
 AO19.OHMM :
 AZIM.DEG :
 BVES. :
 DEVI.DEG :
 EAST.FT :
 LTHE. :
 MCRV. :
 MM. :
 NORT.FT :
 OFFS.FT :
 PHZC. :
 RD.OHMM :
 RM.OHMM :
 RS.OHMM :
 SBL.MV :
 SCLN. :
 SP.MV :
 SPN. :
 STUS. :
 TVD.FT :
 VCDS. :
 VCLY. :
 VCWS. :
 VSHS. :
~P
~A
# ...
   1918.5000      7.7160      4.4730      7.1940     84.8196   -999.2500      1.0771     10.5965   -999.2500   -999.2500   -999.2500     11.4958     15.6216   -999.2500      7.1940      4.4730      7.7160    -10.5007   -999.2500    -26.3620    -11.0534   -999.2500   1918.4036   -999.2500   -999.2500   -999.2500   -999.2500
   1919.0000      8.2050      4.6530      7.3520     84.6796   -999.2500      1.0792     10.6059   -999.2500   -999.2500   -999.2500     11.4966     15.6288   -999.2500      7.3520      4.6530      8.2050    -12.0442   -999.2500    -27.9050    -12.6781   -999.2500   1918.9033   -999.2500   -999.2500   -999.2500   -999.2500
   1919.5000      8.7650      4.7820      7.5030     84.5396   -999.2500      1.0813     10.6152   -999.2500   -999.2500   -999.2500     11.4975     15.6361   -999.2500      7.5030      4.7820      8.7650    -14.2337   -999.2500    -30.0940    -14.9828   -999.2500   1919.4033   -999.2500   -999.2500   -999.2500   -999.2500
   1920.0000      9.3760      4.9110      7.6320     84.3996   -999.2500      1.0833     10.6247   -999.2500   -999.2500   -999.2500     11.4985     15.6434   -999.2500      7.6320      4.9110      9.3760    -15.5622   -999.2500    -31.4220    -16.3812   -999.2500   1919.9031   -999.2500   -999.2500   -999.2500   -999.2500
   1920.5000      9.9650      5.2490      7.8990     84.2596   -999.2500      1.0854     10.6341   -999.2500   -999.2500   -999.2500     11.4994     15.6507   -999.2500      7.8990      5.2490      9.9650    -19.9377   -999.2500    -35.7970    -20.9870   -999.2500   1920.4031   -999.2500   -999.2500   -999.2500   -999.2500
   1921.0000     10.4830      5.5790      8.0860     84.1196   -999.2500      1.0875     10.6435   -999.2500   -999.2500   -999.2500     11.5004     15.6581   -999.2500      8.0860      5.5790     10.4830    -21.9481   -999.2500    -37.8070    -23.1033   -999.2500   1920.9031   -999.2500   -999.2500   -999.2500   -999.2500
   1921.5000     11.2590      5.7510      8.5170     83.9796   -999.2500      1.0896     10.6530   -999.2500   -999.2500   -999.2500     11.5014     15.6655   -999.2500      8.5170      5.7510     11.2590    -24.4236   -999.2500    -40.2820    -25.7091   -999.2500   1921.4028   -999.2500   -999.2500   -999.2500   -999.2500
   1922.0000     12.2440      6.0600      8.7410     83.8396   -999.2500      1.0917     10.6624   -999.2500   -999.2500   -999.2500     11.5024     15.6729   -999.2500      8.7410      6.0600     12.2440    -26.2181   -999.2500    -42.0760    -27.5980   -999.2500   1921.9028   -999.2500   -999.2500   -999.2500   -999.2500
   1922.5000     13.2070      6.2680      9.1360     83.6996   -999.2500      1.0938     10.6719   -999.2500   -999.2500   -999.2500     11.5035     15.6804   -999.2500      9.1360      6.2680     13.2070    -28.0856   -999.2500    -43.9430    -29.5638   -999.2500   1922.4028   -999.2500   -999.2500   -999.2500   -999.2500
   1923.0000     14.2200      6.6270      9.4530     83.5596   -999.2500      1.0959     10.6814   -999.2500   -999.2500   -999.2500     11.5045     15.6878   -999.2500      9.4530      6.6270     14.2200    -29.0201   -999.2500    -44.8770    -30.5474   -999.2500   1922.9026   -999.2500   -999.2500   -999.2500   -999.2500
   1923.5000     14.7660      6.9290      9.7760     83.4196   -999.2500      1.0979     10.6910   -999.2500   -999.2500   -999.2500     11.5056     15.6954   -999.2500      9.7760      6.9290     14.7660    -29.8465   -999.2500    -45.7030    -31.4174   -999.2500   1923.4026   -999.2500   -999.2500   -999.2500   -999.2500
   1924.0000     15.1400      7.2230     10.0000     83.2796   -999.2500      1.1000     10.7005   -999.2500   -999.2500   -999.2500     11.5067     15.7029   -999.2500     10.0000      7.2230     15.1400    -30.4220   -999.2500    -46.2780    -32.0232   -999.2500   1923.9026   -999.2500   -999.2500   -999.2500   -999.2500
   1924.5000     15.4340      7.5390     10.1650     83.1396   -999.2500      1.1021     10.7100   -999.2500   -999.2500   -999.2500     11.5079     15.7104   -999.2500     10.1650      7.5390     15.4340    -30.7825   -999.2500    -46.6380    -32.4026   -999.2500   1924.4023   -999.2500   -999.2500   -999.2500   -999.2500
   1925.0000     15.6640      7.8200     10.3020     82.9996   -999.2500      1.1042     10.7196   -999.2500   -999.2500   -999.2500     11.5091     15.7180   -999.2500     10.3020      7.8200     15.6640    -31.0720   -999.2500    -46.9270    -32.7074   -999.2500   1924.9023   -999.2500   -999.2500   -999.2500   -999.2500
   1925.5000     15.8290      8.2940     10.4100     82.8596   -999.2500      1.1063     10.7292   -999.2500   -999.2500   -999.2500     11.5103     15.7257   -999.2500     10.4100      8.2940     15.8290    -31.5045   -999.2500    -47.3590    -33.1626   -999.2500   1925.4021   -999.2500   -999.2500   -999.2500   -999.2500
   1926.0000     15.9080      8.7890     10.4960     82.7196   -999.2500      1.1084     10.7388   -999.2500   -999.2500   -999.2500     11.5115     15.7333   -999.2500     10.4960      8.7890     15.9080    -31.8660   -999.2500    -47.7200    -33.5431   -999.2500   1925.9021   -999.2500   -999.2500   -999.2500   -999.2500
   1926.5000     15.9360      9.1410     10.4820     82.5796   -999.2500      1.1104     10.7484   -999.2500   -999.2500   -999.2500     11.5127     15.7410   -999.2500     10.4820      9.1410     15.9360    -32.1544   -999.2500    -48.0080    -33.8468   -999.2500   1926.4021   -999.2500   -999.2500   -999.2500   -999.2500
   1927.0000     15.9760      9.6590     10.4320     82.4396   -999.2500      1.1125     10.7580   -999.2500   -999.2500   -999.2500     11.5140     15.7487   -999.2500     10.4320      9.6590     15.9760    -32.3359   -999.2500    -48.1890    -34.0378   -999.2500   1926.9019   -999.2500   -999.2500   -999.2500   -999.2500
   1927.5000     16.0150     10.2410     10.3390     82.2996   -999.2500      1.1146     10.7676   -999.2500   -999.2500   -999.2500     11.5153     15.7564   -999.2500     10.3390     10.2410     16.0150    -32.5534   -999.2500    -48.4060    -34.2667   -999.2500   1927.4019   -999.2500   -999.2500   -999.2500   -999.2500
   1928.0000     16.0930     10.7730     10.2240     82.1596   -999.2500      1.1167     10.7773   -999.2500   -999.2500   -999.2500     11.5167     15.7642   -999.2500     10.2240     10.7730     16.0930    -32.6989   -999.2500    -48.5510    -34.4199   -999.2500   1927.9016   -999.2500   -999.2500   -999.2500   -999.2500
   1928.5000     16.1290     11.4840     10.1810     82.0196   -999.2500      1.1188     10.7870   -999.2500   -999.2500   -999.2500     11.5180     15.7720   -999.2500     10.1810     11.4840     16.1290    -32.8094   -999.2500    -48.6610    -34.5362   -999.2500   1928.4016   -999.2500   -999.2500   -999.2500   -999.2500
   1929.0000     16.1540     12.0660     10.0520     81.8796   -999.2500      1.1209     10.7966   -999.2500   -999.2500   -999.2500     11.5194     15.7798   -999.2500     10.0520     12.0660     16.1540    -32.8998   -999.2500    -48.7510    -34.6314   -999.2500   1928.9016   -999.2500   -999.2500   -999.2500   -999.2500
   1929.5000     16.1790     12.7200      9.9510     81.7396   -999.2500      1.1229     10.8063   -999.2500   -999.2500   -999.2500     11.5208     15.7877   -999.2500      9.9510     12.7200     16.1790    -32.9913   -999.2500    -48.8420    -34.7277   -999.2500   1929.4014   -999.2500   -999.2500   -999.2500   -999.2500
   1930.0000     16.2290     13.4240      9.8150     81.5996   -999.2500      1.1250     10.8161   -999.2500   -999.2500   -999.2500     11.5222     15.7956   -999.2500      9.8150     13.4240     16.2290    -33.1028   -999.2500    -48.9530    -34.8451   -999.2500   1929.9014   -999.2500   -999.2500   -999.2500   -999.2500
   1930.5000     16.2500     14.0710      9.6990     81.4596   -999.2500      1.1271     10.8258   -999.2500   -999.2500   -999.2500     11.5237     15.8035   -999.2500      9.6990     14.0710     16.2500    -32.9863   -999.2500    -48.8360    -34.7224   -999.2500   1930.4011   -999.2500   -999.2500   -999.2500   -999.2500
