~V
VERS. 2.00: Ver 2.00
WRAP.   NO:        
~W
 STRT.FT 656:
 STOP.FT 6986:
 STEP.FT 0.5:
 NULL. -999.250000:
 COMP. Richfield (ARCO):Company
 WELL. SAN EMIDIO A #11-28 REDRILL:Well
 FLD. SAN EMIDIO A #11-28 REDRILL:Field
 LOC. S28 T11N R22W:Location
 STAT. CA:State
 SRVC. :Service Company
 SON. :Service Order #
 DATE. :Log Date
 UWI. 1539401:Unique Well ID
~C
 DEPT.FT :
 AM16.OHMM :
 AO10.OHMM :
 AO19.OHMM :
 AZIM.DEG :
 BVES. :
 DEVI.DEG :
 EAST.FT :
 LTHE. :
 MCRV. :
 MM. :
 NORT.FT :
 OFFS.FT :
 PHZC. :
 RD.OHMM :
 RM.OHMM :
 RS.OHMM :
 SBL.MV :
 SCLN. :
 SP.MV :
 SPN. :
 STUS. :
 TVD.FT :
 VCDS. :
 VCLY. :
 VCWS. :
 VSHS. :
~P
~A
# ...
   3181.0000      6.8980      8.1530      6.7860     41.1802   -999.2500      0.3851     19.7188   -999.2500   -999.2500   -999.2500     18.9395     27.3356   -999.2500      6.7860      8.1530      6.8980    -21.5500   -999.2500    -36.1950    -22.6842   -999.2500   3180.7954   -999.2500   -999.2500   -999.2500   -999.2500
   3181.5000      6.6100      8.1090      6.8660     41.0702   -999.2500      0.3859     19.7210   -999.2500   -999.2500   -999.2500     18.9421     27.3389   -999.2500      6.8660      8.1090      6.6100    -20.3305   -999.2500    -34.9750    -21.4005   -999.2500   3181.2954   -999.2500   -999.2500   -999.2500   -999.2500
   3182.0000      6.0790      8.0290      6.8520     40.9602   -999.2500      0.3867     19.7232   -999.2500   -999.2500   -999.2500     18.9446     27.3423   -999.2500      6.8520      8.0290      6.0790    -19.6690   -999.2500    -34.3130    -20.7042   -999.2500   3181.7954   -999.2500   -999.2500   -999.2500   -999.2500
   3182.5000      5.3960      7.6480      6.7660     40.8502   -999.2500      0.3876     19.7254   -999.2500   -999.2500   -999.2500     18.9472     27.3457   -999.2500      6.7660      7.6480      5.3960    -19.0075   -999.2500    -33.6510    -20.0079   -999.2500   3182.2954   -999.2500   -999.2500   -999.2500   -999.2500
   3183.0000      4.9010      7.1880      6.6090     40.7402   -999.2500      0.3884     19.7276   -999.2500   -999.2500   -999.2500     18.9497     27.3490   -999.2500      6.6090      7.1880      4.9010    -18.1099   -999.2500    -32.7530    -19.0631   -999.2500   3182.7954   -999.2500   -999.2500   -999.2500   -999.2500
   3183.5000      4.6630      6.6930      6.3080     40.6302   -999.2500      0.3892     19.7298   -999.2500   -999.2500   -999.2500     18.9523     27.3524   -999.2500      6.3080      6.6930      4.6630    -17.2494   -999.2500    -31.8920    -18.1573   -999.2500   3183.2954   -999.2500   -999.2500   -999.2500   -999.2500
   3184.0000      4.4540      6.3260      5.8640     40.5202   -999.2500      0.3901     19.7321   -999.2500   -999.2500   -999.2500     18.9549     27.3558   -999.2500      5.8640      6.3260      4.4540    -15.1719   -999.2500    -29.8140    -15.9704   -999.2500   3183.7954   -999.2500   -999.2500   -999.2500   -999.2500
   3184.5000      4.3600      5.7080      5.3840     40.4102   -999.2500      0.3909     19.7343   -999.2500   -999.2500   -999.2500     18.9575     27.3592   -999.2500      5.3840      5.7080      4.3600    -11.8754   -999.2500    -26.5170    -12.5004   -999.2500   3184.2954   -999.2500   -999.2500   -999.2500   -999.2500
   3185.0000      4.2520      5.0690      4.8540     40.3002   -999.2500      0.3917     19.7365   -999.2500   -999.2500   -999.2500     18.9601     27.3626   -999.2500      4.8540      5.0690      4.2520     -9.5469   -999.2500    -24.1880    -10.0493   -999.2500   3184.7954   -999.2500   -999.2500   -999.2500   -999.2500
   3185.5000      4.1860      4.8320      4.5600     40.1902   -999.2500      0.3926     19.7387   -999.2500   -999.2500   -999.2500     18.9627     27.3660   -999.2500      4.5600      4.8320      4.1860     -7.6833   -999.2500    -22.3240     -8.0877   -999.2500   3185.2954   -999.2500   -999.2500   -999.2500   -999.2500
   3186.0000      4.2570      4.6510      4.4030     40.0802   -999.2500      0.3934     19.7409   -999.2500   -999.2500   -999.2500     18.9654     27.3695   -999.2500      4.4030      4.6510      4.2570     -6.8948   -999.2500    -21.5350     -7.2577   -999.2500   3185.7954   -999.2500   -999.2500   -999.2500   -999.2500
   3186.5000      4.2920      4.5070      4.6400     39.9702   -999.2500      0.3942     19.7431   -999.2500   -999.2500   -999.2500     18.9680     27.3729   -999.2500      4.6400      4.5070      4.2920     -6.3933   -999.2500    -21.0330     -6.7298   -999.2500   3186.2954   -999.2500   -999.2500   -999.2500   -999.2500
   3187.0000      4.3050      4.6640      5.1430     39.8602   -999.2500      0.3951     19.7453   -999.2500   -999.2500   -999.2500     18.9706     27.3763   -999.2500      5.1430      4.6640      4.3050     -6.6438   -999.2500    -21.2830     -6.9935   -999.2500   3186.7954   -999.2500   -999.2500   -999.2500   -999.2500
   3187.5000      4.3190      4.9640      5.3510     39.7502   -999.2500      0.3959     19.7475   -999.2500   -999.2500   -999.2500     18.9733     27.3798   -999.2500      5.3510      4.9640      4.3190     -6.9653   -999.2500    -21.6040     -7.3319   -999.2500   3187.2954   -999.2500   -999.2500   -999.2500   -999.2500
   3188.0000      4.2680      5.4370      5.5890     39.6402   -999.2500      0.3967     19.7497   -999.2500   -999.2500   -999.2500     18.9760     27.3832   -999.2500      5.5890      5.4370      4.2680     -7.4308   -999.2500    -22.0690     -7.8218   -999.2500   3187.7954   -999.2500   -999.2500   -999.2500   -999.2500
   3188.5000      4.2380      5.7730      5.6900     39.5302   -999.2500      0.3976     19.7519   -999.2500   -999.2500   -999.2500     18.9786     27.3867   -999.2500      5.6900      5.7730      4.2380     -8.9702   -999.2500    -23.6080     -9.4424   -999.2500   3188.2954   -999.2500   -999.2500   -999.2500   -999.2500
   3189.0000      4.1510      5.9230      5.7690     39.4202   -999.2500      0.3984     19.7541   -999.2500   -999.2500   -999.2500     18.9813     27.3901   -999.2500      5.7690      5.9230      4.1510    -10.1527   -999.2500    -24.7900    -10.6871   -999.2500   3188.7954   -999.2500   -999.2500   -999.2500   -999.2500
   3189.5000      3.7270      5.9860      5.8270     39.3102   -999.2500      0.3992     19.7564   -999.2500   -999.2500   -999.2500     18.9840     27.3936   -999.2500      5.8270      5.9860      3.7270     -7.5012   -999.2500    -22.1380     -7.8960   -999.2500   3189.2949   -999.2500   -999.2500   -999.2500   -999.2500
   3190.0000      3.5250      6.0210      5.7490     39.2002   -999.2500      0.4001     19.7586   -999.2500   -999.2500   -999.2500     18.9867     27.3971   -999.2500      5.7490      6.0210      3.5250     -6.7837   -999.2500    -21.4200     -7.1407   -999.2500   3189.7949   -999.2500   -999.2500   -999.2500   -999.2500
   3190.5000      3.4020      5.9410      5.4480     39.0902   -999.2500      0.4009     19.7608   -999.2500   -999.2500   -999.2500     18.9894     27.4005   -999.2500      5.4480      5.9410      3.4020     -6.5342   -999.2500    -21.1700     -6.8781   -999.2500   3190.2949   -999.2500   -999.2500   -999.2500   -999.2500
   3191.0000      3.3370      5.7250      5.1760     38.9802   -999.2500      0.4017     19.7630   -999.2500   -999.2500   -999.2500     18.9922     27.4040   -999.2500      5.1760      5.7250      3.3370     -6.2836   -999.2500    -20.9190     -6.6144   -999.2500   3190.7949   -999.2500   -999.2500   -999.2500   -999.2500
   3191.5000      3.3000      4.6770      4.5450     38.8702   -999.2500      0.4026     19.7652   -999.2500   -999.2500   -999.2500     18.9949     27.4075   -999.2500      4.5450      4.6770      3.3000     -5.7801   -999.2500    -20.4150     -6.0843   -999.2500   3191.2949   -999.2500   -999.2500   -999.2500   -999.2500
   3192.0000      3.3140      4.4400      4.0720     38.7602   -999.2500      0.4034     19.7674   -999.2500   -999.2500   -999.2500     18.9977     27.4110   -999.2500      4.0720      4.4400      3.3140     -5.4926   -999.2500    -20.1270     -5.7817   -999.2500   3191.7949   -999.2500   -999.2500   -999.2500   -999.2500
   3192.5000      3.4200      4.3170      3.9010     38.6502   -999.2500      0.4042     19.7696   -999.2500   -999.2500   -999.2500     19.0004     27.4145   -999.2500      3.9010      4.3170      3.4200     -5.2781   -999.2500    -19.9120     -5.5559   -999.2500   3192.2949   -999.2500   -999.2500   -999.2500   -999.2500
   3193.0000      3.6130      4.2730      3.7720     38.5402   -999.2500      0.4051     19.7718   -999.2500   -999.2500   -999.2500     19.0032     27.4180   -999.2500      3.7720      4.2730      3.6130     -5.1336   -999.2500    -19.7670     -5.4038   -999.2500   3192.7949   -999.2500   -999.2500   -999.2500   -999.2500
