~V
VERS. 2.00: Ver 2.00
WRAP.   NO:        
~W
 STRT.FT 656:
 STOP.FT 6986:
 STEP.FT 0.5:
 NULL. -999.250000:
 COMP. Richfield (ARCO):Company
 WELL. SAN EMIDIO A #11-28 REDRILL:Well
 FLD. SAN EMIDIO A #11-28 REDRILL:Field
 LOC. S28 T11N R22W:Location
 STAT. CA:State
 SRVC. :Service Company
 SON. :Service Order #
 DATE. :Log Date
 UWI. 1539401:Unique Well ID
~C
 DEPT.FT :
 AM16.OHMM :
 AO10.OHMM :
 AO19.OHMM :
 AZIM.DEG :
 BVES. :
 DEVI.DEG :
 EAST.FT :
 LTHE. :
 MCRV. :
 MM. :
 NORT.FT :
 OFFS.FT :
 PHZC. :
 RD.OHMM :
 RM.OHMM :
 RS.OHMM :
 SBL.MV :
 SCLN. :
 SP.MV :
 SPN. :
 STUS. :
 TVD.FT :
 VCDS. :
 VCLY. :
 VCWS. :
 VSHS. :
~P
~A
# ...
   4443.5000      8.2020      5.0060      5.4810     13.9173   -999.2500      0.9096     23.4180   -999.2500   -999.2500   -999.2500     20.0345     30.7256   -999.2500      5.4810      5.0060      8.2020    -32.6713   -999.2500    -46.1000    -34.3908   -999.2500   4443.2598   -999.2500   -999.2500   -999.2500   -999.2500
   4444.0000      8.4820      4.8840      5.4170     14.0773   -999.2500      0.9133     23.4200   -999.2500   -999.2500   -999.2500     20.0422     30.7324   -999.2500      5.4170      4.8840      8.4820    -32.9998   -999.2500    -46.4280    -34.7366   -999.2500   4443.7598   -999.2500   -999.2500   -999.2500   -999.2500
   4444.5000      8.8270      4.7470      5.4100     14.2373   -999.2500      0.9171     23.4220   -999.2500   -999.2500   -999.2500     20.0500     30.7393   -999.2500      5.4100      4.7470      8.8270    -33.2923   -999.2500    -46.7200    -35.0445   -999.2500   4444.2588   -999.2500   -999.2500   -999.2500   -999.2500
   4445.0000      9.0850      4.9120      5.7550     14.3973   -999.2500      0.9208     23.4240   -999.2500   -999.2500   -999.2500     20.0578     30.7462   -999.2500      5.7550      4.9120      9.0850    -32.0397   -999.2500    -45.4670    -33.7260   -999.2500   4444.7588   -999.2500   -999.2500   -999.2500   -999.2500
   4445.5000      9.3370      5.7740      6.2290     14.5573   -999.2500      0.9246     23.4260   -999.2500   -999.2500   -999.2500     20.0656     30.7532   -999.2500      6.2290      5.7740      9.3370    -31.1112   -999.2500    -44.5380    -32.7486   -999.2500   4445.2588   -999.2500   -999.2500   -999.2500   -999.2500
   4446.0000      9.4440      6.2910      6.5520     14.7173   -999.2500      0.9283     23.4280   -999.2500   -999.2500   -999.2500     20.0734     30.7602   -999.2500      6.5520      6.2910      9.4440    -30.4337   -999.2500    -43.8600    -32.0355   -999.2500   4445.7588   -999.2500   -999.2500   -999.2500   -999.2500
   4446.5000      9.5590      6.7220      6.8540     14.8773   -999.2500      0.9321     23.4301   -999.2500   -999.2500   -999.2500     20.0813     30.7672   -999.2500      6.8540      6.7220      9.5590    -29.6482   -999.2500    -43.0740    -31.2086   -999.2500   4446.2588   -999.2500   -999.2500   -999.2500   -999.2500
   4447.0000      9.6170      6.9670      7.0620     15.0373   -999.2500      0.9358     23.4322   -999.2500   -999.2500   -999.2500     20.0892     30.7743   -999.2500      7.0620      6.9670      9.6170    -29.1497   -999.2500    -42.5750    -30.6839   -999.2500   4446.7588   -999.2500   -999.2500   -999.2500   -999.2500
   4447.5000      9.4870      7.2250      7.1770     15.1973   -999.2500      0.9396     23.4344   -999.2500   -999.2500   -999.2500     20.0971     30.7814   -999.2500      7.1770      7.2250      9.4870    -29.0471   -999.2500    -42.4720    -30.5759   -999.2500   4447.2588   -999.2500   -999.2500   -999.2500   -999.2500
   4448.0000      9.1640      7.3760      7.3000     15.3573   -999.2500      0.9433     23.4366   -999.2500   -999.2500   -999.2500     20.1050     30.7886   -999.2500      7.3000      7.3760      9.1640    -28.5496   -999.2500    -41.9740    -30.0522   -999.2500   4447.7588   -999.2500   -999.2500   -999.2500   -999.2500
   4448.5000      8.7400      7.4620      7.3360     15.5173   -999.2500      0.9471     23.4388   -999.2500   -999.2500   -999.2500     20.1130     30.7957   -999.2500      7.3360      7.4620      8.7400    -27.2611   -999.2500    -40.6850    -28.6959   -999.2500   4448.2588   -999.2500   -999.2500   -999.2500   -999.2500
   4449.0000      8.2380      7.5480      7.2210     15.6773   -999.2500      0.9508     23.4410   -999.2500   -999.2500   -999.2500     20.1210     30.8030   -999.2500      7.2210      7.5480      8.2380    -26.3686   -999.2500    -39.7920    -27.7564   -999.2500   4448.7588   -999.2500   -999.2500   -999.2500   -999.2500
   4449.5000      7.5840      7.6560      6.8330     15.8373   -999.2500      0.9546     23.4433   -999.2500   -999.2500   -999.2500     20.1290     30.8103   -999.2500      6.8330      7.6560      7.5840    -25.0801   -999.2500    -38.5030    -26.4001   -999.2500   4449.2588   -999.2500   -999.2500   -999.2500   -999.2500
   4450.0000      7.0240      7.4620      6.4310     15.9973   -999.2500      0.9583     23.4456   -999.2500   -999.2500   -999.2500     20.1370     30.8176   -999.2500      6.4310      7.4620      7.0240    -22.7506   -999.2500    -36.1730    -23.9480   -999.2500   4449.7588   -999.2500   -999.2500   -999.2500   -999.2500
   4450.5000      5.9540      7.2250      6.0800     16.1573   -999.2500      0.9621     23.4479   -999.2500   -999.2500   -999.2500     20.1451     30.8249   -999.2500      6.0800      7.2250      5.9540    -20.0610   -999.2500    -33.4830    -21.1169   -999.2500   4450.2588   -999.2500   -999.2500   -999.2500   -999.2500
   4451.0000      4.8190      6.9740      5.5130     16.3173   -999.2500      0.9658     23.4503   -999.2500   -999.2500   -999.2500     20.1532     30.8323   -999.2500      5.5130      6.9740      4.8190    -16.1505   -999.2500    -29.5720    -17.0005   -999.2500   4450.7588   -999.2500   -999.2500   -999.2500   -999.2500
   4451.5000      4.0080      6.5500      5.0460     16.4773   -999.2500      0.9696     23.4527   -999.2500   -999.2500   -999.2500     20.1613     30.8398   -999.2500      5.0460      6.5500      4.0080    -12.8870   -999.2500    -26.3080    -13.5653   -999.2500   4451.2588   -999.2500   -999.2500   -999.2500   -999.2500
   4452.0000      3.7350      5.8530      4.1990     16.6373   -999.2500      0.9733     23.4551   -999.2500   -999.2500   -999.2500     20.1694     30.8472   -999.2500      4.1990      5.8530      3.7350     -9.2995   -999.2500    -22.7200     -9.7889   -999.2500   4451.7578   -999.2500   -999.2500   -999.2500   -999.2500
   4452.5000      3.6050      4.7470      3.6670     16.7973   -999.2500      0.9771     23.4576   -999.2500   -999.2500   -999.2500     20.1776     30.8547   -999.2500      3.6670      4.7470      3.6050     -6.9700   -999.2500    -20.3900     -7.3368   -999.2500   4452.2578   -999.2500   -999.2500   -999.2500   -999.2500
   4453.0000      3.7420      4.1510      3.3510     16.9573   -999.2500      0.9808     23.4601   -999.2500   -999.2500   -999.2500     20.1858     30.8623   -999.2500      3.3510      4.1510      3.7420     -5.9334   -999.2500    -19.3530     -6.2457   -999.2500   4452.7578   -999.2500   -999.2500   -999.2500   -999.2500
   4453.5000      4.0000      3.8420      3.2080     17.1173   -999.2500      0.9846     23.4626   -999.2500   -999.2500   -999.2500     20.1940     30.8699   -999.2500      3.2080      3.8420      4.0000     -5.5429   -999.2500    -18.9620     -5.8347   -999.2500   4453.2578   -999.2500   -999.2500   -999.2500   -999.2500
   4454.0000      4.3240      3.7990      3.1580     17.2773   -999.2500      0.9883     23.4652   -999.2500   -999.2500   -999.2500     20.2022     30.8775   -999.2500      3.1580      3.7990      4.3240     -5.5114   -999.2500    -18.9300     -5.8015   -999.2500   4453.7578   -999.2500   -999.2500   -999.2500   -999.2500
   4454.5000      4.4820      3.9290      3.4170     17.4373   -999.2500      0.9921     23.4678   -999.2500   -999.2500   -999.2500     20.2105     30.8852   -999.2500      3.4170      3.9290      4.4820     -6.5949   -999.2500    -20.0130     -6.9420   -999.2500   4454.2578   -999.2500   -999.2500   -999.2500   -999.2500
   4455.0000      4.7110      4.1370      3.5680     17.5973   -999.2500      0.9958     23.4704   -999.2500   -999.2500   -999.2500     20.2188     30.8929   -999.2500      3.5680      4.1370      4.7110    -10.0474   -999.2500    -23.4650    -10.5762   -999.2500   4454.7578   -999.2500   -999.2500   -999.2500   -999.2500
   4455.5000      4.8620      4.2450      3.7400     17.7573   -999.2500      0.9996     23.4731   -999.2500   -999.2500   -999.2500     20.2271     30.9007   -999.2500      3.7400      4.2450      4.8620    -12.3879   -999.2500    -25.8050    -13.0398   -999.2500   4455.2578   -999.2500   -999.2500   -999.2500   -999.2500
