~V
VERS. 2.00: Ver 2.00
WRAP.   NO:        
~W
 STRT.FT 656:
 STOP.FT 6986:
 STEP.FT 0.5:
 NULL. -999.250000:
 COMP. Richfield (ARCO):Company
 WELL. SAN EMIDIO A #11-28 REDRILL:Well
 FLD. SAN EMIDIO A #11-28 REDRILL:Field
 LOC. S28 T11N R22W:Location
 STAT. CA:State
 SRVC. :Service Company
 SON. :Service Order #
 DATE. :Log Date
 UWI. 1539401:Unique Well ID
~C
 DEPT.FT :
 AM16.OHMM :
 AO10.OHMM :
 AO19.OHMM :
 AZIM.DEG :
 BVES. :
 DEVI.DEG :
 EAST.FT :
 LTHE. :
 MCRV. :
 MM. :
 NORT.FT :
 OFFS.FT :
 PHZC. :
 RD.OHMM :
 RM.OHMM :
 RS.OHMM :
 SBL.MV :
 SCLN. :
 SP.MV :
 SPN. :
 STUS. :
 TVD.FT :
 VCDS. :
 VCLY. :
 VCWS. :
 VSHS. :
~P
~A
# ...
   6968.5000      9.1900     11.8480      9.8120    357.7851      0.0000      9.8938     63.9819      1.9961      3.0999      3.0532    125.1111    133.7089      0.1906      9.8120     11.8480      9.1900     -9.6100    -70.0000    -14.6100    -10.1158      0.8957   6962.6436      0.2874      0.5988      0.5039      1.9961
   6969.0000      9.1530     11.9910     10.1500    357.7976      0.0000      9.9000     63.9786      1.9885      3.0999      3.0521    125.1970    133.7673      0.1909     10.1500     11.9910      9.1530     -9.8290    -70.0000    -14.8290    -10.3463      0.8837   6963.1367      0.2863      0.5965      0.5030      1.9885
   6969.5000      9.1300     12.1420     10.2860    357.8101      0.0000      9.9063     63.9753      1.9833      3.0999      3.0514    125.2829    133.8257      0.1910     10.2860     12.1420      9.1300     -9.9760    -70.0000    -14.9760    -10.5011      0.8789   6963.6289      0.2856      0.5950      0.5023      1.9833
   6970.0000      9.1730     12.2430     10.4150    357.8226      0.0000      9.9125     63.9720      1.9756      3.0999      3.0504    125.3689    133.8842      0.1912     10.4150     12.2430      9.1730    -10.1950    -70.0000    -15.1950    -10.7316      0.8741   6964.1211      0.2845      0.5927      0.5013      1.9756
   6970.5000      9.1430     12.3430     10.4940    357.8351      0.0000      9.9188     63.9688      1.9742      3.1000      3.0502    125.4550    133.9428      0.1913     10.4940     12.3430      9.1430    -10.2340    -70.0000    -15.2340    -10.7726      0.8715   6964.6143      0.2843      0.5923      0.5011      1.9742
   6971.0000      9.0270     12.4290     10.4420    357.8477      0.0000      9.9250     63.9655      1.9767      3.1000      3.0506    125.5411    134.0014      0.1912     10.4420     12.4290      9.0270    -10.1650    -70.0000    -15.1650    -10.7000      0.8734   6965.1064      0.2846      0.5930      0.5014      1.9767
   6971.5000      8.9250     12.4430     10.2530    357.8602      0.0000      9.9313     63.9623      1.9829      3.1000      3.0515    125.6273    134.0601      0.1910     10.2530     12.4430      8.9250     -9.9870    -70.0000    -14.9870    -10.5126      0.8800   6965.5986      0.2855      0.5949      0.5022      1.9829
   6972.0000      8.8380     12.3700     10.0720    357.8727      0.0000      9.9375     63.9591      1.9866      3.1000      3.0520    125.7135    134.1188      0.1909     10.0720     12.3700      8.8380     -9.8810    -70.0000    -14.8810    -10.4011      0.8863   6966.0918      0.2861      0.5960      0.5027      1.9866
   6972.5000      8.8010     12.2320      9.9260    357.8852      0.0000      9.9438     63.9559      1.9865      3.1001      3.0521    125.7998    134.1776      0.1909      9.9260     12.2320      8.8010     -9.8840    -70.0000    -14.8840    -10.4042      0.8911   6966.5840      0.2861      0.5960      0.5027      1.9865
   6973.0000      8.8150     12.0580      9.7880    357.8977      0.0000      9.9500     63.9527      1.9915      3.1001      3.0528    125.8861    134.2364      0.1907      9.7880     12.0580      8.8150     -9.7420    -70.0000    -14.7420    -10.2547      0.8963   6967.0762      0.2868      0.5975      0.5033      1.9915
   6973.5000      8.8500     11.9340      9.6640    357.9102      0.0000      9.9563     63.9496      2.0028      3.1001      3.0544    125.9725    134.2952      0.1904      9.6640     11.9340      8.8500     -9.4200    -70.0000    -14.4200     -9.9158      0.9017   6967.5684      0.2884      0.6008      0.5047      2.0028
   6974.0000      8.8930     11.7240      9.4750    357.9227      0.0000      9.9625     63.9464      2.0103      3.1002      3.0554    126.0590    134.3541      0.1901      9.4750     11.7240      8.8930     -9.2060    -70.0000    -14.2060     -9.6905      0.9092   6968.0615      0.2895      0.6031      0.5057      2.0103
   6974.5000      8.9790     11.5430      9.3150    357.9352      0.0000      9.9688     63.9433      2.0115      3.1002      3.0556    126.1455    134.4131      0.1901      9.3150     11.5430      8.9790     -9.1730    -70.0000    -14.1730     -9.6558      0.9151   6968.5537      0.2897      0.6034      0.5058      2.0115
   6975.0000      9.0290     11.3760      9.1980    357.9478      0.0000      9.9750     63.9402      2.0139      3.1002      3.0560    126.2320    134.4721      0.1900      9.1980     11.3760      9.0290     -9.1040    -70.0000    -14.1040     -9.5832      0.9197   6969.0459      0.2900      0.6042      0.5061      2.0139
   6975.5000      9.0780     11.3390      9.1680    357.9603      0.0000      9.9813     63.9371      2.0113      3.1002      3.0556    126.3186    134.5312      0.1901      9.1680     11.3390      9.0780     -9.1780    -70.0000    -14.1780     -9.6611      0.9206   6969.5391      0.2896      0.6034      0.5058      2.0113
   6976.0000      9.2000     11.3380      9.1820    357.9728      0.0000      9.9875     63.9341      2.0099      3.1003      3.0555    126.4053    134.5903      0.1901      9.1820     11.3380      9.2000     -9.2170    -70.0000    -14.2170     -9.7021      0.9199   6970.0312      0.2894      0.6030      0.5056      2.0099
   6976.5000      9.2720     11.3590      9.1440    357.9853      0.0000      9.9938     63.9310      2.0124      3.1003      3.0558    126.4920    134.6494      0.1900      9.1440     11.3590      9.2720     -9.1480    -70.0000    -14.1480     -9.6295      0.9216   6970.5234      0.2898      0.6037      0.5059      2.0124
   6977.0000      9.3360     11.4020      9.1360    357.9978      0.0000     10.0000     63.9280      2.0123      3.1003      3.0559    126.5788    134.7086      0.1900      9.1360     11.4020      9.3360     -9.1500    -70.0000    -14.1500     -9.6316      0.9220   6971.0156      0.2898      0.6037      0.5059      2.0123
   6977.5000      9.2490     11.4950      9.2870    357.9722      0.0000      9.9872     63.9249      2.0147      3.1003      3.0562    126.6655    134.7677      0.1899      9.2870     11.4950      9.2490     -9.0810    -70.0000    -14.0810     -9.5589      0.9166   6971.5078      0.2901      0.6044      0.5062      2.0147
   6978.0000      9.0960     11.6970      9.4370    357.9465      0.0000      9.9744     63.9218      2.0159      3.1004      3.0564    126.7520    134.8268      0.1899      9.4370     11.6970      9.0960     -9.0480    -70.0000    -14.0480     -9.5242      0.9114   6972.0010      0.2903      0.6048      0.5063      2.0159
   6978.5000      9.4210     11.9050      9.5230    357.9209      0.0000      9.9616     63.9187      2.0246      3.1004      3.0576    126.8384    134.8857      0.1896      9.5230     11.9050      9.4210     -8.7980    -70.0000    -13.7980     -9.2611      0.9092   6972.4932      0.2915      0.6074      0.5074      2.0246
   6979.0000      9.7810     12.0130      9.5650    357.8953      0.0000      9.9487     63.9155      2.0296      3.1004      3.0584    126.9248    134.9445      0.1895      9.5650     12.0130      9.7810     -8.6560    -70.0000    -13.6560     -9.1116      0.9083   6972.9854      0.2923      0.6089      0.5080      2.0296
   6979.5000      9.9250     12.0630      9.5570    357.8696      0.0000      9.9359     63.9123      2.0194      3.1004      3.0570    127.0110    135.0031      0.1898      9.5570     12.0630      9.9250     -8.9480    -70.0000    -13.9480     -9.4189      0.9075   6973.4785      0.2908      0.6058      0.5067      2.0194
   6980.0000      9.9600     12.0620      9.4840    357.8440      0.0000      9.9231     63.9091      2.0180      3.1005      3.0568    127.0971    135.0617      0.1898      9.4840     12.0620      9.9600     -8.9860    -70.0000    -13.9860     -9.4589      0.9100   6973.9707      0.2906      0.6054      0.5065      2.0180
   6980.5000      9.9450     12.0040      9.4360    357.8184      0.0000      9.9103     63.9058      2.0152      3.1005      3.0564    127.1831    135.1202      0.1899      9.4360     12.0040      9.9450     -9.0680    -70.0000    -14.0680     -9.5453      0.9115   6974.4629      0.2902      0.6045      0.5062      2.0152
