~V
VERS. 2.00: Ver 2.00
WRAP.   NO:        
~W
 STRT.FT 656:
 STOP.FT 6986:
 STEP.FT 0.5:
 NULL. -999.250000:
 COMP. Richfield (ARCO):Company
 WELL. SAN EMIDIO A #11-28 REDRILL:Well
 FLD. SAN EMIDIO A #11-28 REDRILL:Field
 LOC. S28 T11N R22W:Location
 STAT. CA:State
 SRVC. :Service Company
 SON. :Service Order #
 DATE. :Log Date
 UWI. 1539401:Unique Well ID
~C
 DEPT.FT :
 AM16.OHMM :
 AO10.OHMM :
 AO19.OHMM :
 AZIM.DEG :
 BVES. :
 DEVI.DEG :
 EAST.FT :
 LTHE. :
 MCRV. :
 MM. :
 NORT.FT :
 OFFS.FT :
 PHZC. :
 RD.OHMM :
 RM.OHMM :
 RS.OHMM :
 SBL.MV :
 SCLN. :
 SP.MV :
 SPN. :
 STUS. :
 TVD.FT :
 VCDS. :
 VCLY. :
 VCWS. :
 VSHS. :
~P
~A
# ...
   5281.0000      1.8700      2.1140      1.8900     52.3771      0.0000      1.6984     37.3138      1.6223      2.9114      2.9114     36.6384     52.2921      0.2300      1.8900      2.1140      1.8700    -11.2541    -38.8763    -23.8760    -11.8465      1.4159   5280.4629      0.2336      0.4867      0.4846      1.6223
   5281.5000      1.8810      2.1150      1.9540     52.3671      0.0000      1.6976     37.3255      1.6065      2.9092      2.9092     36.6475     52.3068      0.2304      1.9540      2.1150      1.8810    -11.5046    -38.8760    -24.1260    -12.1101      1.3973   5280.9629      0.2313      0.4819      0.4819      1.6065
   5282.0000      1.8920      2.1220      1.9970     52.3571      0.0000      1.6967     37.3372      1.5838      2.9061      2.9061     36.6565     52.3215      0.2311      1.9970      2.1220      1.8920    -11.8631    -38.8758    -24.4840    -12.4875      1.3837   5281.4629      0.2281      0.4751      0.4751      1.5838
   5282.5000      1.9070      2.1340      2.0190     52.3471      0.0000      1.6959     37.3489      1.5635      2.9033      2.9033     36.6656     52.3361      0.2317      2.0190      2.1340      1.9070    -12.1856    -38.8755    -24.8060    -12.8269      1.3757   5281.9629      0.2251      0.4690      0.4690      1.5635
   5283.0000      1.9220      2.1450      2.0400     52.3371      0.0000      1.6951     37.3606      1.5972      2.9080      2.9080     36.6746     52.3508      0.2307      2.0400      2.1450      1.9220    -11.6521    -38.8752    -24.2720    -12.2653      1.3751   5282.4619      0.2300      0.4791      0.4791      1.5972
   5283.5000      1.9230      2.1810      2.0870     52.3271      0.0000      1.6942     37.3723      1.6534      2.9158      2.9158     36.6836     52.3655      0.2290      2.0870      2.1810      1.9230    -10.7615    -38.8750    -23.3810    -11.3279      1.3714   5282.9619      0.2381      0.4960      0.4885      1.6534
   5284.0000      1.9230      2.1820      2.1330     52.3171      0.0000      1.6934     37.3840      1.7007      2.9224      2.9224     36.6927     52.3801      0.2276      2.1330      2.1820      1.9230    -10.0130    -38.8747    -22.6320    -10.5400      1.3671   5283.4619      0.2449      0.5102      0.4945      1.7007
   5284.5000      1.8810      2.1900      2.1190     52.3071      0.0000      1.6926     37.3957      1.7186      2.9249      2.9249     36.7017     52.3948      0.2270      2.1190      2.1900      1.8810     -9.7295    -38.8745    -22.3480    -10.2416      1.3726   5283.9619      0.2475      0.5156      0.4968      1.7186
   5285.0000      1.8450      2.1900      2.0750     52.2971      0.0000      1.6917     37.4074      1.7005      2.9224      2.9224     36.7107     52.4094      0.2276      2.0750      2.1900      1.8450    -10.0160    -38.8742    -22.6340    -10.5431      1.3804   5284.4619      0.2449      0.5102      0.4945      1.7005
   5285.5000      1.8170      2.1910      2.0320     52.2871      0.0000      1.6909     37.4191      1.6734      2.9187      2.9187     36.7197     52.4241      0.2284      2.0320      2.1910      1.8170    -10.4455    -38.8739    -23.0630    -10.9952      1.3871   5284.9609      0.2410      0.5020      0.4910      1.6734
   5286.0000      1.7960      2.1840      2.0350     52.2771      0.0000      1.6901     37.4307      1.6484      2.9153      2.9153     36.7288     52.4387      0.2291      2.0350      2.1840      1.7960    -10.8399    -38.8737    -23.4570    -11.4105      1.3831   5285.4609      0.2374      0.4945      0.4878      1.6484
   5286.5000      1.7970      2.1850      2.0390     52.2671      0.0000      1.6892     37.4424      1.6371      2.9137      2.9137     36.7378     52.4533      0.2294      2.0390      2.1850      1.7970    -11.0194    -38.8734    -23.6360    -11.5994      1.3807   5285.9609      0.2357      0.4911      0.4864      1.6371
   5287.0000      1.7970      2.1780      2.0600     52.2571      0.0000      1.6884     37.4540      1.7205      2.9253      2.9253     36.7468     52.4679      0.2269      2.0600      2.1780      1.7970     -9.6999    -38.8731    -22.3160    -10.2104      1.3867   5286.4609      0.2477      0.5161      0.4970      1.7205
   5287.5000      1.8120      2.1790      2.0670     52.2471      0.0000      1.6876     37.4657      1.7181      2.9250      2.9250     36.7558     52.4825      0.2270      2.0670      2.1790      1.8120     -9.7374    -38.8729    -22.3530    -10.2499      1.3848   5286.9600      0.2474      0.5154      0.4967      1.7181
   5288.0000      1.8270      2.1790      2.1030     52.2372      0.0000      1.6867     37.4773      1.7000      2.9225      2.9225     36.7648     52.4971      0.2275      2.1030      2.1790      1.8270    -10.0239    -38.8726    -22.6390    -10.5514      1.3740   5287.4600      0.2448      0.5100      0.4944      1.7000
   5288.5000      1.8850      2.1870      2.1240     52.2271      0.0000      1.6859     37.4889      1.7517      2.9297      2.9297     36.7738     52.5117      0.2260      2.1240      2.1870      1.8850     -9.2054    -38.8723    -21.8200     -9.6898      1.3760   5287.9600      0.2522      0.5255      0.5009      1.7517
   5289.0000      1.9290      2.1870      2.1460     52.2172      0.0000      1.6851     37.5005      1.7314      2.9269      2.9269     36.7829     52.5263      0.2266      2.1460      2.1870      1.9290     -9.5268    -38.8721    -22.1410    -10.0283      1.3684   5288.4600      0.2493      0.5194      0.4983      1.7314
   5289.5000      1.9440      2.2020      2.1640     52.2072      0.0000      1.6842     37.5122      1.6997      2.9226      2.9226     36.7919     52.5409      0.2275      2.1640      2.2020      1.9440    -10.0283    -38.8718    -22.6420    -10.5561      1.3603   5288.9600      0.2448      0.5099      0.4943      1.6997
   5290.0000      1.9730      2.2030      2.1810     52.1972      0.0000      1.6834     37.5238      1.6703      2.9185      2.9185     36.8009     52.5555      0.2284      2.1810      2.2030      1.9730    -10.4938    -38.8716    -23.1070    -11.0461      1.3527   5289.4590      0.2405      0.5011      0.4905      1.6703
   5290.5000      2.0090      2.1890      2.2170     52.1872      0.0000      1.6826     37.5354      1.7266      2.9264      2.9264     36.8099     52.5700      0.2267      2.2170      2.1890      2.0090     -9.6023    -38.8713    -22.2150    -10.1077      1.3523   5289.9590      0.2486      0.5180      0.4977      1.7266
   5291.0000      2.0170      2.1540      2.1810     52.1772      0.0000      1.6817     37.5470      1.7242      2.9261      2.9261     36.8189     52.5846      0.2268      2.1810      2.1540      2.0170     -9.6398    -38.8710    -22.2520    -10.1471      1.3598   5290.4590      0.2483      0.5173      0.4974      1.7242
   5291.5000      2.0180      2.1400      2.0370     52.1672      0.0000      1.6809     37.5585      1.6813      2.9201      2.9201     36.8279     52.5991      0.2280      2.0370      2.1400      2.0180    -10.3192    -38.8708    -22.9310    -10.8624      1.3873   5290.9590      0.2421      0.5044      0.4919      1.6813
   5292.0000      1.9970      2.1400      2.1010     52.1572      0.0000      1.6801     37.5701      1.6428      2.9148      2.9148     36.8369     52.6137      0.2292      2.1010      2.1400      1.9970    -10.9277    -38.8705    -23.5390    -11.5029      1.3672   5291.4580      0.2366      0.4929      0.4870      1.6428
   5292.5000      1.9720      2.1260      2.1370     52.1472      0.0000      1.6792     37.5817      1.6834      2.9205      2.9205     36.8458     52.6282      0.2280      2.1370      2.1260      1.9720    -10.2862    -38.8702    -22.8970    -10.8276      1.3643   5291.9580      0.2424      0.5050      0.4922      1.6834
   5293.0000      1.9470      2.1310      2.1370     52.1372      0.0000      1.6784     37.5932      1.7396      2.9283      2.9283     36.8548     52.6427      0.2263      2.1370      2.1310      1.9470     -9.3957    -38.8700    -22.0060     -9.8902      1.3717   5292.4580      0.2505      0.5219      0.4993      1.7396
