~V
VERS. 2.00: Ver 2.00
WRAP.   NO:        
~W
 STRT.FT 656:
 STOP.FT 6986:
 STEP.FT 0.5:
 NULL. -999.250000:
 COMP. Richfield (ARCO):Company
 WELL. SAN EMIDIO A #11-28 REDRILL:Well
 FLD. SAN EMIDIO A #11-28 REDRILL:Field
 LOC. S28 T11N R22W:Location
 STAT. CA:State
 SRVC. :Service Company
 SON. :Service Order #
 DATE. :Log Date
 UWI. 1539401:Unique Well ID
~C
 DEPT.FT :
 AM16.OHMM :
 AO10.OHMM :
 AO19.OHMM :
 AZIM.DEG :
 BVES. :
 DEVI.DEG :
 EAST.FT :
 LTHE. :
 MCRV. :
 MM. :
 NORT.FT :
 OFFS.FT :
 PHZC. :
 RD.OHMM :
 RM.OHMM :
 RS.OHMM :
 SBL.MV :
 SCLN. :
 SP.MV :
 SPN. :
 STUS. :
 TVD.FT :
 VCDS. :
 VCLY. :
 VCWS. :
 VSHS. :
~P
~A
# ...
   2343.5000     12.2790     16.2240     12.8660     56.9490   -999.2500      0.6304     17.7651   -999.2500   -999.2500   -999.2500     15.1959     23.3070   -999.2500     12.8660     16.2240     12.2790    -28.2502   -999.2500    -43.7020    -29.7370   -999.2500   2343.3179   -999.2500   -999.2500   -999.2500   -999.2500
   2344.0000     12.2160     16.2970     12.6020     56.7990   -999.2500      0.6300     17.7697   -999.2500   -999.2500   -999.2500     15.1989     23.3124   -999.2500     12.6020     16.2970     12.2160    -28.7857   -999.2500    -44.2370    -30.3007   -999.2500   2343.8174   -999.2500   -999.2500   -999.2500   -999.2500
   2344.5000     12.1810     16.3370     12.3230     56.6490   -999.2500      0.6296     17.7743   -999.2500   -999.2500   -999.2500     15.2019     23.3177   -999.2500     12.3230     16.3370     12.1810    -29.0321   -999.2500    -44.4830    -30.5601   -999.2500   2344.3174   -999.2500   -999.2500   -999.2500   -999.2500
   2345.0000     12.1970     16.3780     12.0730     56.4990   -999.2500      0.6292     17.7789   -999.2500   -999.2500   -999.2500     15.2050     23.3231   -999.2500     12.0730     16.3780     12.1970    -28.9566   -999.2500    -44.4070    -30.4806   -999.2500   2344.8174   -999.2500   -999.2500   -999.2500   -999.2500
   2345.5000     12.2840     16.1210     11.9160     56.3490   -999.2500      0.6288     17.7835   -999.2500   -999.2500   -999.2500     15.2080     23.3285   -999.2500     11.9160     16.1210     12.2840    -28.8091   -999.2500    -44.2590    -30.3254   -999.2500   2345.3174   -999.2500   -999.2500   -999.2500   -999.2500
   2346.0000     12.3240     16.0140     11.8520     56.1990   -999.2500      0.6284     17.7880   -999.2500   -999.2500   -999.2500     15.2110     23.3339   -999.2500     11.8520     16.0140     12.3240    -28.7336   -999.2500    -44.1830    -30.2459   -999.2500   2345.8174   -999.2500   -999.2500   -999.2500   -999.2500
   2346.5000     12.3640     15.9510     11.7740     56.0490   -999.2500      0.6279     17.7926   -999.2500   -999.2500   -999.2500     15.2141     23.3393   -999.2500     11.7740     15.9510     12.3640    -28.6581   -999.2500    -44.1070    -30.1664   -999.2500   2346.3174   -999.2500   -999.2500   -999.2500   -999.2500
   2347.0000     12.4880     15.9090     11.6890     55.8990   -999.2500      0.6275     17.7971   -999.2500   -999.2500   -999.2500     15.2172     23.3446   -999.2500     11.6890     15.9090     12.4880    -29.1205   -999.2500    -44.5690    -30.6532   -999.2500   2346.8174   -999.2500   -999.2500   -999.2500   -999.2500
   2347.5000     12.5460     15.8880     11.7980     55.7490   -999.2500      0.6271     17.8016   -999.2500   -999.2500   -999.2500     15.2203     23.3500   -999.2500     11.7980     15.8880     12.5460    -30.3730   -999.2500    -45.8210    -31.9716   -999.2500   2347.3174   -999.2500   -999.2500   -999.2500   -999.2500
   2348.0000     12.5690     15.8680     11.9780     55.5990   -999.2500      0.6267     17.8062   -999.2500   -999.2500   -999.2500     15.2233     23.3554   -999.2500     11.9780     15.8680     12.5690    -31.3745   -999.2500    -46.8220    -33.0258   -999.2500   2347.8174   -999.2500   -999.2500   -999.2500   -999.2500
   2348.5000     12.5910     16.1270     12.3800     55.4490   -999.2500      0.6263     17.8107   -999.2500   -999.2500   -999.2500     15.2264     23.3608   -999.2500     12.3800     16.1270     12.5910    -32.0180   -999.2500    -47.4650    -33.7031   -999.2500   2348.3174   -999.2500   -999.2500   -999.2500   -999.2500
   2349.0000     12.5930     16.3790     12.7540     55.2990   -999.2500      0.6259     17.8151   -999.2500   -999.2500   -999.2500     15.2295     23.3661   -999.2500     12.7540     16.3790     12.5930    -32.4095   -999.2500    -47.8560    -34.1152   -999.2500   2348.8174   -999.2500   -999.2500   -999.2500   -999.2500
   2349.5000     12.5860     16.5170     13.1640     55.1490   -999.2500      0.6254     17.8196   -999.2500   -999.2500   -999.2500     15.2327     23.3715   -999.2500     13.1640     16.5170     12.5860    -32.5490   -999.2500    -47.9950    -34.2621   -999.2500   2349.3174   -999.2500   -999.2500   -999.2500   -999.2500
   2350.0000     12.4940     17.1130     13.4730     54.9990   -999.2500      0.6250     17.8241   -999.2500   -999.2500   -999.2500     15.2358     23.3769   -999.2500     13.4730     17.1130     12.4940    -32.7594   -999.2500    -48.2050    -34.4836   -999.2500   2349.8174   -999.2500   -999.2500   -999.2500   -999.2500
   2350.5000     12.3880     17.3870     13.7540     54.8490   -999.2500      0.6246     17.8285   -999.2500   -999.2500   -999.2500     15.2389     23.3822   -999.2500     13.7540     17.3870     12.3880    -33.0799   -999.2500    -48.5250    -34.8210   -999.2500   2350.3174   -999.2500   -999.2500   -999.2500   -999.2500
   2351.0000     12.0230     17.7250     14.0350     54.6990   -999.2500      0.6242     17.8330   -999.2500   -999.2500   -999.2500     15.2421     23.3876   -999.2500     14.0350     17.7250     12.0230    -33.4344   -999.2500    -48.8790    -35.1941   -999.2500   2350.8174   -999.2500   -999.2500   -999.2500   -999.2500
   2351.5000     11.1060     17.9480     14.2510     54.5490   -999.2500      0.6238     17.8374   -999.2500   -999.2500   -999.2500     15.2452     23.3930   -999.2500     14.2510     17.9480     11.1060    -33.5389   -999.2500    -48.9830    -35.3041   -999.2500   2351.3174   -999.2500   -999.2500   -999.2500   -999.2500
   2352.0000     10.1170     18.1860     14.4590     54.3990   -999.2500      0.6234     17.8419   -999.2500   -999.2500   -999.2500     15.2484     23.3983   -999.2500     14.4590     18.1860     10.1170    -31.9904   -999.2500    -47.4340    -33.6741   -999.2500   2351.8174   -999.2500   -999.2500   -999.2500   -999.2500
   2352.5000      9.5160     18.3160     14.5110     54.2490   -999.2500      0.6229     17.8463   -999.2500   -999.2500   -999.2500     15.2516     23.4037   -999.2500     14.5110     18.3160      9.5160    -24.7298   -999.2500    -40.1730    -26.0314   -999.2500   2352.3169   -999.2500   -999.2500   -999.2500   -999.2500
   2353.0000      8.6920     18.3600     14.3750     54.0990   -999.2500      0.6225     17.8507   -999.2500   -999.2500   -999.2500     15.2548     23.4091   -999.2500     14.3750     18.3600      8.6920    -22.4263   -999.2500    -37.8690    -23.6067   -999.2500   2352.8169   -999.2500   -999.2500   -999.2500   -999.2500
   2353.5000      8.4990     17.1710     14.1610     53.9490   -999.2500      0.6221     17.8551   -999.2500   -999.2500   -999.2500     15.2580     23.4144   -999.2500     14.1610     17.1710      8.4990    -20.4108   -999.2500    -35.8530    -21.4851   -999.2500   2353.3169   -999.2500   -999.2500   -999.2500   -999.2500
   2354.0000      7.8980     15.7730     12.7560     53.7990   -999.2500      0.6217     17.8594   -999.2500   -999.2500   -999.2500     15.2612     23.4198   -999.2500     12.7560     15.7730      7.8980    -18.2163   -999.2500    -33.6580    -19.1750   -999.2500   2353.8169   -999.2500   -999.2500   -999.2500   -999.2500
   2354.5000      7.6270     14.1100     12.1190     53.6490   -999.2500      0.6213     17.8638   -999.2500   -999.2500   -999.2500     15.2644     23.4252   -999.2500     12.1190     14.1100      7.6270    -16.5958   -999.2500    -32.0370    -17.4692   -999.2500   2354.3169   -999.2500   -999.2500   -999.2500   -999.2500
   2355.0000      7.4700     12.6630     11.6890     53.4990   -999.2500      0.6209     17.8682   -999.2500   -999.2500   -999.2500     15.2676     23.4305   -999.2500     11.6890     12.6630      7.4700    -15.4062   -999.2500    -30.8470    -16.2171   -999.2500   2354.8169   -999.2500   -999.2500   -999.2500   -999.2500
   2355.5000      7.3990     12.2550     11.4890     53.3490   -999.2500      0.6204     17.8725   -999.2500   -999.2500   -999.2500     15.2708     23.4359   -999.2500     11.4890     12.2550      7.3990    -14.8627   -999.2500    -30.3030    -15.6450   -999.2500   2355.3169   -999.2500   -999.2500   -999.2500   -999.2500
