~V
VERS. 2.00: Ver 2.00
WRAP.   NO:        
~W
 STRT.FT 656:
 STOP.FT 6986:
 STEP.FT 0.5:
 NULL. -999.250000:
 COMP. Richfield (ARCO):Company
 WELL. SAN EMIDIO A #11-28 REDRILL:Well
 FLD. SAN EMIDIO A #11-28 REDRILL:Field
 LOC. S28 T11N R22W:Location
 STAT. CA:State
 SRVC. :Service Company
 SON. :Service Order #
 DATE. :Log Date
 UWI. 1539401:Unique Well ID
~C
 DEPT.FT :
 AM16.OHMM :
 AO10.OHMM :
 AO19.OHMM :
 AZIM.DEG :
 BVES. :
 DEVI.DEG :
 EAST.FT :
 LTHE. :
 MCRV. :
 MM. :
 NORT.FT :
 OFFS.FT :
 PHZC. :
 RD.OHMM :
 RM.OHMM :
 RS.OHMM :
 SBL.MV :
 SCLN. :
 SP.MV :
 SPN. :
 STUS. :
 TVD.FT :
 VCDS. :
 VCLY. :
 VCWS. :
 VSHS. :
~P
~A
# ...
   6131.0000      8.8390      7.1470      4.6650     67.7484      0.0991      0.8850     52.0748      0.3524      2.1120      2.1120     47.4766     70.3934      0.2539      4.6650      7.1470      8.8390    -46.1335    -64.8985    -55.0780    -48.5616      0.5961   6130.2402      0.0507      0.1057      0.1057      0.3524
   6131.5000      8.6310      7.2580      4.6880     67.8734      0.0983      0.8859     52.0819      0.3630      2.1221      2.1221     47.4795     70.4005      0.2536      4.6880      7.2580      8.6310    -45.7400    -65.0004    -54.6770    -48.1473      0.5999   6130.7402      0.0523      0.1089      0.1089      0.3630
   6132.0000      8.2710      7.2590      4.6960     67.9984      0.0975      0.8867     52.0891      0.3809      2.1394      2.1394     47.4824     70.4077      0.2530      4.6960      7.2590      8.2710    -45.0194    -65.1024    -53.9490    -47.3889      0.6084   6131.2402      0.0549      0.1143      0.1143      0.3809
   6132.5000      7.6650      7.2240      4.6530     68.1234      0.0973      0.8875     52.0963      0.4070      2.1645      2.1645     47.4853     70.4148      0.2522      4.6530      7.2240      7.6650    -43.9359    -65.2043    -52.8580    -46.2483      0.6242   6131.7402      0.0586      0.1221      0.1221      0.4070
   6133.0000      7.1750      7.1900      4.6030     68.2484      0.0965      0.8884     52.1035      0.4494      2.2051      2.2051     47.4882     70.4219      0.2510      4.6030      7.1900      7.1750    -42.1274    -65.3062    -51.0420    -44.3446      0.6488   6132.2402      0.0647      0.1348      0.1348      0.4494
   6133.5000      6.8660      7.1920      4.5170     68.3734      0.0962      0.8892     52.1107      0.4965      2.2505      2.2505     47.4910     70.4290      0.2495      4.5170      7.1920      6.8660    -40.0999    -65.4081    -49.0070    -42.2104      0.6785   6132.7402      0.0715      0.1490      0.1490      0.4965
   6134.0000      6.5640      7.0990      4.4460     68.4984      0.0959      0.8900     52.1179      0.5394      2.2916      2.2916     47.4939     70.4362      0.2483      4.4460      7.0990      6.5640    -39.3073    -65.5100    -48.2070    -41.3761      0.7054   6133.2402      0.0777      0.1618      0.1618      0.5394
   6134.5000      6.3420      6.9560      4.3090     68.6234      0.0969      0.8909     52.1252      0.5813      2.3319      2.3319     47.4967     70.4433      0.2470      4.3090      6.9560      6.3420    -38.6228    -65.6120    -47.5150    -40.6556      0.7372   6133.7402      0.0837      0.1744      0.1744      0.5813
   6135.0000      6.2280      6.7120      4.0930     68.7484      0.1003      0.8917     52.1324      0.6108      2.3602      2.3602     47.4995     70.4504      0.2461      4.0930      6.7120      6.2280    -38.1563    -65.7139    -47.0410    -40.1645      0.7700   6134.2402      0.0880      0.1832      0.1832      0.6108
   6135.5000      6.1350      6.4890      3.8910     68.8734      0.1042      0.8925     52.1397      0.6280      2.3767      2.3767     47.5023     70.4575      0.2456      3.8910      6.4890      6.1350    -37.9087    -65.8158    -46.7860    -39.9039      0.7969   6134.7402      0.0904      0.1884      0.1884      0.6280
   6136.0000      6.0500      6.2740      3.7760     68.9984      0.1053      0.8934     52.1469      0.6756      2.4225      2.4225     47.5051     70.4646      0.2441      3.7760      6.2740      6.0500    -37.1152    -65.9177    -45.9850    -39.0686      0.8333   6135.2402      0.0973      0.2027      0.2027      0.6756
   6136.5000      6.0300      6.1740      3.6900     69.1234      0.1067      0.8942     52.1542      0.7008      2.4467      2.4467     47.5079     70.4718      0.2434      3.6900      6.1740      6.0300    -36.7217    -66.0197    -45.5840    -38.6544      0.8555   6135.7402      0.1009      0.2102      0.2102      0.7008
   6137.0000      6.0240      6.1830      3.6760     69.2484      0.1063      0.8950     52.1615      0.7218      2.4669      2.4669     47.5107     70.4789      0.2427      3.6760      6.1830      6.0240    -36.4011    -66.1216    -45.2560    -38.3170      0.8685   6136.2402      0.1039      0.2165      0.2165      0.7218
   6137.5000      6.0330      6.3370      3.7930     69.3734      0.1033      0.8959     52.1689      0.7227      2.4678      2.4678     47.5134     70.4860      0.2427      3.7930      6.3370      6.0330    -36.4406    -66.2235    -45.2880    -38.3585      0.8572   6136.7402      0.1041      0.2168      0.2168      0.7227
   6138.0000      6.0350      6.8370      4.0970     69.4984      0.0962      0.8967     52.1762      0.7213      2.4665      2.4665     47.5162     70.4931      0.2427      4.0970      6.8370      6.0350    -36.5211    -66.3254    -45.3610    -38.4433      0.8282   6137.2393      0.1039      0.2164      0.2164      0.7213
   6138.5000      5.9500      7.5690      4.4660     69.6234      0.0891      0.8975     52.1835      0.7060      2.4518      2.4518     47.5189     70.5002      0.2432      4.4660      7.5690      5.9500    -36.8536    -66.4273    -45.6860    -38.7932      0.7896   6137.7393      0.1017      0.2118      0.2118      0.7060
   6139.0000      5.3510      8.0120      4.9660     69.7484      0.0802      0.8984     52.1909      0.7008      2.4469      2.4469     47.5216     70.5074      0.2433      4.9660      8.0120      5.3510    -37.0040    -66.5293    -45.8290    -38.9516      0.7510   6138.2393      0.1009      0.2102      0.2102      0.7008
   6139.5000      4.6220      8.4910      5.4440     69.8734      0.0742      0.8992     52.1982      0.7036      2.4496      2.4496     47.5243     70.5145      0.2432      5.4440      8.4910      4.6220    -37.0095    -66.6312    -45.8270    -38.9574      0.7292   6138.7393      0.1013      0.2111      0.2111      0.7036
   6140.0000      4.1610      8.7240      5.6760     69.9984      0.0708      0.9000     52.2056      0.7085      2.4543      2.4543     47.5270     70.5216      0.2431      5.6760      8.7240      4.1610    -36.9790    -66.7331    -45.7890    -38.9252      0.7187   6139.2393      0.1020      0.2125      0.2125      0.7085
   6140.5000      3.8160      8.8120      5.6410     70.1234      0.0711      0.9009     52.2130      0.7113      2.4570      2.4570     47.5297     70.5287      0.2430      5.6410      8.8120      3.8160    -36.9844    -66.8350    -45.7870    -38.9310      0.7220   6139.7393      0.1024      0.2134      0.2134      0.7113
   6141.0000      3.5640      8.5820      5.3090     70.2484      0.0760      0.9017     52.2204      0.7081      2.4539      2.4539     47.5323     70.5358      0.2431      5.3090      8.5820      3.5640    -37.0989    -66.9369    -45.8940    -39.0515      0.7394   6140.2393      0.1020      0.2124      0.2124      0.7081
   6141.5000      3.4430      7.8610      4.8250     70.3734      0.0826      0.9025     52.2279      0.7408      2.4854      2.4854     47.5350     70.5430      0.2421      4.8250      7.8610      3.4430    -36.5604    -67.0389    -45.3480    -38.4846      0.7872   6140.7393      0.1067      0.2222      0.2222      0.7408
   6142.0000      3.4090      6.4090      3.8210     70.4984      0.1009      0.9034     52.2353      0.7754      2.5186      2.5186     47.5376     70.5501      0.2410      3.8210      6.4090      3.4090    -35.9849    -67.1408    -44.7650    -37.8788      0.8834   6141.2393      0.1117      0.2326      0.2326      0.7754
   6142.5000      3.3810      5.3700      3.3590     70.6234      0.1131      0.9042     52.2427      0.7880      2.5307      2.5307     47.5402     70.5572      0.2407      3.3590      5.3700      3.3810    -35.8103    -67.2427    -44.5830    -37.6951      0.9409   6141.7393      0.1135      0.2364      0.2364      0.7880
   6143.0000      3.3830      4.6480      2.9400     70.7484      0.1220      0.9050     52.2502      0.8224      2.5638      2.5638     47.5428     70.5643      0.2396      2.9400      4.6480      3.3830    -35.2348    -67.3446    -44.0000    -37.0893      1.0131   6142.2393      0.1184      0.2467      0.2467      0.8224
