~V
VERS. 2.00: Ver 2.00
WRAP.   NO:        
~W
 STRT.FT 656:
 STOP.FT 6986:
 STEP.FT 0.5:
 NULL. -999.250000:
 COMP. Richfield (ARCO):Company
 WELL. SAN EMIDIO A #11-28 REDRILL:Well
 FLD. SAN EMIDIO A #11-28 REDRILL:Field
 LOC. S28 T11N R22W:Location
 STAT. CA:State
 SRVC. :Service Company
 SON. :Service Order #
 DATE. :Log Date
 UWI. 1539401:Unique Well ID
~C
 DEPT.FT :
 AM16.OHMM :
 AO10.OHMM :
 AO19.OHMM :
 AZIM.DEG :
 BVES. :
 DEVI.DEG :
 EAST.FT :
 LTHE. :
 MCRV. :
 MM. :
 NORT.FT :
 OFFS.FT :
 PHZC. :
 RD.OHMM :
 RM.OHMM :
 RS.OHMM :
 SBL.MV :
 SCLN. :
 SP.MV :
 SPN. :
 STUS. :
 TVD.FT :
 VCDS. :
 VCLY. :
 VCWS. :
 VSHS. :
~P
~A
# ...
   6543.5000      2.0920      2.7850      2.8920     16.5409      0.0000      5.7287     59.2666      2.0127      3.0328      3.0328     64.3783     87.4302      0.1972      2.8920      2.7850      2.0920     -5.9401    -45.5000     -9.9820     -6.2527      1.3487   6542.1523      0.2898      0.6038      0.5131      2.0127
   6544.0000      2.0990      2.7850      2.8630     16.4877      0.0000      5.7553     59.2808      2.0337      3.0357      3.0357     64.4264     87.4742      0.1966      2.8630      2.7850      2.0990     -5.5513    -45.5000     -9.5900     -5.8435      1.3563   6542.6494      0.2928      0.6101      0.5158      2.0337
   6544.5000      2.0770      2.6690      2.7980     16.4345      0.0000      5.7819     59.2951      2.0352      3.0360      3.0360     64.4747     87.5185      0.1965      2.7980      2.6690      2.0770     -5.5235    -45.5000     -9.5590     -5.8142      1.3675   6543.1475      0.2931      0.6106      0.5160      2.0352
   6545.0000      2.0770      2.5320      2.7050     16.3813      0.0000      5.8085     59.3093      2.0444      3.0373      3.0373     64.5233     87.5629      0.1963      2.7050      2.5320      2.0770     -5.3517    -45.5000     -9.3840     -5.6334      1.3850   6543.6445      0.2944      0.6133      0.5171      2.0444
   6545.5000      2.0690      2.4370      2.6550     16.3281      0.0000      5.8351     59.3236      2.0615      3.0397      3.0397     64.5721     87.6075      0.1957      2.6550      2.4370      2.0690     -5.0360    -45.5000     -9.0650     -5.3010      1.3964   6544.1416      0.2969      0.6184      0.5193      2.0615
   6546.0000      2.0690      2.4150      2.6480     16.2749      0.0000      5.8617     59.3379      2.0961      3.0445      3.0445     64.6211     87.6523      0.1947      2.6480      2.4150      2.0690     -4.3952    -45.5000     -8.4210     -4.6265      1.4026   6544.6396      0.3018      0.6288      0.5237      2.0961
   6546.5000      2.0970      2.3860      2.6480     16.2217      0.0000      5.8883     59.3523      2.1443      3.0512      3.0512     64.6703     87.6972      0.1932      2.6480      2.3860      2.0970     -3.5014    -45.5000     -7.5240     -3.6857      1.4094   6545.1367      0.3088      0.6433      0.5298      2.1443
   6547.0000      2.0970      2.3130      2.6410     16.1685      0.0000      5.9149     59.3666      2.1887      3.0574      3.0573     64.7198     87.7424      0.1919      2.6410      2.3130      2.0970     -2.6796    -45.5000     -6.6990     -2.8207      1.4170   6545.6338      0.3152      0.6566      0.5354      2.1887
   6547.5000      2.0960      2.2770      2.5410     16.1154      0.0000      5.9415     59.3810      2.2213      3.0619      3.0619     64.7695     87.7877      0.1909      2.5410      2.2770      2.0960     -2.0749    -45.5000     -6.0910     -2.1841      1.4409   6546.1309      0.3199      0.6664      0.5396      2.2213
   6548.0000      2.0960      2.1830      2.4690     16.0622      0.0000      5.9681     59.3954      2.2189      3.0616      3.0616     64.8195     87.8332      0.1910      2.4690      2.1830      2.0960     -2.1191    -45.5000     -6.1320     -2.2306      1.4550   6546.6289      0.3195      0.6657      0.5392      2.2189
   6548.5000      2.0880      2.1320      2.3390     16.0090      0.0000      5.9947     59.4098      2.1776      3.0559      3.0559     64.8697     87.8789      0.1922      2.3390      2.1320      2.0880     -2.8853    -45.5000     -6.8950     -3.0372      1.4764   6547.1260      0.3136      0.6533      0.5340      2.1776
   6549.0000      2.1170      2.0880      2.2740     15.9558      0.0000      6.0213     59.4242      2.1557      3.0529      3.0529     64.9201     87.9247      0.1928      2.2740      2.0880      2.1170     -3.2915    -45.5000     -7.2980     -3.4648      1.4876   6547.6230      0.3104      0.6467      0.5312      2.1557
   6549.5000      2.2540      2.0520      2.3110     15.9026      0.0000      6.0479     59.4386      2.1240      3.0485      3.0485     64.9708     87.9707      0.1938      2.3110      2.0520      2.2540     -3.8778    -45.5000     -7.8810     -4.0819      1.4748   6548.1201      0.3059      0.6372      0.5272      2.1240
   6550.0000      2.4630      2.0510      2.4920     15.8494      0.0000      6.0745     59.4531      2.0787      3.0423      3.0423     65.0217     88.0170      0.1951      2.4920      2.0510      2.4630     -4.7170    -45.5000     -8.7170     -4.9653      1.4303   6548.6172      0.2993      0.6236      0.5214      2.0787
   6550.5000      2.7150      2.1010      2.6510     15.7962      0.0000      6.1011     59.4675      2.0128      3.0332      3.0332     65.0728     88.0633      0.1971      2.6510      2.1010      2.7150     -5.9383    -45.5000     -9.9850     -6.2509      1.3907   6549.1143      0.2898      0.6038      0.5130      2.0128
   6551.0000      2.9900      2.2170      2.7890     15.7430      0.0000      6.1277     59.4820      1.9585      3.0257      3.0257     65.1242     88.1099      0.1987      2.7890      2.2170      2.9900     -6.9437    -45.5000    -11.0370     -7.3091      1.3590   6549.6113      0.2820      0.5876      0.5061      1.9585
   6551.5000      3.5020      2.3250      2.9840     15.6898      0.0000      6.1543     59.4965      1.8574      3.0117      3.0117     65.1758     88.1566      0.2018      2.9840      2.3250      3.5020     -8.8160    -45.5000    -12.9560     -9.2800      1.3140   6550.1084      0.2675      0.5572      0.4933      1.8574
   6552.0000      4.1520      2.4900      3.1070     15.6366      0.0000      6.1809     59.5110      1.6726      2.9862      2.9862     65.2276     88.2036      0.2073      3.1070      2.4900      4.1520    -12.2393    -45.5000    -16.4260    -12.8835      1.2719   6550.6064      0.2409      0.5018      0.4698      1.6726
   6552.5000      4.9100      2.5910      3.1940     15.5834      0.0000      6.2075     59.5256      1.3648      2.9436      2.9436     65.2797     88.2507      0.2165      3.1940      2.5910      4.9100    -17.1067    -45.5000    -21.3400    -18.0070      1.2183   6551.1035      0.1965      0.4095      0.4095      1.3648
   6553.0000      5.2990      2.6630      3.3320     15.5303      0.0000      6.2341     59.5401      1.1694      2.9165      2.9165     65.3320     88.2979      0.2224      3.3320      2.6630      5.2990    -19.5200    -45.5000    -23.8000    -20.5474      1.1784   6551.5996      0.1684      0.3508      0.3508      1.1694
   6553.5000      5.7400      2.7640      3.5420     15.4771      0.0828      6.2606     59.5546      0.9172      2.7649      2.7649     65.3846     88.3454      0.2272      3.5420      2.7640      5.7400    -21.5003    -45.5000    -25.8270    -22.6319      1.0648   6552.0967      0.1453      0.3027      0.3027      0.9172
   6554.0000      6.2590      2.9510      3.7370     15.4239      0.1072      6.2872     59.5692      0.6266      2.3978      2.3978     65.4374     88.3930      0.2386      3.7370      2.9510      6.2590    -26.2237    -45.5000    -30.5970    -27.6039      0.8307   6552.5938      0.0902      0.1880      0.1880      0.6266
   6554.5000      6.5480      3.2900      3.9040     15.3707      0.1087      6.3138     59.5838      0.4760      2.2532      2.2532     65.4904     88.4408      0.2431      3.9040      3.2900      6.5480    -28.5280    -45.5000    -32.9480    -30.0295      0.7338   6553.0908      0.0685      0.1428      0.1428      0.4760
   6555.0000      6.6920      3.3770      4.0700     15.3175      0.1064      6.3404     59.5984      0.4411      2.2197      2.2197     65.5436     88.4888      0.2442      4.0700      3.3770      6.6920    -29.6063    -45.5000    -34.0730    -31.1646      0.7013   6553.5879      0.0635      0.1323      0.1323      0.4411
   6555.5000      6.7640      3.6510      4.2580     15.2643      0.1034      6.3670     59.6130      0.4249      2.2042      2.2042     65.5971     88.5369      0.2447      4.2580      3.6510      6.7640    -30.1057    -45.5000    -34.6190    -31.6902      0.6782   6554.0850      0.0612      0.1275      0.1275      0.4249
