~V
VERS. 2.00: Ver 2.00
WRAP.   NO:        
~W
 STRT.FT 656:
 STOP.FT 6986:
 STEP.FT 0.5:
 NULL. -999.250000:
 COMP. Richfield (ARCO):Company
 WELL. SAN EMIDIO A #11-28 REDRILL:Well
 FLD. SAN EMIDIO A #11-28 REDRILL:Field
 LOC. S28 T11N R22W:Location
 STAT. CA:State
 SRVC. :Service Company
 SON. :Service Order #
 DATE. :Log Date
 UWI. 1539401:Unique Well ID
~C
 DEPT.FT :
 AM16.OHMM :
 AO10.OHMM :
 AO19.OHMM :
 AZIM.DEG :
 BVES. :
 DEVI.DEG :
 EAST.FT :
 LTHE. :
 MCRV. :
 MM. :
 NORT.FT :
 OFFS.FT :
 PHZC. :
 RD.OHMM :
 RM.OHMM :
 RS.OHMM :
 SBL.MV :
 SCLN. :
 SP.MV :
 SPN. :
 STUS. :
 TVD.FT :
 VCDS. :
 VCLY. :
 VCWS. :
 VSHS. :
~P
~A
# ...
   4018.5000      9.8480      7.2270      6.1250     75.7729   -999.2500      0.5000     22.3250   -999.2500   -999.2500   -999.2500     17.6632     28.2759   -999.2500      6.1250      7.2270      9.8480    -39.2328   -999.2500    -53.0710    -41.2977   -999.2500   4018.2734   -999.2500   -999.2500   -999.2500   -999.2500
   4019.0000     10.0990      7.1540      5.7160     75.8479   -999.2500      0.5000     22.3292   -999.2500   -999.2500   -999.2500     17.6643     28.2797   -999.2500      5.7160      7.1540     10.0990    -39.1983   -999.2500    -53.0360    -41.2614   -999.2500   4018.7734   -999.2500   -999.2500   -999.2500   -999.2500
   4019.5000     10.2490      7.1540      5.5230     75.9229   -999.2500      0.5000     22.3334   -999.2500   -999.2500   -999.2500     17.6654     28.2834   -999.2500      5.5230      7.1540     10.2490    -39.2348   -999.2500    -53.0720    -41.2998   -999.2500   4019.2734   -999.2500   -999.2500   -999.2500   -999.2500
   4020.0000     10.3420      7.5270      5.7380     75.9979   -999.2500      0.5000     22.3377   -999.2500   -999.2500   -999.2500     17.6664     28.2872   -999.2500      5.7380      7.5270     10.3420    -39.3083   -999.2500    -53.1450    -41.3772   -999.2500   4019.7734   -999.2500   -999.2500   -999.2500   -999.2500
   4020.5000     10.2920      7.7790      5.8460     76.0729   -999.2500      0.5000     22.3419   -999.2500   -999.2500   -999.2500     17.6675     28.2909   -999.2500      5.8460      7.7790     10.2920    -39.1688   -999.2500    -53.0050    -41.2303   -999.2500   4020.2734   -999.2500   -999.2500   -999.2500   -999.2500
   4021.0000     10.1350      7.9520      5.9460     76.1479   -999.2500      0.5000     22.3461   -999.2500   -999.2500   -999.2500     17.6685     28.2946   -999.2500      5.9460      7.9520     10.1350    -37.9513   -999.2500    -51.7870    -39.9487   -999.2500   4020.7734   -999.2500   -999.2500   -999.2500   -999.2500
   4021.5000     10.0210      8.1460      6.0250     76.2229   -999.2500      0.5000     22.3504   -999.2500   -999.2500   -999.2500     17.6696     28.2984   -999.2500      6.0250      8.1460     10.0210    -36.6987   -999.2500    -50.5340    -38.6303   -999.2500   4021.2734   -999.2500   -999.2500   -999.2500   -999.2500
   4022.0000     10.0350      8.2830      6.0240     76.2979   -999.2500      0.5000     22.3546   -999.2500   -999.2500   -999.2500     17.6706     28.3021   -999.2500      6.0240      8.2830     10.0350    -36.1092   -999.2500    -49.9440    -38.0097   -999.2500   4021.7734   -999.2500   -999.2500   -999.2500   -999.2500
   4022.5000     10.2230      8.4630      6.0880     76.3728   -999.2500      0.5000     22.3589   -999.2500   -999.2500   -999.2500     17.6716     28.3058   -999.2500      6.0880      8.4630     10.2230    -35.5207   -999.2500    -49.3550    -37.3902   -999.2500   4022.2734   -999.2500   -999.2500   -999.2500   -999.2500
   4023.0000     10.3450      8.7370      6.2890     76.4478   -999.2500      0.5000     22.3631   -999.2500   -999.2500   -999.2500     17.6726     28.3096   -999.2500      6.2890      8.7370     10.3450    -34.7712   -999.2500    -48.6050    -36.6012   -999.2500   4022.7734   -999.2500   -999.2500   -999.2500   -999.2500
   4023.5000     10.4680      8.9670      6.5260     76.5228   -999.2500      0.5000     22.3673   -999.2500   -999.2500   -999.2500     17.6737     28.3133   -999.2500      6.5260      8.9670     10.4680    -34.5957   -999.2500    -48.4290    -36.4165   -999.2500   4023.2734   -999.2500   -999.2500   -999.2500   -999.2500
   4024.0000     10.7200      9.2260      6.7270     76.5978   -999.2500      0.5000     22.3716   -999.2500   -999.2500   -999.2500     17.6747     28.3170   -999.2500      6.7270      9.2260     10.7200    -34.4551   -999.2500    -48.2880    -36.2686   -999.2500   4023.7734   -999.2500   -999.2500   -999.2500   -999.2500
   4024.5000     10.9650      9.4850      6.9200     76.6728   -999.2500      0.5000     22.3758   -999.2500   -999.2500   -999.2500     17.6757     28.3207   -999.2500      6.9200      9.4850     10.9650    -34.3156   -999.2500    -48.1480    -36.1217   -999.2500   4024.2734   -999.2500   -999.2500   -999.2500   -999.2500
   4025.0000     11.1950      9.6510      7.0490     76.7478   -999.2500      0.5000     22.3801   -999.2500   -999.2500   -999.2500     17.6767     28.3244   -999.2500      7.0490      9.6510     11.1950    -34.3561   -999.2500    -48.1880    -36.1643   -999.2500   4024.7734   -999.2500   -999.2500   -999.2500   -999.2500
   4025.5000     11.4830      9.8100      7.0990     76.8228   -999.2500      0.5000     22.3843   -999.2500   -999.2500   -999.2500     17.6777     28.3281   -999.2500      7.0990      9.8100     11.4830    -34.5396   -999.2500    -48.3710    -36.3575   -999.2500   4025.2729   -999.2500   -999.2500   -999.2500   -999.2500
   4026.0000     11.6490      9.9750      7.1490     76.8978   -999.2500      0.5000     22.3886   -999.2500   -999.2500   -999.2500     17.6787     28.3318   -999.2500      7.1490      9.9750     11.6490    -34.8311   -999.2500    -48.6620    -36.6643   -999.2500   4025.7729   -999.2500   -999.2500   -999.2500   -999.2500
   4026.5000     12.0300     10.0620      7.1410     76.9728   -999.2500      0.5000     22.3928   -999.2500   -999.2500   -999.2500     17.6797     28.3355   -999.2500      7.1410     10.0620     12.0300    -35.3026   -999.2500    -49.1330    -37.1606   -999.2500   4026.2729   -999.2500   -999.2500   -999.2500   -999.2500
   4027.0000     12.1240     10.0770      7.1340     77.0478   -999.2500      0.5000     22.3971   -999.2500   -999.2500   -999.2500     17.6806     28.3392   -999.2500      7.1340     10.0770     12.1240    -36.0250   -999.2500    -49.8550    -37.9211   -999.2500   4026.7729   -999.2500   -999.2500   -999.2500   -999.2500
   4027.5000     12.1750     10.0630      7.1480     77.1228   -999.2500      0.5000     22.4013   -999.2500   -999.2500   -999.2500     17.6816     28.3429   -999.2500      7.1480     10.0630     12.1750    -37.8965   -999.2500    -51.7260    -39.8911   -999.2500   4027.2729   -999.2500   -999.2500   -999.2500   -999.2500
   4028.0000     12.2040     10.0490      7.1940     77.1978   -999.2500      0.5000     22.4056   -999.2500   -999.2500   -999.2500     17.6826     28.3466   -999.2500      7.1940     10.0490     12.2040    -38.4040   -999.2500    -52.2330    -40.4253   -999.2500   4027.7729   -999.2500   -999.2500   -999.2500   -999.2500
   4028.5000     12.1830     10.0500      7.2400     77.2728   -999.2500      0.5000     22.4098   -999.2500   -999.2500   -999.2500     17.6835     28.3503   -999.2500      7.2400     10.0500     12.1830    -38.9825   -999.2500    -52.8110    -41.0342   -999.2500   4028.2729   -999.2500   -999.2500   -999.2500   -999.2500
   4029.0000     12.0970     10.0290      7.2830     77.3478   -999.2500      0.5000     22.4141   -999.2500   -999.2500   -999.2500     17.6845     28.3540   -999.2500      7.2830     10.0290     12.0970    -39.4000   -999.2500    -53.2280    -41.4737   -999.2500   4028.7729   -999.2500   -999.2500   -999.2500   -999.2500
   4029.5000     11.9900     10.0150      7.3620     77.4228   -999.2500      0.5000     22.4184   -999.2500   -999.2500   -999.2500     17.6854     28.3577   -999.2500      7.3620     10.0150     11.9900    -39.8165   -999.2500    -53.6440    -41.9121   -999.2500   4029.2729   -999.2500   -999.2500   -999.2500   -999.2500
   4030.0000     11.8330     10.0010      7.4480     77.4978   -999.2500      0.5000     22.4226   -999.2500   -999.2500   -999.2500     17.6864     28.3614   -999.2500      7.4480     10.0010     11.8330    -40.2519   -999.2500    -54.0790    -42.3705   -999.2500   4029.7729   -999.2500   -999.2500   -999.2500   -999.2500
   4030.5000     11.5670     10.0020      7.5330     77.5728   -999.2500      0.5000     22.4269   -999.2500   -999.2500   -999.2500     17.6873     28.3650   -999.2500      7.5330     10.0020     11.5670    -40.1484   -999.2500    -53.9750    -42.2615   -999.2500   4030.2729   -999.2500   -999.2500   -999.2500   -999.2500
