~V
VERS. 2.00: Ver 2.00
WRAP.   NO:        
~W
 STRT.FT 656:
 STOP.FT 6986:
 STEP.FT 0.5:
 NULL. -999.250000:
 COMP. Richfield (ARCO):Company
 WELL. SAN EMIDIO A #11-28 REDRILL:Well
 FLD. SAN EMIDIO A #11-28 REDRILL:Field
 LOC. S28 T11N R22W:Location
 STAT. CA:State
 SRVC. :Service Company
 SON. :Service Order #
 DATE. :Log Date
 UWI. 1539401:Unique Well ID
~C
 DEPT.FT :
 AM16.OHMM :
 AO10.OHMM :
 AO19.OHMM :
 AZIM.DEG :
 BVES. :
 DEVI.DEG :
 EAST.FT :
 LTHE. :
 MCRV. :
 MM. :
 NORT.FT :
 OFFS.FT :
 PHZC. :
 RD.OHMM :
 RM.OHMM :
 RS.OHMM :
 SBL.MV :
 SCLN. :
 SP.MV :
 SPN. :
 STUS. :
 TVD.FT :
 VCDS. :
 VCLY. :
 VCWS. :
 VSHS. :
~P
~A
# ...
   5706.0000      1.9640      2.0220      1.8870     53.0976      0.0000      1.2050     44.8649      2.2021      3.0144      3.0144     44.5517     63.2271      0.2055      1.8870      2.0220      1.9640     -2.0656    -38.6526    -14.2780     -2.1743      1.5305   5705.3174      0.3171      0.6606      0.5511      2.2021
   5706.5000      2.0080      2.0510      1.9380     53.2726      0.0000      1.2013     44.8733      2.2135      3.0160      3.0160     44.5580     63.2374      0.2052      1.9380      2.0510      2.0080     -1.8851    -38.6523    -14.0970     -1.9843      1.5181   5705.8174      0.3188      0.6641      0.5526      2.2135
   5707.0000      2.0580      2.0720      1.9490     53.4476      0.0000      1.1975     44.8817      2.1933      3.0132      3.0132     44.5642     63.2478      0.2058      1.9490      2.0720      2.0580     -2.2035    -38.6520    -14.4150     -2.3195      1.5122   5706.3174      0.3158      0.6580      0.5500      2.1933
   5707.5000      2.0760      2.0940      1.9600     53.6226      0.0000      1.1938     44.8900      2.1344      3.0051      3.0051     44.5704     63.2581      0.2075      1.9600      2.0940      2.0760     -3.1300    -38.6518    -15.3410     -3.2948      1.5005   5706.8174      0.3074      0.6403      0.5425      2.1344
   5708.0000      2.0940      2.1160      2.0180     53.7976      0.0000      1.1900     44.8984      2.0484      2.9932      2.9932     44.5765     63.2683      0.2101      2.0180      2.1160      2.0940     -4.4835    -38.6515    -16.6940     -4.7195      1.4729   5707.3174      0.2950      0.6145      0.5316      2.0484
   5708.5000      2.1300      2.1300      2.0330     53.9726      0.0000      1.1863     44.9068      1.7968      2.9584      2.9584     44.5826     63.2786      0.2176      2.0330      2.1300      2.1300     -8.4430    -38.6512    -20.6530     -8.8873      1.4334   5707.8174      0.2587      0.5390      0.4996      1.7968
   5709.0000      2.1520      2.1450      2.0550     54.1476      0.0000      1.1825     44.9152      1.6450      2.9374      2.9374     44.5887     63.2888      0.2222      2.0550      2.1450      2.1520    -10.8315    -38.6510    -23.0410    -11.4015      1.4020   5708.3164      0.2369      0.4935      0.4804      1.6450
   5709.5000      2.1740      2.1450      2.0690     54.3226      0.0000      1.1788     44.9235      1.6588      2.9393      2.9393     44.5947     63.2989      0.2217      2.0690      2.1450      2.1740    -10.6149    -38.6507    -22.8240    -11.1736      1.4005   5708.8164      0.2389      0.4976      0.4821      1.6588
   5710.0000      2.1810      2.1450      2.0840     54.4976      0.0000      1.1750     44.9319      1.7564      2.9529      2.9529     44.6006     63.3090      0.2188      2.0840      2.1450      2.1810     -9.0784    -38.6505    -21.2870     -9.5562      1.4155   5709.3164      0.2529      0.5269      0.4945      1.7564
   5710.5000      2.1850      2.1310      2.1130     54.6726      0.0000      1.1713     44.9402      1.8088      2.9601      2.9601     44.6065     63.3191      0.2172      2.1130      2.1310      2.1850     -8.2549    -38.6502    -20.4630     -8.6894      1.4159   5709.8164      0.2605      0.5426      0.5011      1.8088
   5711.0000      2.1890      2.1170      2.1140     54.8475      0.0000      1.1675     44.9485      1.8338      2.9636      2.9636     44.6124     63.3291      0.2165      2.1140      2.1170      2.1890     -7.8604    -38.6499    -20.0680     -8.2741      1.4192   5710.3164      0.2641      0.5501      0.5043      1.8338
   5711.5000      2.1600      2.0880      2.1210     55.0226      0.0000      1.1638     44.9569      1.8589      2.9671      2.9671     44.6182     63.3391      0.2157      2.1210      2.0880      2.1600     -7.4659    -38.6497    -19.6730     -7.8588      1.4210   5710.8164      0.2677      0.5577      0.5075      1.8589
   5712.0000      2.1530      2.0890      2.1360     55.1975      0.0000      1.1600     44.9652      1.8840      2.9706      2.9706     44.6240     63.3491      0.2149      2.1360      2.0890      2.1530     -7.0714    -38.6494    -19.2780     -7.4435      1.4210   5711.3164      0.2713      0.5652      0.5106      1.8840
   5712.5000      2.1360      2.0890      2.1360     55.3726      0.0000      1.1563     44.9735      1.8818      2.9704      2.9704     44.6297     63.3590      0.2150      2.1360      2.0890      2.1360     -7.1048    -38.6491    -19.3110     -7.4788      1.4208   5711.8164      0.2710      0.5645      0.5104      1.8818
   5713.0000      2.1180      2.1000      2.1370     55.5475      0.0000      1.1525     44.9818      1.9251      2.9764      2.9764     44.6354     63.3689      0.2137      2.1370      2.1000      2.1180     -6.4243    -38.6489    -18.6300     -6.7624      1.4266   5712.3164      0.2772      0.5775      0.5158      1.9251
   5713.5000      2.0890      2.1110      2.1440     55.7225      0.0000      1.1488     44.9900      1.9002      2.9730      2.9730     44.6411     63.3788      0.2144      2.1440      2.1110      2.0890     -6.8148    -38.6486    -19.0200     -7.1735      1.4216   5712.8154      0.2736      0.5701      0.5127      1.9002
   5714.0000      2.0530      2.1150      2.1450     55.8975      0.0000      1.1450     44.9983      1.8323      2.9636      2.9636     44.6467     63.3886      0.2165      2.1450      2.1150      2.0530     -7.8833    -38.6483    -20.0880     -8.2982      1.4119   5713.3154      0.2639      0.5497      0.5041      1.8323
   5714.5000      2.0320      2.1180      2.1450     56.0725      0.0000      1.1413     45.0066      1.7327      2.9498      2.9498     44.6522     63.3983      0.2194      2.1450      2.1180      2.0320     -9.4508    -38.6481    -21.6550     -9.9482      1.3928   5713.8154      0.2495      0.5198      0.4914      1.7327
   5715.0000      1.9890      2.1180      2.1240     56.2475      0.0000      1.1375     45.0148      1.6875      2.9436      2.9436     44.6577     63.4081      0.2208      2.1240      2.1180      1.9890    -10.1622    -38.6478    -22.3660    -10.6971      1.3917   5714.3154      0.2430      0.5063      0.4857      1.6875
   5715.5000      1.9320      2.1190      2.1100     56.4225      0.0000      1.1338     45.0231      1.7511      2.9524      2.9524     44.6632     63.4178      0.2189      2.1100      2.1190      1.9320     -9.1617    -38.6476    -21.3650     -9.6439      1.4089   5714.8154      0.2522      0.5253      0.4937      1.7511
   5716.0000      1.8890      2.1120      2.0890     56.5975      0.0000      1.1300     45.0313      1.7785      2.9562      2.9562     44.6686     63.4274      0.2180      2.0890      2.1120      1.8890     -8.7302    -38.6473    -20.9330     -9.1897      1.4177   5715.3154      0.2561      0.5336      0.4972      1.7785
   5716.5000      1.8890      2.1150      2.0530     56.7725      0.0000      1.1263     45.0395      1.7400      2.9509      2.9509     44.6740     63.4371      0.2192      2.0530      2.1150      1.8890     -9.3357    -38.6470    -21.5380     -9.8270      1.4211   5715.8154      0.2506      0.5220      0.4923      1.7400
   5717.0000      1.8820      2.1190      2.0100     56.9475      0.0000      1.1225     45.0477      1.7946      2.9585      2.9585     44.6794     63.4466      0.2175      2.0100      2.1190      1.8820     -8.4772    -38.6468    -20.6790     -8.9233      1.4394   5716.3154      0.2584      0.5384      0.4992      1.7946
   5717.5000      1.8820      2.1300      2.0030     57.1225      0.0000      1.1188     45.0559      1.8174      2.9617      2.9617     44.6847     63.4562      0.2169      2.0030      2.1300      1.8820     -8.1177    -38.6465    -20.3190     -8.5449      1.4444   5716.8154      0.2617      0.5452      0.5021      1.8174
   5718.0000      1.8820      2.1410      2.0040     57.2975      0.0000      1.1150     45.0641      1.7904      2.9580      2.9580     44.6899     63.4657      0.2177      2.0040      2.1410      1.8820     -8.5431    -38.6462    -20.7440     -8.9928      1.4404   5717.3154      0.2578      0.5371      0.4987      1.7904
