~V
VERS. 2.00: Ver 2.00
WRAP.   NO:        
~W
 STRT.FT 550:
 STOP.FT 8020:
 STEP.FT 0.5:
 NULL. -999.250000:
 COMP. Richfield (ARCO):Company
 WELL. LLU 18-21:Well
 FLD. Los Lobos:Field
 LOC. S21 T11N R22W:Location
 STAT. CA:State
 SRVC. :Service Company
 SON. :Service Order #
 DATE. :Log Date
 UWI. UNKNOWN:Unique Well ID
~C
 DEPT.FT :
 AM10.OHMM :
 AO10.OHMM :
 AO19.OHMM :
 LTHE. :
 MCRV. :
 MM. :
 PHES. :
 PHMX. :
 PHTS. :
 PHZC. :
 RD.OHMM :
 RM.OHMM :
 ROS. :
 RS.OHMM :
 SBL.MV :
 SCLN. :
 SP.MV :
 SPN. :
 VCDS. :
 VCLY. :
 VCWS. :
 VSHS. :
~P
~A
# ...
   7278.0000      5.2830      6.7630      5.4890      1.9557      3.0641      3.0641      0.0000   -999.2500      0.2120      0.1867      5.4890      6.7630   -999.2500      5.2830    -13.1340    -46.3717    -17.1340     -7.5051      0.2816      0.5867      0.4937      1.9557
   7278.5000      5.0160      6.6540      5.5820      1.9672      3.0657      3.0657      0.0000   -999.2500      0.2118      0.1863      5.5820      6.6540   -999.2500      5.0160    -12.7360    -46.3781    -16.7360     -7.2777      0.2833      0.5902      0.4951      1.9672
   7279.0000      4.2430      6.1700      5.3010      1.9734      3.0666      3.0666      0.0000   -999.2500      0.2117      0.1861      5.3010      6.1700   -999.2500      4.2430    -12.5200    -46.3845    -16.5200     -7.1543      0.2842      0.5920      0.4959      1.9734
   7279.5000      3.7090      5.6580      5.0480      1.9787      3.0673      3.0673      0.0000   -999.2500      0.2116      0.1860      5.0480      5.6580   -999.2500      3.7090    -12.3400    -46.3909    -16.3400     -7.0514      0.2849      0.5936      0.4965      1.9787
   7280.0000      3.3620      5.3040      4.7150      1.9818      3.0678      3.0678      0.0000   -999.2500      0.2116      0.1859      4.7150      5.3040   -999.2500      3.3620    -12.2320    -46.3973    -16.2320     -6.9897      0.2854      0.5945      0.4969      1.9818
   7280.5000      3.0660      4.9430      4.4550      1.9849      3.0683      3.0683      0.0000   -999.2500      0.2115      0.1858      4.4550      4.9430   -999.2500      3.0660    -12.1250    -46.4037    -16.1250     -6.9286      0.2858      0.5955      0.4973      1.9849
   7281.0000      2.8850      4.7550      4.2240      1.9881      3.0687      3.0687      0.0000   -999.2500      0.2114      0.1857      4.2240      4.7550   -999.2500      2.8850    -12.0170    -46.4102    -16.0170     -6.8669      0.2863      0.5964      0.4977      1.9881
   7281.5000      2.6900      4.5740      4.0070      1.9891      3.0689      3.0689      0.0000   -999.2500      0.2114      0.1856      4.0070      4.5740   -999.2500      2.6900    -11.9820    -46.4166    -15.9820     -6.8469      0.2864      0.5967      0.4978      1.9891
   7282.0000      2.6390      4.4290      3.8550      1.9892      3.0689      3.0689      0.0000   -999.2500      0.2114      0.1856      3.8550      4.4290   -999.2500      2.6390    -11.9820    -46.4230    -15.9820     -6.8469      0.2864      0.5968      0.4978      1.9892
   7282.5000      2.5880      4.2990      3.7540      1.9892      3.0690      3.0690      0.0000   -999.2500      0.2114      0.1856      3.7540      4.2990   -999.2500      2.5880    -11.9830    -46.4294    -15.9830     -6.8474      0.2864      0.5968      0.4978      1.9892
   7283.0000      2.5810      4.1470      3.8840      1.9871      3.0687      3.0687      0.0000   -999.2500      0.2114      0.1857      3.8840      4.1470   -999.2500      2.5810    -12.0580    -46.4358    -16.0580     -6.8903      0.2861      0.5961      0.4976      1.9871
   7283.5000      2.6600      4.0530      4.0210      1.9861      3.0686      3.0686      0.0000   -999.2500      0.2114      0.1857      4.0210      4.0530   -999.2500      2.6600    -12.0950    -46.4422    -16.0950     -6.9114      0.2860      0.5958      0.4974      1.9861
   7284.0000      2.7390      4.0170      4.1870      1.9851      3.0685      3.0685      0.0000   -999.2500      0.2114      0.1857      4.1870      4.0170   -999.2500      2.7390    -12.1320    -46.4486    -16.1320     -6.9326      0.2859      0.5955      0.4973      1.9851
   7284.5000      2.8620      3.9810      4.4320      1.9872      3.0688      3.0688      0.0000   -999.2500      0.2114      0.1856      4.4320      3.9810   -999.2500      2.8620    -12.0610    -46.4550    -16.0610     -6.8920      0.2862      0.5961      0.4975      1.9872
   7285.0000      2.9920      3.9730      4.5900      1.9903      3.0692      3.0692      0.0000   -999.2500      0.2113      0.1855      4.5900      3.9730   -999.2500      2.9920    -11.9540    -46.4614    -15.9540     -6.8309      0.2866      0.5971      0.4979      1.9903
   7285.5000      3.2010      3.9730      4.7780      1.9955      3.0700      3.0700      0.0000   -999.2500      0.2112      0.1854      4.7780      3.9730   -999.2500      3.2010    -11.7740    -46.4678    -15.7740     -6.7280      0.2874      0.5986      0.4986      1.9955
   7286.0000      3.3950      4.0020      5.0740      1.9945      3.0699      3.0699      0.0000   -999.2500      0.2112      0.1854      5.0740      4.0020   -999.2500      3.3950    -11.8110    -46.4742    -15.8110     -6.7491      0.2872      0.5983      0.4984      1.9945
   7286.5000      3.5470      4.0520      5.2760      1.9893      3.0692      3.0692      0.0000   -999.2500      0.2113      0.1855      5.2760      4.0520   -999.2500      3.5470    -11.9940    -46.4807    -15.9940     -6.8537      0.2865      0.5968      0.4978      1.9893
   7287.0000      3.6980      4.1530      5.4920      1.9810      3.0681      3.0681      0.0000   -999.2500      0.2115      0.1858      5.4920      4.1530   -999.2500      3.6980    -12.2850    -46.4871    -16.2850     -7.0200      0.2853      0.5943      0.4967      1.9810
   7287.5000      3.8130      4.5140      5.6790      1.9654      3.0659      3.0659      0.0000   -999.2500      0.2117      0.1862      5.6790      4.5140   -999.2500      3.8130    -12.8300    -46.4935    -16.8300     -7.3314      0.2830      0.5896      0.4947      1.9654
   7288.0000      3.8710      4.7800      5.8520      1.9477      3.0635      3.0635      0.0000   -999.2500      0.2120      0.1868      5.8520      4.7800   -999.2500      3.8710    -13.4480    -46.5000    -17.4480     -7.6846      0.2805      0.5843      0.4925      1.9477
   7288.5000      3.8920      4.8890      5.9320      1.9116      3.0585      3.0585      0.0000   -999.2500      0.2126      0.1878      5.9320      4.8890   -999.2500      3.8920    -14.3920    -45.5000    -18.3920     -8.2240      0.2753      0.5735      0.4879      1.9116
   7289.0000      3.8700      4.7800      5.7800      1.9021      3.0572      3.0572      0.0000   -999.2500      0.2128      0.1881      5.7800      4.7800   -999.2500      3.8700    -14.3930    -44.5000    -18.3930     -8.2246      0.2739      0.5706      0.4867      1.9021
   7289.5000      3.7840      4.5560      5.4040      1.9166      3.0593      3.0593      0.0000   -999.2500      0.2125      0.1877      5.4040      4.5560   -999.2500      3.7840    -13.5960    -43.5000    -17.5960     -7.7691      0.2760      0.5750      0.4885      1.9166
   7290.0000      3.6680      4.2890      5.2160      1.9374      3.0622      3.0622      0.0000   -999.2500      0.2121      0.1870      5.2160      4.2890   -999.2500      3.6680    -12.6190    -42.5000    -16.6190     -7.2109      0.2790      0.5812      0.4911      1.9374
   7290.5000      3.4580      4.1660      5.0290      1.9430      3.0630      3.0630      0.0000   -999.2500      0.2120      0.1869      5.0290      4.1660   -999.2500      3.4580    -12.1490    -41.5000    -16.1490     -6.9423      0.2798      0.5829      0.4918      1.9430
   7291.0000      3.1980      3.9560      4.6600      1.9310      3.0613      3.0613      0.0000   -999.2500      0.2122      0.1872      4.6600      3.9560   -999.2500      3.1980    -12.2220    -40.5000    -16.2220     -6.9840      0.2781      0.5793      0.4903      1.9310
   7291.5000      3.0030      3.7900      4.5520      1.9011      3.0572      3.0572      0.0000   -999.2500      0.2127      0.1881      4.5520      3.7900   -999.2500      3.0030    -12.8040    -39.5000    -16.8040     -7.3166      0.2738      0.5703      0.4865      1.9011
   7292.0000      2.7860      3.6740      4.5120      1.8673      3.0526      3.0526      0.0000   -999.2500      0.2133      0.1891      4.5120      3.6740   -999.2500      2.7860    -13.4580    -38.5000    -17.4580     -7.6903      0.2689      0.5602      0.4822      1.8673
