~V
VERS. 2.00: Ver 2.00
WRAP.   NO:        
~W
 STRT.FT 550:
 STOP.FT 8020:
 STEP.FT 0.5:
 NULL. -999.250000:
 COMP. Richfield (ARCO):Company
 WELL. LLU 18-21:Well
 FLD. Los Lobos:Field
 LOC. S21 T11N R22W:Location
 STAT. CA:State
 SRVC. :Service Company
 SON. :Service Order #
 DATE. :Log Date
 UWI. UNKNOWN:Unique Well ID
~C
 DEPT.FT :
 AM10.OHMM :
 AO10.OHMM :
 AO19.OHMM :
 LTHE. :
 MCRV. :
 MM. :
 PHES. :
 PHMX. :
 PHTS. :
 PHZC. :
 RD.OHMM :
 RM.OHMM :
 ROS. :
 RS.OHMM :
 SBL.MV :
 SCLN. :
 SP.MV :
 SPN. :
 VCDS. :
 VCLY. :
 VCWS. :
 VSHS. :
~P
~A
# ...
   7423.0000      3.0240      3.3810      2.5940      2.0394      3.0834      3.0834      0.0000   -999.2500      0.2082      0.1818      2.5940      3.3810   -999.2500      3.0240    -11.6390    -52.7944    -15.6390     -6.6509      0.2937      0.6118      0.5019      2.0394
   7423.5000      2.9220      3.3770      2.5720      2.0638      3.0868      3.0868      0.0000   -999.2500      0.2078      0.1810      2.5720      3.3770   -999.2500      2.9220    -10.6990    -52.9268    -14.6990     -6.1137      0.2972      0.6191      0.5050      2.0638
   7424.0000      2.8280      3.3730      2.5710      2.0844      3.0897      3.0897      0.0000   -999.2500      0.2074      0.1804      2.5710      3.3730   -999.2500      2.8280     -9.9050    -53.0591    -13.9050     -5.6600      0.3002      0.6253      0.5076      2.0844
   7424.5000      2.7110      3.3680      2.5850      2.0822      3.0894      3.0894      0.0000   -999.2500      0.2074      0.1805      2.5850      3.3680   -999.2500      2.7110    -10.0170    -53.1915    -14.0170     -5.7240      0.2998      0.6247      0.5073      2.0822
   7425.0000      2.6460      3.3100      2.6200      2.0673      3.0874      3.0874      0.0000   -999.2500      0.2077      0.1809      2.6200      3.3100   -999.2500      2.6460    -10.6380    -53.3238    -14.6380     -6.0789      0.2977      0.6202      0.5054      2.0673
   7425.5000      2.5800      3.2800      2.6340      2.0634      3.0869      3.0869      0.0000   -999.2500      0.2077      0.1810      2.6340      3.2800   -999.2500      2.5800    -10.8230    -53.4562    -14.8230     -6.1846      0.2971      0.6190      0.5049      2.0634
   7426.0000      2.5140      3.2140      2.6620      2.0658      3.0872      3.0872      0.0000   -999.2500      0.2077      0.1809      2.6620      3.2140   -999.2500      2.5140    -10.7530    -53.5885    -14.7530     -6.1446      0.2975      0.6197      0.5052      2.0658
   7426.5000      2.3400      3.1490      2.6980      2.0898      3.0906      3.0906      0.0000   -999.2500      0.2073      0.1802      2.6980      3.1490   -999.2500      2.3400     -9.8140    -53.7209    -13.8140     -5.6080      0.3009      0.6269      0.5082      2.0898
   7427.0000      2.2310      3.1120      2.7620      2.1154      3.0941      3.0941      0.0000   -999.2500      0.2068      0.1794      2.7620      3.1120   -999.2500      2.2310     -8.8020    -53.8532    -12.8020     -5.0297      0.3046      0.6346      0.5114      2.1154
   7427.5000      2.1290      3.0820      2.7830      2.1311      3.0963      3.0963      0.0000   -999.2500      0.2066      0.1789      2.7830      3.0820   -999.2500      2.1290     -8.1880    -53.9856    -12.1880     -4.6789      0.3069      0.6393      0.5134      2.1311
   7428.0000      2.0710      3.0670      2.8400      2.1512      3.0991      3.0991      0.0000   -999.2500      0.2062      0.1783      2.8400      3.0670   -999.2500      2.0710     -7.3940    -54.1179    -11.3940     -4.2251      0.3098      0.6453      0.5160      2.1512
   7428.5000      2.0200      3.0670      2.8900      2.1649      3.1011      3.1011      0.0000   -999.2500      0.2060      0.1779      2.8900      3.0670   -999.2500      2.0200     -6.8530    -54.2503    -10.8530     -3.9160      0.3117      0.6495      0.5177      2.1649
   7429.0000      1.9970      3.0660      2.9470      2.1812      3.1034      3.1034      0.0000   -999.2500      0.2057      0.1774      2.9470      3.0660   -999.2500      1.9970     -6.2040    -54.3827    -10.2040     -3.5451      0.3141      0.6544      0.5198      2.1812
   7429.5000      2.0330      3.0510      2.9750      2.1922      3.1049      3.1049      0.0000   -999.2500      0.2055      0.1771      2.9750      3.0510   -999.2500      2.0330     -5.7720    -54.5150     -9.7720     -3.2983      0.3157      0.6576      0.5211      2.1922
   7430.0000      2.0540      3.0350      2.9890      2.2004      3.1061      3.1061      0.0000   -999.2500      0.2053      0.1768      2.9890      3.0350   -999.2500      2.0540     -5.4490    -54.6474     -9.4490     -3.1137      0.3169      0.6601      0.5222      2.2004
   7430.5000      2.1040      2.9910      2.9730      2.2024      3.1064      3.1064      0.0000   -999.2500      0.2053      0.1768      2.9730      2.9910   -999.2500      2.1040     -5.3800    -54.7797     -9.3800     -3.0743      0.3171      0.6607      0.5224      2.2024
   7431.0000      2.1540      2.9550      2.9620      2.2035      3.1065      3.1065      0.0000   -999.2500      0.2053      0.1767      2.9620      2.9550   -999.2500      2.1540     -5.3480    -54.9121     -9.3480     -3.0560      0.3173      0.6610      0.5226      2.2035
   7431.5000      2.2820      2.8750      2.9510      2.1967      3.1056      3.1056      0.0000   -999.2500      0.2054      0.1769      2.9510      2.8750   -999.2500      2.2820     -5.6410    -55.0444     -9.6410     -3.2234      0.3163      0.6590      0.5217      2.1967
   7432.0000      2.3250      2.8020      2.8770      2.1768      3.1029      3.1029      0.0000   -999.2500      0.2057      0.1775      2.8770      2.8020   -999.2500      2.3250     -6.4790    -55.1768    -10.4790     -3.7023      0.3135      0.6530      0.5192      2.1768
   7432.5000      2.4180      2.7500      2.7900      2.1526      3.0996      3.0996      0.0000   -999.2500      0.2061      0.1782      2.7900      2.7500   -999.2500      2.4180     -7.4980    -55.3091    -11.4980     -4.2846      0.3100      0.6458      0.5161      2.1526
   7433.0000      2.5550      2.6990      2.7500      2.1250      3.0958      3.0958      0.0000   -999.2500      0.2066      0.1790      2.7500      2.6990   -999.2500      2.5550     -8.6620    -55.4415    -12.6620     -4.9497      0.3060      0.6375      0.5126      2.1250
   7433.5000      2.7200      2.6770      2.7090      2.0872      3.0906      3.0906      0.0000   -999.2500      0.2072      0.1802      2.7090      2.6770   -999.2500      2.7200    -10.2610    -55.5738    -14.2610     -5.8634      0.3005      0.6261      0.5077      2.0872
   7434.0000      2.8850      2.6760      2.6940      2.0590      3.0867      3.0867      0.0000   -999.2500      0.2077      0.1810      2.6940      2.6760   -999.2500      2.8850    -11.4620    -55.7062    -15.4620     -6.5497      0.2965      0.6177      0.5042      2.0590
   7434.5000      3.0290      2.7040      2.7370      2.0301      3.0827      3.0827      0.0000   -999.2500      0.2082      0.1819      2.7370      2.7040   -999.2500      3.0290    -12.6980    -55.8386    -16.6980     -7.2560      0.2923      0.6090      0.5005      2.0301
   7435.0000      3.2950      2.7320      2.7860      2.0066      3.0795      3.0795      0.0000   -999.2500      0.2085      0.1826      2.7860      2.7320   -999.2500      3.2950    -13.7170    -55.9709    -17.7170     -7.8383      0.2889      0.6020      0.4975      2.0066
   7435.5000      3.5180      2.8040      2.8430      2.0193      3.0813      3.0813      0.0000   -999.2500      0.2083      0.1822      2.8430      2.8040   -999.2500      3.5180    -13.2130    -56.1033    -17.2130     -7.5503      0.2908      0.6058      0.4991      2.0193
   7436.0000      3.7700      2.8610      2.8790      2.0243      3.0820      3.0820      0.0000   -999.2500      0.2082      0.1820      2.8790      2.8610   -999.2500      3.7700    -13.0350    -56.2356    -17.0350     -7.4486      0.2915      0.6073      0.4997      2.0243
   7436.5000      3.9360      2.9110      2.9360      2.0155      3.0808      3.0808      0.0000   -999.2500      0.2084      0.1823      2.9360      2.9110   -999.2500      3.9360    -13.4370    -56.3680    -17.4370     -7.6783      0.2902      0.6046      0.4986      2.0155
   7437.0000      4.1590      2.9600      2.9530      2.0007      3.0788      3.0788      0.0000   -999.2500      0.2086      0.1827      2.9530      2.9600   -999.2500      4.1590    -14.0940    -56.5003    -18.0940     -8.0537      0.2881      0.6002      0.4967      2.0007
