~V
VERS. 2.00: Ver 2.00
WRAP.   NO:        
~W
 STRT.FT 550:
 STOP.FT 8020:
 STEP.FT 0.5:
 NULL. -999.250000:
 COMP. Richfield (ARCO):Company
 WELL. LLU 18-21:Well
 FLD. Los Lobos:Field
 LOC. S21 T11N R22W:Location
 STAT. CA:State
 SRVC. :Service Company
 SON. :Service Order #
 DATE. :Log Date
 UWI. UNKNOWN:Unique Well ID
~C
 DEPT.FT :
 AM10.OHMM :
 AO10.OHMM :
 AO19.OHMM :
 LTHE. :
 MCRV. :
 MM. :
 PHES. :
 PHMX. :
 PHTS. :
 PHZC. :
 RD.OHMM :
 RM.OHMM :
 ROS. :
 RS.OHMM :
 SBL.MV :
 SCLN. :
 SP.MV :
 SPN. :
 VCDS. :
 VCLY. :
 VCWS. :
 VSHS. :
~P
~A
# ...
   8003.0000     19.0360     34.7250     37.4320      1.0000   -999.2500      3.1587      0.0000      0.1335      0.2155      0.2741     37.4320     34.7250      7.9940     19.0360     -6.0510    -75.5229    -10.0510     -3.4577      0.2386      0.4771      0.4541      1.0000
   8003.5000     18.2680     30.7240     37.6910      1.0000   -999.2500      3.1603      0.0000      0.1333      0.2149      0.2731     37.6910     30.7240      8.0452     18.2680     -5.1160    -75.5203     -9.1160     -2.9234      0.2403      0.4806      0.4552      1.0000
   8004.0000     17.6010     29.6120     35.7840      1.0000   -999.2500      3.1608      0.0000      0.1332      0.2147      0.2728     35.7840     29.6120      8.0617     17.6010     -4.8300    -75.5176     -8.8300     -2.7600      0.2409      0.4817      0.4556      1.0000
   8004.5000     16.8470     27.4880     33.5160      1.0000   -999.2500      3.1614      0.0000      0.1332      0.2145      0.2725     33.5160     27.4880      8.0802     16.8470     -4.5090    -75.5149     -8.5090     -2.5766      0.2415      0.4829      0.4560      1.0000
   8005.0000     16.3100     26.3760     31.5370      1.0000   -999.2500      3.1619      0.0000      0.1331      0.2143      0.2721     31.5370     26.3760      8.0988     16.3100     -4.1870    -75.5122     -8.1870     -2.3926      0.2421      0.4842      0.4564      1.0000
   8005.5000     16.6540     25.4070     30.6410      1.0000   -999.2500      3.1634      0.0000      0.1330      0.2137      0.2713     30.6410     25.4070      8.1453     16.6540     -3.3600    -75.5095     -7.3600     -1.9200      0.2436      0.4873      0.4574      1.0000
   8006.0000     16.9760     25.2340     29.9620      1.0000   -999.2500      3.1638      0.0000      0.1329      0.2136      0.2710     29.9620     25.2340      8.1602     16.9760     -3.1110    -75.5068     -7.1110     -1.7777      0.2441      0.4882      0.4577      1.0000
   8006.5000     17.6080     25.2750     29.8590      1.0000   -999.2500      3.1640      0.0000      0.1329      0.2135      0.2709     29.8590     25.2750      8.1670     17.6080     -3.0070    -75.5042     -7.0070     -1.7183      0.2443      0.4886      0.4578      1.0000
   8007.0000     18.2260     25.2450     29.9740      1.0000   -999.2500      3.1636      0.0000      0.1329      0.2136      0.2711     29.9740     25.2450      8.1559     18.2260     -3.2290    -75.5015     -7.2290     -1.8451      0.2439      0.4878      0.4575      1.0000
   8007.5000     18.7140     25.1440     30.0900      1.0000   -999.2500      3.1631      0.0000      0.1330      0.2138      0.2714     30.0900     25.1440      8.1407     18.7140     -3.5230    -75.5000     -7.5230     -2.0131      0.2433      0.4867      0.4571      1.0000
   8008.0000     19.3240     24.8980     30.3120      1.0000   -999.2500      3.1692      0.0000      0.1323      0.2115      0.2678     30.3120     24.8980      8.3406     19.3240     -3.8170 1000000015047466220000000000000.0000     -7.8170     -2.1811      0.2500      0.5000      0.4615      1.0000
   8008.5000     19.6530     24.2900     30.5350      1.0000   -999.2500      3.1692      0.0000      0.1323      0.2115      0.2678     30.5350     24.2900      8.3418     19.6530     -4.0750 1000000015047466220000000000000.0000     -8.0750     -2.3286      0.2500      0.5000      0.4615      1.0000
   8009.0000     19.9460     24.1160     30.5780      1.0000   -999.2500      3.1692      0.0000      0.1323      0.2115      0.2677     30.5780     24.1160      8.3429     19.9460     -4.1880 1000000015047466220000000000000.0000     -8.1880     -2.3931      0.2500      0.5000      0.4615      1.0000
   8009.5000   -999.2500     24.0140     30.6210      1.0000   -999.2500      3.1692      0.0000      0.1323      0.2115      0.2677     30.6210     24.0140      8.3441   -999.2500     -4.2100 1000000015047466220000000000000.0000     -8.2100     -2.4057      0.2500      0.5000      0.4615      1.0000
   8010.0000   -999.2500     23.9120     30.8060      1.0000   -999.2500      3.1692      0.0000      0.1323      0.2115      0.2677     30.8060     23.9120      8.3452   -999.2500     -4.2320 1000000015047466220000000000000.0000     -8.2320     -2.4183      0.2500      0.5000      0.4614      1.0000
   8010.5000   -999.2500     23.9540     30.7770   -999.2500   -999.2500   -999.2500   -999.2500   -999.2500   -999.2500   -999.2500     30.7770     23.9540   -999.2500   -999.2500     -3.9480   -999.2500     -7.9480     -2.2560   -999.2500   -999.2500   -999.2500   -999.2500
   8011.0000   -999.2500     23.8520     30.7480   -999.2500   -999.2500   -999.2500   -999.2500   -999.2500   -999.2500   -999.2500     30.7480     23.8520   -999.2500   -999.2500     -3.6630   -999.2500     -7.6630     -2.0931   -999.2500   -999.2500   -999.2500   -999.2500
   8011.5000   -999.2500     23.8230     30.7540   -999.2500   -999.2500   -999.2500   -999.2500   -999.2500   -999.2500   -999.2500     30.7540     23.8230   -999.2500   -999.2500     -3.4870   -999.2500     -7.4870     -1.9926   -999.2500   -999.2500   -999.2500   -999.2500
   8012.0000   -999.2500     23.6490     30.7610   -999.2500   -999.2500   -999.2500   -999.2500   -999.2500   -999.2500   -999.2500     30.7610     23.6490   -999.2500   -999.2500     -3.2380   -999.2500     -7.2380     -1.8503   -999.2500   -999.2500   -999.2500   -999.2500
   8012.5000   -999.2500     23.5470     30.6570   -999.2500   -999.2500   -999.2500   -999.2500   -999.2500   -999.2500   -999.2500     30.6570     23.5470   -999.2500   -999.2500     -3.1340   -999.2500     -7.1340     -1.7909   -999.2500   -999.2500   -999.2500   -999.2500
   8013.0000   -999.2500     23.3730     30.6280   -999.2500   -999.2500   -999.2500   -999.2500   -999.2500   -999.2500   -999.2500     30.6280     23.3730   -999.2500   -999.2500     -3.0300   -999.2500     -7.0300     -1.7314   -999.2500   -999.2500   -999.2500   -999.2500
   8013.5000   -999.2500   -999.2500   -999.2500   -999.2500   -999.2500   -999.2500   -999.2500   -999.2500   -999.2500   -999.2500   -999.2500   -999.2500   -999.2500   -999.2500     -2.9620   -999.2500     -6.9620     -1.6926   -999.2500   -999.2500   -999.2500   -999.2500
   8014.0000   -999.2500   -999.2500   -999.2500   -999.2500   -999.2500   -999.2500   -999.2500   -999.2500   -999.2500   -999.2500   -999.2500   -999.2500   -999.2500   -999.2500     -3.0030   -999.2500     -7.0030     -1.7160   -999.2500   -999.2500   -999.2500   -999.2500
   8014.5000   -999.2500   -999.2500   -999.2500   -999.2500   -999.2500   -999.2500   -999.2500   -999.2500   -999.2500   -999.2500   -999.2500   -999.2500   -999.2500   -999.2500     -3.0790   -999.2500     -7.0790     -1.7594   -999.2500   -999.2500   -999.2500   -999.2500
   8015.0000   -999.2500   -999.2500   -999.2500   -999.2500   -999.2500   -999.2500   -999.2500   -999.2500   -999.2500   -999.2500   -999.2500   -999.2500   -999.2500   -999.2500     -3.1560   -999.2500     -7.1560     -1.8034   -999.2500   -999.2500   -999.2500   -999.2500
   8015.5000   -999.2500   -999.2500   -999.2500   -999.2500   -999.2500   -999.2500   -999.2500   -999.2500   -999.2500   -999.2500   -999.2500   -999.2500   -999.2500   -999.2500     -3.3060   -999.2500     -7.3060     -1.8891   -999.2500   -999.2500   -999.2500   -999.2500
   8016.0000   -999.2500   -999.2500   -999.2500   -999.2500   -999.2500   -999.2500   -999.2500   -999.2500   -999.2500   -999.2500   -999.2500   -999.2500   -999.2500   -999.2500     -3.3830   -999.2500     -7.3830     -1.9331   -999.2500   -999.2500   -999.2500   -999.2500
   8016.5000   -999.2500   -999.2500   -999.2500   -999.2500   -999.2500   -999.2500   -999.2500   -999.2500   -999.2500   -999.2500   -999.2500   -999.2500   -999.2500   -999.2500     -3.4600   -999.2500     -7.4600     -1.9771   -999.2500   -999.2500   -999.2500   -999.2500
   8017.0000   -999.2500   -999.2500   -999.2500   -999.2500   -999.2500   -999.2500   -999.2500   -999.2500   -999.2500   -999.2500   -999.2500   -999.2500   -999.2500   -999.2500     -3.5000   -999.2500     -7.5000     -2.0000   -999.2500   -999.2500   -999.2500   -999.2500
