~V
VERS. 2.00: Ver 2.00
WRAP.   NO:        
~W
 STRT.FT 550:
 STOP.FT 8020:
 STEP.FT 0.5:
 NULL. -999.250000:
 COMP. Richfield (ARCO):Company
 WELL. LLU 18-21:Well
 FLD. Los Lobos:Field
 LOC. S21 T11N R22W:Location
 STAT. CA:State
 SRVC. :Service Company
 SON. :Service Order #
 DATE. :Log Date
 UWI. UNKNOWN:Unique Well ID
~C
 DEPT.FT :
 AM10.OHMM :
 AO10.OHMM :
 AO19.OHMM :
 LTHE. :
 MCRV. :
 MM. :
 PHES. :
 PHMX. :
 PHTS. :
 PHZC. :
 RD.OHMM :
 RM.OHMM :
 ROS. :
 RS.OHMM :
 SBL.MV :
 SCLN. :
 SP.MV :
 SPN. :
 VCDS. :
 VCLY. :
 VCWS. :
 VSHS. :
~P
~A
# ...
   7713.0000     13.1650      3.4770      2.4270      0.3900      2.2324      2.2324      0.1706   -999.2500      0.2315      0.2264      2.4270      3.4770   -999.2500     13.1650    -97.4020    -77.1464   -101.4020    -55.6583      0.0562      0.1170      0.1170      0.3900
   7713.5000     12.8470      3.3690      2.3470      0.4686      2.3079      2.3079      0.1570   -999.2500      0.2301      0.2240      2.3470      3.3690   -999.2500     12.8470    -89.8110    -77.1416    -93.8110    -51.3206      0.0675      0.1406      0.1406      0.4686
   7714.0000     12.6230      3.2820      2.3180      0.4780      2.3169      2.3169      0.1554   -999.2500      0.2300      0.2238      2.3180      3.2820   -999.2500     12.6230    -88.9020    -77.1367    -92.9020    -50.8011      0.0688      0.1434      0.1434      0.4780
   7714.5000     12.7750      3.2310      2.2680      0.4594      2.2991      2.2991      0.1586   -999.2500      0.2303      0.2243      2.2680      3.2310   -999.2500     12.7750    -90.6870    -77.1319    -94.6870    -51.8211      0.0662      0.1378      0.1378      0.4594
   7715.0000     13.1360      3.1880      2.2380      0.4442      2.2846      2.2846      0.1612   -999.2500      0.2305      0.2248      2.2380      3.1880   -999.2500     13.1360    -92.1450    -77.1270    -96.1450    -52.6543      0.0640      0.1333      0.1333      0.4442
   7715.5000     13.7340      3.1800      2.2310      0.4253      2.2664      2.2664      0.1645   -999.2500      0.2308      0.2253      2.2310      3.1800   -999.2500     13.7340    -93.9670    -77.1222    -97.9670    -53.6954      0.0612      0.1276      0.1276      0.4253
   7716.0000     14.2680      3.1660      2.2450      0.4169      2.2584      2.2584      0.1659   -999.2500      0.2310      0.2256      2.2450      3.1660   -999.2500     14.2680    -94.7690    -77.1173    -98.7690    -54.1537      0.0600      0.1251      0.1251      0.4169
   7716.5000     14.7160      3.1580      2.2810      0.4089      2.2507      2.2507      0.1673   -999.2500      0.2311      0.2258      2.2810      3.1580   -999.2500     14.7160    -95.5340    -77.1125    -99.5340    -54.5909      0.0589      0.1227      0.1227      0.4089
   7717.0000     15.3360      3.1510      2.3100      0.3950      2.2375      2.2375      0.1697   -999.2500      0.2313      0.2262      2.3100      3.1510   -999.2500     15.3360    -96.8650    -77.1076   -100.8650    -55.3514      0.0569      0.1185      0.1185      0.3950
   7717.5000     15.7480      3.1510      2.3670      0.3844      2.2273      2.2273      0.1715   -999.2500      0.2315      0.2265      2.3670      3.1510   -999.2500     15.7480    -97.8850    -77.1028   -101.8850    -55.9343      0.0553      0.1153      0.1153      0.3844
   7718.0000     16.0940      3.1650      2.3960      0.3718      2.2152      2.2152      0.1737   -999.2500      0.2317      0.2269      2.3960      3.1650   -999.2500     16.0940    -99.0880    -77.0979   -103.0880    -56.6217      0.0535      0.1115      0.1115      0.3718
   7718.5000     16.4910      3.1860      2.4180      0.3574      2.2014      2.2014      0.1762   -999.2500      0.2319      0.2273      2.4180      3.1860   -999.2500     16.4910   -100.4730    -77.0930   -104.4730    -57.4131      0.0515      0.1072      0.1072      0.3574
   7719.0000     16.7720      3.2220      2.4240      0.3505      2.1948      2.1948      0.1774   -999.2500      0.2320      0.2275      2.4240      3.2220   -999.2500     16.7720   -101.1290    -77.0882   -105.1290    -57.7880      0.0505      0.1052      0.1052      0.3505
   7719.5000     17.0970      3.2650      2.4240      0.3417      2.1865      2.1865      0.1789   -999.2500      0.2322      0.2278      2.4240      3.2650   -999.2500     17.0970   -101.9670    -77.0833   -105.9670    -58.2669      0.0492      0.1025      0.1025      0.3417
   7720.0000     17.4000      3.3660      2.4100      0.3269      2.1765      2.1765      0.1814   -999.2500      0.2324      0.2282      2.4100      3.3660   -999.2500     17.4000   -103.3880    -77.0785   -107.3880    -59.0789      0.0471      0.0981      0.0981      0.3269
   7720.5000     17.6670      3.4890      2.4020      0.3064      2.1704      2.1704      0.1850   -999.2500      0.2328      0.2288      2.4020      3.4890   -999.2500     17.6670   -105.3560    -77.0736   -109.3560    -60.2034      0.0441      0.0919      0.0919      0.3064
   7721.0000     17.8540      3.6330      2.3950      0.2856      2.1641      2.1641      0.1886   -999.2500      0.2331      0.2294      2.3950      3.6330   -999.2500     17.8540   -107.3590    -77.0688   -111.3590    -61.3480      0.0411      0.0857      0.0857      0.2856
   7721.5000     17.9910      3.8130      2.3730      0.2628      2.1573      2.1573      0.1925   -999.2500      0.2335      0.2301      2.3730      3.8130   -999.2500     17.9910   -109.5450    -77.0639   -113.5450    -62.5971      0.0378      0.0788      0.0788      0.2628
   7722.0000     18.1640      4.0220      2.3580      0.2540      2.1547      2.1547      0.1940   -999.2500      0.2336      0.2303      2.3580      4.0220   -999.2500     18.1640   -110.3840    -77.0591   -114.3840    -63.0766      0.0366      0.0762      0.0762      0.2540
   7722.5000     18.2070      4.1590      2.3510      0.2483      2.1530      2.1530      0.1950   -999.2500      0.2337      0.2305      2.3510      4.1590   -999.2500     18.2070   -110.9310    -77.0542   -114.9310    -63.3891      0.0358      0.0745      0.0745      0.2483
   7723.0000     17.8680      4.2960      2.3290      0.2444      2.1519      2.1519      0.1957   -999.2500      0.2338      0.2306      2.3290      4.2960   -999.2500     17.8680   -111.2960    -77.0494   -115.2960    -63.5977      0.0352      0.0733      0.0733      0.2444
   7723.5000     17.5640      4.3460      2.3140      0.2406      2.1508      2.1508      0.1963   -999.2500      0.2338      0.2307      2.3140      4.3460   -999.2500     17.5640   -111.6610    -77.0445   -115.6610    -63.8063      0.0346      0.0722      0.0722      0.2406
   7724.0000     17.1090      4.3610      2.3000      0.2367      2.1496      2.1496      0.1970   -999.2500      0.2339      0.2308      2.3000      4.3610   -999.2500     17.1090   -112.0260    -77.0397   -116.0260    -64.0149      0.0341      0.0710      0.0710      0.2367
   7724.5000     16.5890      4.3750      2.2920      0.2309      2.1479      2.1479      0.1980   -999.2500      0.2340      0.2310      2.2920      4.3750   -999.2500     16.5890   -112.5740    -77.0348   -116.5740    -64.3280      0.0333      0.0693      0.0693      0.2309
   7725.0000     16.3650      4.4110      2.2850      0.2229      2.1455      2.1455      0.1993   -999.2500      0.2341      0.2312      2.2850      4.4110   -999.2500     16.3650   -113.3390    -77.0300   -117.3390    -64.7652      0.0321      0.0669      0.0669      0.2229
   7725.5000     16.5960      4.5120      2.2770      0.2088      2.1413      2.1413      0.2018   -999.2500      0.2343      0.2316      2.2770      4.5120   -999.2500     16.5960   -114.6880    -77.0251   -118.6880    -65.5360      0.0301      0.0626      0.0626      0.2088
   7726.0000     17.4840      4.6990      2.2630      0.1895      2.1356      2.1356      0.2051   -999.2500      0.2347      0.2322      2.2630      4.6990   -999.2500     17.4840   -116.5460    -77.0203   -120.5460    -66.5977      0.0273      0.0568      0.0568      0.1895
   7726.5000     18.6100      4.9370      2.2590      0.1716      2.1302      2.1302      0.2082   -999.2500      0.2350      0.2327      2.2590      4.9370   -999.2500     18.6100   -118.2580    -77.0154   -122.2580    -67.5760      0.0247      0.0515      0.0515      0.1716
   7727.0000     19.1080      5.1170      2.2550      0.1571      2.1259      2.1259      0.2107   -999.2500      0.2352      0.2332      2.2550      5.1170   -999.2500     19.1080   -119.6430    -77.0106   -123.6430    -68.3674      0.0226      0.0471      0.0471      0.1571
