~V
VERS. 2.00: Ver 2.00
WRAP.   NO:        
~W
 STRT.FT 550:
 STOP.FT 8020:
 STEP.FT 0.5:
 NULL. -999.250000:
 COMP. Richfield (ARCO):Company
 WELL. LLU 18-21:Well
 FLD. Los Lobos:Field
 LOC. S21 T11N R22W:Location
 STAT. CA:State
 SRVC. :Service Company
 SON. :Service Order #
 DATE. :Log Date
 UWI. UNKNOWN:Unique Well ID
~C
 DEPT.FT :
 AM10.OHMM :
 AO10.OHMM :
 AO19.OHMM :
 LTHE. :
 MCRV. :
 MM. :
 PHES. :
 PHMX. :
 PHTS. :
 PHZC. :
 RD.OHMM :
 RM.OHMM :
 ROS. :
 RS.OHMM :
 SBL.MV :
 SCLN. :
 SP.MV :
 SPN. :
 VCDS. :
 VCLY. :
 VCWS. :
 VSHS. :
~P
~A
# ...
   6538.5000      2.1650      2.2590      2.2630      0.9409      2.8972      2.8972      0.0591   -999.2500      0.2381      0.2233      2.2630      2.2590   -999.2500      2.1650    -14.0820    -17.5775    -18.0820     -8.0469      0.1653      0.3443      0.3443      0.9409
   6539.0000      2.1510      2.2810      2.2630      1.1809      2.9174      2.9174      0.0000   -999.2500      0.1842      0.2223      2.2630      2.2810   -999.2500      2.1510    -13.7930    -17.5805    -17.7930     -7.8817      0.1700      0.3543      0.3543      1.1809
   6539.5000      2.1220      2.3090      2.2630      1.2141      2.9220      2.9220      0.0000   -999.2500      0.1894      0.2213      2.2630      2.3090   -999.2500      2.1220    -13.5030    -17.5834    -17.5030     -7.7160      0.1748      0.3642      0.3642      1.2141
   6540.0000      2.0780      2.3380      2.2550      1.2472      2.9266      2.9266      0.0000   -999.2500      0.1946      0.2202      2.2550      2.3380   -999.2500      2.0780    -13.2140    -17.5863    -17.2140     -7.5509      0.1796      0.3742      0.3742      1.2472
   6540.5000      2.0350      2.3670      2.2550      1.3051      2.9347      2.9347      0.0000   -999.2500      0.2036      0.2185      2.2550      2.3670   -999.2500      2.0350    -12.7070    -17.5893    -16.7070     -7.2611      0.1879      0.3915      0.3915      1.3051
   6541.0000      1.9700      2.3670      2.2550      1.3506      2.9410      2.9410      0.0000   -999.2500      0.2107      0.2171      2.2550      2.3670   -999.2500      1.9700    -12.3090    -17.5922    -16.3090     -7.0337      0.1945      0.4052      0.4052      1.3506
   6541.5000      1.9190      2.3670      2.2620      1.3919      2.9467      2.9467      0.0000   -999.2500      0.2171      0.2159      2.2620      2.3670   -999.2500      1.9190    -11.9480    -17.5951    -15.9480     -6.8274      0.2004      0.4176      0.4176      1.3919
   6542.0000      1.8180      2.3590      2.2580      1.4416      2.9536      2.9536      0.0000   -999.2500      0.2249      0.2144      2.2580      2.3590   -999.2500      1.8180    -11.5130    -17.5981    -15.5130     -6.5789      0.2076      0.4325      0.4325      1.4416
   6542.5000      1.7450      2.3450      2.2550      1.4685      2.9574      2.9574      0.0000   -999.2500      0.2291      0.2136      2.2550      2.3450   -999.2500      1.7450    -11.2780    -17.6010    -15.2780     -6.4446      0.2115      0.4405      0.4405      1.4685
   6543.0000      1.6440      2.3300      2.2400      1.4955      2.9612      2.9612      0.0000   -999.2500      0.2321      0.2128      2.2400      2.3300   -999.2500      1.6440    -11.0420    -17.6040    -15.0420     -6.3097      0.2154      0.4487      0.4475      1.4955
   6543.5000      1.5860      2.3080      2.2250      1.5354      2.9667      2.9667      0.0000   -999.2500      0.2314      0.2115      2.2250      2.3080   -999.2500      1.5860    -10.5370    -17.6069    -14.5370     -6.0211      0.2211      0.4606      0.4525      1.5354
   6544.0000      1.5430      2.2940      2.2180      1.5548      2.9694      2.9694      0.0000   -999.2500      0.2311      0.2110      2.2180      2.2940   -999.2500      1.5430    -10.2830    -17.6098    -14.2830     -5.8760      0.2239      0.4664      0.4550      1.5548
   6544.5000      1.5280      2.2860      2.2110      1.5740      2.9721      2.9721      0.0000   -999.2500      0.2308      0.2104      2.2110      2.2860   -999.2500      1.5280    -10.0300    -17.6128    -14.0300     -5.7314      0.2267      0.4722      0.4574      1.5740
   6545.0000      1.5280      2.2830      2.2070      1.5768      2.9725      2.9725      0.0000   -999.2500      0.2307      0.2103      2.2070      2.2830   -999.2500      1.5280     -9.9950    -17.6157    -13.9950     -5.7114      0.2271      0.4730      0.4578      1.5768
   6545.5000      1.5420      2.2790      2.2030      1.5604      2.9703      2.9703      0.0000   -999.2500      0.2310      0.2108      2.2030      2.2790   -999.2500      1.5420    -10.2130    -17.6187    -14.2130     -5.8360      0.2247      0.4681      0.4557      1.5604
   6546.0000      1.5710      2.2710      2.2030      1.5330      2.9665      2.9665      0.0000   -999.2500      0.2314      0.2116      2.2030      2.2710   -999.2500      1.5710    -10.5770    -17.6216    -14.5770     -6.0440      0.2208      0.4599      0.4522      1.5330
   6546.5000      1.6070      2.2680      2.2100      1.5166      2.9643      2.9643      0.0000   -999.2500      0.2317      0.2121      2.2100      2.2680   -999.2500      1.6070    -10.7960    -17.6245    -14.7960     -6.1691      0.2184      0.4550      0.4501      1.5166
   6547.0000      1.6720      2.2640      2.2240      1.5112      2.9635      2.9635      0.0000   -999.2500      0.2318      0.2122      2.2240      2.2640   -999.2500      1.6720    -10.8690    -17.6275    -14.8690     -6.2109      0.2176      0.4534      0.4494      1.5112
   6547.5000      1.7300      2.2490      2.2600      1.5250      2.9655      2.9655      0.0000   -999.2500      0.2315      0.2118      2.2600      2.2490   -999.2500      1.7300    -10.6880    -17.6304    -14.6880     -6.1074      0.2196      0.4575      0.4511      1.5250
   6548.0000      1.7800      2.2350      2.3030      1.5552      2.9697      2.9697      0.0000   -999.2500      0.2310      0.2109      2.3030      2.2350   -999.2500      1.7800    -10.2910    -17.6334    -14.2910     -5.8806      0.2239      0.4666      0.4550      1.5552
   6548.5000      1.8450      2.2270      2.3390      1.5772      2.9728      2.9728      0.0000   -999.2500      0.2306      0.2102      2.3390      2.2270   -999.2500      1.8450    -10.0010    -17.6363    -14.0010     -5.7149      0.2271      0.4732      0.4578      1.5772
   6549.0000      1.8950      2.2240      2.3750      1.5938      2.9751      2.9751      0.0000   -999.2500      0.2303      0.2097      2.3750      2.2240   -999.2500      1.8950     -9.7840    -17.6392    -13.7840     -5.5909      0.2295      0.4781      0.4599      1.5938
   6549.5000      1.9310      2.2200      2.3970      1.5910      2.9747      2.9747      0.0000   -999.2500      0.2304      0.2098      2.3970      2.2200   -999.2500      1.9310     -9.8220    -17.6422    -13.8220     -5.6126      0.2291      0.4773      0.4595      1.5910
   6550.0000      1.9670      2.2130      2.4040      1.5610      2.9706      2.9706      0.0000   -999.2500      0.2309      0.2107      2.4040      2.2130   -999.2500      1.9670    -10.2210    -17.6451    -14.2210     -5.8406      0.2248      0.4683      0.4557      1.5610
   6550.5000      1.9880      2.2120      2.3890      1.5445      2.9683      2.9683      0.0000   -999.2500      0.2312      0.2112      2.3890      2.2120   -999.2500      1.9880    -10.4410    -17.6481    -14.4410     -5.9663      0.2224      0.4634      0.4536      1.5445
   6551.0000      1.9880      2.2120      2.3670      1.5362      2.9672      2.9672      0.0000   -999.2500      0.2313      0.2114      2.3670      2.2120   -999.2500      1.9880    -10.5520    -17.6510    -14.5520     -6.0297      0.2212      0.4609      0.4525      1.5362
   6551.5000      1.9800      2.2110      2.3310      1.5473      2.9688      2.9688      0.0000   -999.2500      0.2311      0.2111      2.3310      2.2110   -999.2500      1.9800    -10.4080    -17.6539    -14.4080     -5.9474      0.2228      0.4642      0.4539      1.5473
   6552.0000      1.9690      2.2040      2.2940      1.5527      2.9696      2.9696      0.0000   -999.2500      0.2310      0.2109      2.2940      2.2040   -999.2500      1.9690    -10.3380    -17.6569    -14.3380     -5.9074      0.2236      0.4658      0.4546      1.5527
   6552.5000      1.9580      2.1890      2.2580      1.5308      2.9665      2.9665      0.0000   -999.2500      0.2314      0.2115      2.2580      2.1890   -999.2500      1.9580    -10.6300    -17.6598    -14.6300     -6.0743      0.2204      0.4592      0.4518      1.5308
