~V
VERS. 2.00: Ver 2.00
WRAP.   NO:        
~W
 STRT.FT 550:
 STOP.FT 8020:
 STEP.FT 0.5:
 NULL. -999.250000:
 COMP. Richfield (ARCO):Company
 WELL. LLU 18-21:Well
 FLD. Los Lobos:Field
 LOC. S21 T11N R22W:Location
 STAT. CA:State
 SRVC. :Service Company
 SON. :Service Order #
 DATE. :Log Date
 UWI. UNKNOWN:Unique Well ID
~C
 DEPT.FT :
 AM10.OHMM :
 AO10.OHMM :
 AO19.OHMM :
 LTHE. :
 MCRV. :
 MM. :
 PHES. :
 PHMX. :
 PHTS. :
 PHZC. :
 RD.OHMM :
 RM.OHMM :
 ROS. :
 RS.OHMM :
 SBL.MV :
 SCLN. :
 SP.MV :
 SPN. :
 VCDS. :
 VCLY. :
 VCWS. :
 VSHS. :
~P
~A
# ...
   6828.5000      1.9680      2.6040      2.5130      1.5847      2.9887      2.9887      0.0000   -999.2500      0.2258      0.2053      2.5130      2.6040   -999.2500      1.9680    -10.8260    -19.2823    -14.8260     -6.1863      0.2282      0.4754      0.4540      1.5847
   6829.0000      1.9600      2.5740      2.5270      1.5871      2.9891      2.9891      0.0000   -999.2500      0.2258      0.2052      2.5270      2.5740   -999.2500      1.9600    -10.7940    -19.2852    -14.7940     -6.1680      0.2285      0.4761      0.4543      1.5871
   6829.5000      1.9570      2.5440      2.5260      1.5869      2.9891      2.9891      0.0000   -999.2500      0.2258      0.2052      2.5260      2.5440   -999.2500      1.9570    -10.7980    -19.2881    -14.7980     -6.1703      0.2285      0.4761      0.4543      1.5869
   6830.0000      1.9540      2.5220      2.5250      1.5867      2.9891      2.9891      0.0000   -999.2500      0.2258      0.2052      2.5250      2.5220   -999.2500      1.9540    -10.8020    -19.2911    -14.8020     -6.1726      0.2285      0.4760      0.4543      1.5867
   6830.5000      1.9510      2.4990      2.5240      1.5690      2.9867      2.9867      0.0000   -999.2500      0.2261      0.2058      2.5240      2.4990   -999.2500      1.9510    -11.0600    -19.2940    -15.0600     -6.3200      0.2259      0.4707      0.4520      1.5690
   6831.0000      1.9640      2.4620      2.5130      1.5412      2.9828      2.9828      0.0000   -999.2500      0.2265      0.2066      2.5130      2.4620   -999.2500      1.9640    -11.4640    -19.2970    -15.4640     -6.5509      0.2219      0.4624      0.4485      1.5412
   6831.5000      1.9700      2.4400      2.5010      1.5136      2.9790      2.9790      0.0000   -999.2500      0.2270      0.2074      2.5010      2.4400   -999.2500      1.9700    -11.8660    -19.2999    -15.8660     -6.7806      0.2180      0.4541      0.4450      1.5136
   6832.0000      1.9770      2.4240      2.4860      1.4975      2.9769      2.9769      0.0000   -999.2500      0.2273      0.2079      2.4860      2.4240   -999.2500      1.9770    -12.0880    -19.3028    -16.0880     -6.9074      0.2156      0.4493      0.4429      1.4975
   6832.5000      1.9870      2.4090      2.4700      1.4973      2.9768      2.9768      0.0000   -999.2500      0.2273      0.2079      2.4700      2.4090   -999.2500      1.9870    -12.0920    -19.3058    -16.0920     -6.9097      0.2156      0.4492      0.4429      1.4973
   6833.0000      1.9970      2.3940      2.4510      1.5018      2.9775      2.9775      0.0000   -999.2500      0.2272      0.2077      2.4510      2.3940   -999.2500      1.9970    -12.0420    -19.3087    -16.0420     -6.8811      0.2163      0.4505      0.4434      1.5018
   6833.5000      1.9990      2.3780      2.4330      1.5054      2.9780      2.9780      0.0000   -999.2500      0.2271      0.2076      2.4330      2.3780   -999.2500      1.9990    -11.9910    -19.3117    -15.9910     -6.8520      0.2168      0.4516      0.4439      1.5054
   6834.0000      2.0020      2.3560      2.4100      1.5178      2.9798      2.9798      0.0000   -999.2500      0.2269      0.2072      2.4100      2.3560   -999.2500      2.0020    -11.8140    -19.3146    -15.8140     -6.7509      0.2186      0.4553      0.4455      1.5178
   6834.5000      2.0160      2.3480      2.3870      1.5264      2.9810      2.9810      0.0000   -999.2500      0.2267      0.2070      2.3870      2.3480   -999.2500      2.0160    -11.6910    -19.3175    -15.6910     -6.6806      0.2198      0.4579      0.4465      1.5264
   6835.0000      2.0220      2.3320      2.3650      1.5350      2.9822      2.9822      0.0000   -999.2500      0.2266      0.2067      2.3650      2.3320   -999.2500      2.0220    -11.5680    -19.3205    -15.5680     -6.6103      0.2210      0.4605      0.4476      1.5350
   6835.5000      2.0290      2.3170      2.3530      1.5411      2.9831      2.9831      0.0000   -999.2500      0.2265      0.2065      2.3530      2.3170   -999.2500      2.0290    -11.4810    -19.3234    -15.4810     -6.5606      0.2219      0.4623      0.4484      1.5411
   6836.0000      2.0350      2.3090      2.3420      1.5472      2.9839      2.9839      0.0000   -999.2500      0.2264      0.2063      2.3420      2.3090   -999.2500      2.0350    -11.3950    -19.3264    -15.3950     -6.5114      0.2228      0.4642      0.4492      1.5472
   6836.5000      2.0480      2.2830      2.3190      1.5570      2.9853      2.9853      0.0000   -999.2500      0.2262      0.2060      2.3190      2.2830   -999.2500      2.0480    -11.2550    -19.3293    -15.2550     -6.4314      0.2242      0.4671      0.4504      1.5570
   6837.0000      2.0620      2.2570      2.2960      1.5593      2.9857      2.9857      0.0000   -999.2500      0.2261      0.2059      2.2960      2.2570   -999.2500      2.0620    -11.2230    -19.3322    -15.2230     -6.4131      0.2245      0.4678      0.4507      1.5593
   6837.5000      2.0900      2.2340      2.2780      1.5566      2.9853      2.9853      0.0000   -999.2500      0.2262      0.2060      2.2780      2.2340   -999.2500      2.0900    -11.2630    -19.3352    -15.2630     -6.4360      0.2242      0.4670      0.4503      1.5566
   6838.0000      2.0960      2.2120      2.2590      1.5539      2.9850      2.9850      0.0000   -999.2500      0.2262      0.2061      2.2590      2.2120   -999.2500      2.0960    -11.3040    -19.3381    -15.3040     -6.4594      0.2238      0.4662      0.4500      1.5539
   6838.5000      2.1030      2.2040      2.2360      1.5513      2.9846      2.9846      0.0000   -999.2500      0.2262      0.2062      2.2360      2.2040   -999.2500      2.1030    -11.3440    -19.3410    -15.3440     -6.4823      0.2234      0.4654      0.4496      1.5513
   6839.0000      2.1160      2.2030      2.2210      1.5461      2.9840      2.9840      0.0000   -999.2500      0.2263      0.2063      2.2210      2.2030   -999.2500      2.1160    -11.4210    -19.3440    -15.4210     -6.5263      0.2226      0.4638      0.4490      1.5461
   6839.5000      2.1220      2.2020      2.2060      1.5385      2.9829      2.9829      0.0000   -999.2500      0.2264      0.2065      2.2060      2.2020   -999.2500      2.1220    -11.5330    -19.3469    -15.5330     -6.5903      0.2215      0.4616      0.4480      1.5385
   6840.0000      2.1290      2.2080      2.1680      1.5258      2.9812      2.9812      0.0000   -999.2500      0.2267      0.2069      2.1680      2.2080   -999.2500      2.1290    -11.7190    -19.3499    -15.7190     -6.6966      0.2197      0.4577      0.4464      1.5258
   6840.5000      2.1390      2.2220      2.1460      1.5082      2.9788      2.9788      0.0000   -999.2500      0.2269      0.2074      2.1460      2.2220   -999.2500      2.1390    -11.9770    -19.3528    -15.9770     -6.8440      0.2172      0.4524      0.4441      1.5082
   6841.0000      2.1490      2.2390      2.1380      1.4858      2.9757      2.9757      0.0000   -999.2500      0.2273      0.2081      2.1380      2.2390   -999.2500      2.1490    -12.2350    -19.3557    -16.2350     -6.9914      0.2140      0.4457      0.4413      1.4858
   6841.5000      2.1550      2.2560      2.1300      1.4369      2.9690      2.9690      0.0000   -999.2500      0.2242      0.2095      2.1300      2.2560   -999.2500      2.1550    -12.7100    -19.3587    -16.7100     -7.2629      0.2069      0.4311      0.4311      1.4369
   6842.0000      2.1690      2.2910      2.1070      1.3992      2.9638      2.9638      0.0000   -999.2500      0.2183      0.2107      2.1070      2.2910   -999.2500      2.1690    -13.0770    -19.3616    -17.0770     -7.4726      0.2015      0.4198      0.4198      1.3992
   6842.5000      2.1610      2.3050      2.0850      1.3914      2.9627      2.9627      0.0000   -999.2500      0.2171      0.2109      2.0850      2.3050   -999.2500      2.1610    -13.1540    -19.3646    -17.1540     -7.5166      0.2004      0.4174      0.4174      1.3914
