~V
VERS. 2.00: Ver 2.00
WRAP.   NO:        
~W
 STRT.FT 550:
 STOP.FT 8020:
 STEP.FT 0.5:
 NULL. -999.250000:
 COMP. Richfield (ARCO):Company
 WELL. LLU 18-21:Well
 FLD. Los Lobos:Field
 LOC. S21 T11N R22W:Location
 STAT. CA:State
 SRVC. :Service Company
 SON. :Service Order #
 DATE. :Log Date
 UWI. UNKNOWN:Unique Well ID
~C
 DEPT.FT :
 AM10.OHMM :
 AO10.OHMM :
 AO19.OHMM :
 LTHE. :
 MCRV. :
 MM. :
 PHES. :
 PHMX. :
 PHTS. :
 PHZC. :
 RD.OHMM :
 RM.OHMM :
 ROS. :
 RS.OHMM :
 SBL.MV :
 SCLN. :
 SP.MV :
 SPN. :
 VCDS. :
 VCLY. :
 VCWS. :
 VSHS. :
~P
~A
# ...
   5958.5000      1.7040      2.4320      2.1980      1.8008      2.9723      2.9723      0.0000   -999.2500      0.2367      0.2133      2.1980      2.4320   -999.2500      1.7040     -5.6580    -14.1674     -9.6580     -3.2331      0.2593      0.5403      0.4960      1.8008
   5959.0000      1.6960      2.4200      2.1970      1.7868      2.9704      2.9704      0.0000   -999.2500      0.2369      0.2137      2.1970      2.4200   -999.2500      1.6960     -5.8080    -14.1704     -9.8080     -3.3189      0.2573      0.5361      0.4942      1.7868
   5959.5000      1.6880      2.4090      2.1960      1.7931      2.9712      2.9712      0.0000   -999.2500      0.2368      0.2135      2.1960      2.4090   -999.2500      1.6880     -5.7430    -14.1733     -9.7430     -3.2817      0.2582      0.5379      0.4950      1.7931
   5960.0000      1.6720      2.3850      2.2010      1.8300      2.9764      2.9764      0.0000   -999.2500      0.2361      0.2124      2.2010      2.3850   -999.2500      1.6720     -5.3520    -14.1762     -9.3520     -3.0583      0.2635      0.5490      0.4997      1.8300
   5960.5000      1.6710      2.3740      2.2070      1.8450      2.9785      2.9785      0.0000   -999.2500      0.2359      0.2120      2.2070      2.3740   -999.2500      1.6710     -5.1930    -14.1792     -9.1930     -2.9674      0.2657      0.5535      0.5016      1.8450
   5961.0000      1.6670      2.3620      2.2030      1.8602      2.9806      2.9806      0.0000   -999.2500      0.2356      0.2115      2.2030      2.3620   -999.2500      1.6670     -5.0330    -14.1821     -9.0330     -2.8760      0.2679      0.5580      0.5035      1.8602
   5961.5000      1.6620      2.3450      2.1980      1.8933      2.9852      2.9852      0.0000   -999.2500      0.2350      0.2105      2.1980      2.3450   -999.2500      1.6620     -4.6810    -14.1851     -8.6810     -2.6749      0.2726      0.5680      0.5077      1.8933
   5962.0000      1.6670      2.3370      2.1940      1.8723      2.9823      2.9823      0.0000   -999.2500      0.2354      0.2111      2.1940      2.3370   -999.2500      1.6670     -4.9060    -14.1880     -8.9060     -2.8034      0.2696      0.5617      0.5050      1.8723
   5962.5000      1.6730      2.3290      2.1890      1.8584      2.9804      2.9804      0.0000   -999.2500      0.2356      0.2115      2.1890      2.3290   -999.2500      1.6730     -5.0550    -14.1909     -9.0550     -2.8886      0.2676      0.5575      0.5032      1.8584
   5963.0000      1.6790      2.3200      2.1800      1.8443      2.9785      2.9785      0.0000   -999.2500      0.2358      0.2120      2.1800      2.3200   -999.2500      1.6790     -5.2060    -14.1939     -9.2060     -2.9749      0.2656      0.5533      0.5014      1.8443
   5963.5000      1.6820      2.3230      2.1710      1.8369      2.9775      2.9775      0.0000   -999.2500      0.2360      0.2122      2.1710      2.3230   -999.2500      1.6820     -5.2860    -14.1968     -9.2860     -3.0206      0.2645      0.5511      0.5005      1.8369
   5964.0000      1.6850      2.3260      2.1600      1.8365      2.9775      2.9775      0.0000   -999.2500      0.2360      0.2122      2.1600      2.3260   -999.2500      1.6850     -5.2910    -14.1998     -9.2910     -3.0234      0.2645      0.5510      0.5004      1.8365
   5964.5000      1.7040      2.3280      2.1480      1.8362      2.9775      2.9775      0.0000   -999.2500      0.2360      0.2122      2.1480      2.3280   -999.2500      1.7040     -5.2960    -14.2027     -9.2960     -3.0263      0.2644      0.5508      0.5004      1.8362
   5965.0000      1.7100      2.3300      2.1390      1.8359      2.9775      2.9775      0.0000   -999.2500      0.2360      0.2122      2.1390      2.3300   -999.2500      1.7100     -5.3000    -14.2056     -9.3000     -3.0286      0.2644      0.5508      0.5003      1.8359
   5965.5000      1.7170      2.3360      2.1380      1.8418      2.9783      2.9783      0.0000   -999.2500      0.2358      0.2120      2.1380      2.3360   -999.2500      1.7170     -5.2380    -14.2086     -9.2380     -2.9931      0.2652      0.5525      0.5011      1.8418
   5966.0000      1.7300      2.3420      2.1370      1.8414      2.9783      2.9783      0.0000   -999.2500      0.2358      0.2120      2.1370      2.3420   -999.2500      1.7300     -5.2430    -14.2115     -9.2430     -2.9960      0.2652      0.5524      0.5010      1.8414
   5966.5000      1.7360      2.3480      2.1430      1.8428      2.9785      2.9785      0.0000   -999.2500      0.2358      0.2119      2.1430      2.3480   -999.2500      1.7360     -5.2290    -14.2145     -9.2290     -2.9880      0.2654      0.5529      0.5012      1.8428
   5967.0000      1.7420      2.3610      2.1270      1.8443      2.9787      2.9787      0.0000   -999.2500      0.2358      0.2119      2.1270      2.3610   -999.2500      1.7420     -5.2150    -14.2174     -9.2150     -2.9800      0.2656      0.5533      0.5014      1.8443
   5967.5000      1.7480      2.3740      2.1260      1.8454      2.9789      2.9789      0.0000   -999.2500      0.2358      0.2118      2.1260      2.3740   -999.2500      1.7480     -5.2040    -14.2203     -9.2040     -2.9737      0.2657      0.5536      0.5015      1.8454
   5968.0000      1.7470      2.3810      2.1250      1.8465      2.9791      2.9791      0.0000   -999.2500      0.2357      0.2118      2.1250      2.3810   -999.2500      1.7470     -5.1930    -14.2233     -9.1930     -2.9674      0.2659      0.5540      0.5016      1.8465
   5968.5000      1.7460      2.3870      2.1240      1.8460      2.9790      2.9790      0.0000   -999.2500      0.2357      0.2118      2.1240      2.3870   -999.2500      1.7460     -5.2000    -14.2262     -9.2000     -2.9714      0.2658      0.5538      0.5015      1.8460
   5969.0000      1.7560      2.4050      2.1230      1.8455      2.9790      2.9790      0.0000   -999.2500      0.2357      0.2118      2.1230      2.4050   -999.2500      1.7560     -5.2060    -14.2292     -9.2060     -2.9749      0.2658      0.5537      0.5015      1.8455
   5969.5000      1.7650      2.4230      2.1260      1.8450      2.9790      2.9790      0.0000   -999.2500      0.2357      0.2118      2.1260      2.4230   -999.2500      1.7650     -5.2120    -14.2321     -9.2120     -2.9783      0.2657      0.5535      0.5014      1.8450
   5970.0000      1.7640      2.4410      2.1280      1.8511      2.9798      2.9798      0.0000   -999.2500      0.2356      0.2116      2.1280      2.4410   -999.2500      1.7640     -5.1480    -14.2350     -9.1480     -2.9417      0.2666      0.5553      0.5022      1.8511
   5970.5000      1.7620      2.4580      2.1340      1.8542      2.9803      2.9803      0.0000   -999.2500      0.2356      0.2115      2.1340      2.4580   -999.2500      1.7620     -5.1160    -14.2380     -9.1160     -2.9234      0.2670      0.5563      0.5026      1.8542
   5971.0000      1.7680      2.4740      2.1400      1.8640      2.9817      2.9817      0.0000   -999.2500      0.2354      0.2112      2.1400      2.4740   -999.2500      1.7680     -5.0130    -14.2409     -9.0130     -2.8646      0.2684      0.5592      0.5038      1.8640
   5971.5000      1.7670      2.4940      2.1590      1.8869      2.9849      2.9849      0.0000   -999.2500      0.2350      0.2105      2.1590      2.4940   -999.2500      1.7670     -4.7690    -14.2439     -8.7690     -2.7251      0.2717      0.5661      0.5067      1.8869
   5972.0000      1.7730      2.5010      2.1730      1.9000      2.9867      2.9867      0.0000   -999.2500      0.2347      0.2101      2.1730      2.5010   -999.2500      1.7730     -4.6300    -14.2468     -8.6300     -2.6457      0.2736      0.5700      0.5083      1.9000
   5972.5000      1.7860      2.5030      2.1860      1.9131      2.9886      2.9886      0.0000   -999.2500      0.2345      0.2097      2.1860      2.5030   -999.2500      1.7860     -4.4910    -14.2497     -8.4910     -2.5663      0.2755      0.5739      0.5100      1.9131
