~V
VERS. 2.00: Ver 2.00
WRAP.   NO:        
~W
 STRT.FT 550:
 STOP.FT 8020:
 STEP.FT 0.5:
 NULL. -999.250000:
 COMP. Richfield (ARCO):Company
 WELL. LLU 18-21:Well
 FLD. Los Lobos:Field
 LOC. S21 T11N R22W:Location
 STAT. CA:State
 SRVC. :Service Company
 SON. :Service Order #
 DATE. :Log Date
 UWI. UNKNOWN:Unique Well ID
~C
 DEPT.FT :
 AM10.OHMM :
 AO10.OHMM :
 AO19.OHMM :
 LTHE. :
 MCRV. :
 MM. :
 PHES. :
 PHMX. :
 PHTS. :
 PHZC. :
 RD.OHMM :
 RM.OHMM :
 ROS. :
 RS.OHMM :
 SBL.MV :
 SCLN. :
 SP.MV :
 SPN. :
 VCDS. :
 VCLY. :
 VCWS. :
 VSHS. :
~P
~A
# ...
   7568.0000     16.4080      3.2990      1.8950      0.0353      2.0809      2.0809      0.2344   -999.2500      0.2399      0.2395      1.8950      3.2990   -999.2500     16.4080   -133.9982    -78.5536   -137.9982    -76.5704      0.0051      0.0106      0.0106      0.0353
   7568.5000     16.1550      3.2840      2.0530      0.0391      2.0820      2.0820      0.2338   -999.2500      0.2399      0.2394      2.0530      3.2840   -999.2500     16.1550   -133.6212    -78.5487   -137.6212    -76.3550      0.0056      0.0117      0.0117      0.0391
   7569.0000     15.7720      3.2690      2.2480      0.0388      2.0820      2.0820      0.2338   -999.2500      0.2399      0.2394      2.2480      3.2690   -999.2500     15.7720   -133.6441    -78.5439   -137.6441    -76.3681      0.0056      0.0116      0.0116      0.0388
   7569.5000     15.5330      3.2680      2.3990      0.0318      2.0799      2.0799      0.2350   -999.2500      0.2400      0.2396      2.3990      3.2680   -999.2500     15.5330   -134.3195    -78.5390   -138.3195    -76.7540      0.0046      0.0095      0.0095      0.0318
   7570.0000     15.7640      3.2680      2.4630      0.0252      2.0780      2.0780      0.2361   -999.2500      0.2401      0.2397      2.4630      3.2680   -999.2500     15.7640   -134.9572    -78.5342   -138.9572    -77.1184      0.0036      0.0076      0.0076      0.0252
   7570.5000     16.1680      3.2890      2.5200      0.0233      2.0774      2.0774      0.2365   -999.2500      0.2401      0.2398      2.5200      3.2890   -999.2500     16.1680   -135.1438    -78.5293   -139.1438    -77.2250      0.0033      0.0070      0.0070      0.0233
   7571.0000     16.5140      3.3610      2.5850      0.0254      2.0781      2.0781      0.2361   -999.2500      0.2400      0.2397      2.5850      3.3610   -999.2500     16.5140   -134.9217    -78.5245   -138.9217    -77.0981      0.0037      0.0076      0.0076      0.0254
   7571.5000     16.9390      3.4760      2.6280      0.0283      2.0790      2.0790      0.2356   -999.2500      0.2400      0.2396      2.6280      3.4760   -999.2500     16.9390   -134.6285    -78.5196   -138.6285    -76.9306      0.0041      0.0085      0.0085      0.0283
   7572.0000     17.2630      3.6120      2.6490      0.0295      2.0793      2.0793      0.2354   -999.2500      0.2400      0.2396      2.6490      3.6120   -999.2500     17.2630   -134.5078    -78.5148   -138.5078    -76.8616      0.0042      0.0088      0.0088      0.0295
   7572.5000     17.5300      3.7060      2.6700      0.0252      2.0781      2.0781      0.2361   -999.2500      0.2400      0.2397      2.6700      3.7060   -999.2500     17.5300   -134.9188    -78.5099   -138.9188    -77.0964      0.0036      0.0076      0.0076      0.0252
   7573.0000     17.7820      3.8060      2.6770      0.0146      2.0750      2.0750      0.2379   -999.2500      0.2402      0.2400      2.6770      3.8060   -999.2500     17.7820   -135.9474    -78.5051   -139.9474    -77.6842      0.0021      0.0044      0.0044      0.0146
   7573.5000     17.9770      3.8920      2.6690      0.0079      2.0730      2.0730      0.2391   -999.2500      0.2403      0.2402      2.6690      3.8920   -999.2500     17.9770   -136.5970    -78.5002   -140.5970    -78.0554      0.0011      0.0024      0.0024      0.0079
   7574.0000     18.0190      3.9350      2.6610      0.0070      2.0727      2.0727      0.2392   -999.2500      0.2403      0.2402      2.6610      3.9350   -999.2500     18.0190   -136.6786    -78.4954   -140.6786    -78.1021      0.0010      0.0021      0.0021      0.0070
   7574.5000     17.7730      3.9280      2.6250      0.0089      2.0733      2.0733      0.2389   -999.2500      0.2403      0.2402      2.6250      3.9280   -999.2500     17.7730   -136.4850    -78.4905   -140.4850    -77.9914      0.0013      0.0027      0.0027      0.0089
   7575.0000     17.5060      3.9200      2.5880      0.0126      2.0744      2.0744      0.2382   -999.2500      0.2402      0.2400      2.5880      3.9200   -999.2500     17.5060   -136.1144    -78.4857   -140.1144    -77.7796      0.0018      0.0038      0.0038      0.0126
   7575.5000     16.8840      3.8620      2.5080      0.0204      2.0768      2.0768      0.2369   -999.2500      0.2401      0.2398      2.5080      3.8620   -999.2500     16.8840   -135.3365    -78.4808   -139.3365    -77.3351      0.0029      0.0061      0.0061      0.0204
   7576.0000     16.4220      3.8110      2.4280      0.0325      2.0805      2.0805      0.2348   -999.2500      0.2398      0.2394      2.4280      3.8110   -999.2500     16.4220   -134.1444    -78.4760   -138.1444    -76.6539      0.0047      0.0098      0.0098      0.0325
   7576.5000     15.8510      3.6080      2.2980      0.0428      2.0836      2.0836      0.2330   -999.2500      0.2397      0.2391      2.2980      3.6080   -999.2500     15.8510   -133.1260    -78.4711   -137.1260    -76.0720      0.0062      0.0128      0.0128      0.0428
   7577.0000     15.1720      3.4700      2.2110      0.0547      2.0872      2.0872      0.2309   -999.2500      0.2395      0.2387      2.2110      3.4700   -999.2500     15.1720   -131.9505    -78.4662   -135.9505    -75.4003      0.0079      0.0164      0.0164      0.0547
   7577.5000     14.2980      3.3690      2.1520      0.0721      2.0924      2.0924      0.2279   -999.2500      0.2391      0.2382      2.1520      3.3690   -999.2500     14.2980   -130.2344    -78.4614   -134.2344    -74.4196      0.0104      0.0216      0.0216      0.0721
   7578.0000     13.6910      3.2310      2.1080      0.0816      2.0953      2.0953      0.2262   -999.2500      0.2390      0.2379      2.1080      3.2310   -999.2500     13.6910   -129.2936    -78.4565   -133.2936    -73.8820      0.0118      0.0245      0.0245      0.0816
   7578.5000     13.0920      3.1440      2.1220      0.0879      2.0972      2.0972      0.2251   -999.2500      0.2389      0.2377      2.1220      3.1440   -999.2500     13.0920   -128.6715    -78.4517   -132.6715    -73.5266      0.0127      0.0264      0.0264      0.0879
   7579.0000     12.8100      3.0640      2.1720      0.0937      2.0990      2.0990      0.2241   -999.2500      0.2388      0.2375      2.1720      3.0640   -999.2500     12.8100   -128.0923    -78.4468   -132.0923    -73.1956      0.0135      0.0281      0.0281      0.0937
   7579.5000     12.8960      2.9910      2.2220      0.0988      2.1005      2.1005      0.2232   -999.2500      0.2387      0.2374      2.2220      2.9910   -999.2500     12.8960   -127.5877    -78.4420   -131.5877    -72.9073      0.0142      0.0296      0.0296      0.0988
   7580.0000     12.9100      2.9110      2.2650      0.1035      2.1020      2.1020      0.2224   -999.2500      0.2386      0.2372      2.2650      2.9110   -999.2500     12.9100   -127.1179    -78.4371   -131.1179    -72.6388      0.0149      0.0310      0.0310      0.1035
   7580.5000     12.8510      2.8390      2.2790      0.1073      2.1032      2.1032      0.2218   -999.2500      0.2385      0.2371      2.2790      2.8390   -999.2500     12.8510   -126.7354    -78.4323   -130.7354    -72.4202      0.0155      0.0322      0.0322      0.1073
   7581.0000     12.7790      2.7730      2.2790      0.1110      2.1043      2.1043      0.2211   -999.2500      0.2384      0.2370      2.2790      2.7730   -999.2500     12.7790   -126.3648    -78.4274   -130.3648    -72.2085      0.0160      0.0333      0.0333      0.1110
   7581.5000     12.6700      2.7150      2.2420      0.1149      2.1055      2.1055      0.2204   -999.2500      0.2383      0.2369      2.2420      2.7150   -999.2500     12.6700   -125.9717    -78.4226   -129.9717    -71.9839      0.0166      0.0345      0.0345      0.1149
   7582.0000     12.5390      2.6490      2.2130      0.1202      2.1071      2.1071      0.2195   -999.2500      0.2383      0.2367      2.2130      2.6490   -999.2500     12.5390   -125.4516    -78.4177   -129.4516    -71.6866      0.0173      0.0361      0.0361      0.1202
