~V
VERS. 2.00: Ver 2.00
WRAP.   NO:        
~W
 STRT.FT 550:
 STOP.FT 8020:
 STEP.FT 0.5:
 NULL. -999.250000:
 COMP. Richfield (ARCO):Company
 WELL. LLU 18-21:Well
 FLD. Los Lobos:Field
 LOC. S21 T11N R22W:Location
 STAT. CA:State
 SRVC. :Service Company
 SON. :Service Order #
 DATE. :Log Date
 UWI. UNKNOWN:Unique Well ID
~C
 DEPT.FT :
 AM10.OHMM :
 AO10.OHMM :
 AO19.OHMM :
 LTHE. :
 MCRV. :
 MM. :
 PHES. :
 PHMX. :
 PHTS. :
 PHZC. :
 RD.OHMM :
 RM.OHMM :
 ROS. :
 RS.OHMM :
 SBL.MV :
 SCLN. :
 SP.MV :
 SPN. :
 VCDS. :
 VCLY. :
 VCWS. :
 VSHS. :
~P
~A
# ...
   5813.5000      3.2870      2.9560      2.0880      2.1096      3.0073      3.0073      0.0000   -999.2500      0.2338      0.2065      2.0880      2.9560   -999.2500      3.2870     -4.8854    -29.1203     -9.8870     -2.7917      0.3038      0.6329      0.5376      2.1096
   5814.0000      3.0560      2.8680      2.3030      2.1337      3.0106      3.0106      0.0000   -999.2500      0.2334      0.2058      2.3030      2.8680   -999.2500      3.0560     -4.3527    -29.0639     -9.3500     -2.4872      0.3072      0.6401      0.5406      2.1337
   5814.5000      2.7310      2.8390      2.4750      2.1511      3.0131      3.0131      0.0000   -999.2500      0.2331      0.2052      2.4750      2.8390   -999.2500      2.7310     -3.9650    -29.0075     -8.9580     -2.2657      0.3098      0.6453      0.5428      2.1511
   5815.0000      2.4490      2.8090      2.6100      2.1502      3.0130      3.0130      0.0000   -999.2500      0.2331      0.2052      2.6100      2.8090   -999.2500      2.4490     -3.9762    -28.9511     -8.9650     -2.2721      0.3096      0.6451      0.5427      2.1502
   5815.5000      2.1310      2.7860      2.7030      2.1345      3.0108      3.0108      0.0000   -999.2500      0.2334      0.2057      2.7030      2.7860   -999.2500      2.1310     -4.3095    -28.8947     -9.2940     -2.4626      0.3074      0.6403      0.5407      2.1345
   5816.0000      1.7690      2.8570      2.7740      2.1068      3.0070      3.0070      0.0000   -999.2500      0.2338      0.2065      2.7740      2.8570   -999.2500      1.7690     -4.8988    -28.8383     -9.8790     -2.7993      0.3034      0.6321      0.5372      2.1068
   5816.5000      1.7250      3.0500      2.8090      2.0774      3.0030      3.0030      0.0000   -999.2500      0.2343      0.2074      2.8090      3.0500   -999.2500      1.7250     -5.5241    -28.7819    -10.5000     -3.1566      0.2991      0.6232      0.5335      2.0774
   5817.0000      1.7820      3.2220      2.8080      2.0614      3.0008      3.0008      0.0000   -999.2500      0.2346      0.2079      2.8080      3.2220   -999.2500      1.7820     -5.8584    -28.7255    -10.8300     -3.3476      0.2968      0.6184      0.5314      2.0614
   5817.5000      1.8450      3.3650      2.7210      2.0553      3.0000      3.0000      0.0000   -999.2500      0.2347      0.2080      2.7210      3.3650   -999.2500      1.8450     -5.9786    -28.6691    -10.9460     -3.4164      0.2960      0.6166      0.5306      2.0553
   5818.0000      1.9380      3.4290      2.5820      2.0577      3.0003      3.0003      0.0000   -999.2500      0.2346      0.2080      2.5820      3.4290   -999.2500      1.9380     -5.9159    -28.6127    -10.8790     -3.3805      0.2963      0.6173      0.5309      2.0577
   5818.5000      2.0090      3.4630      2.5100      2.0635      3.0012      3.0012      0.0000   -999.2500      0.2345      0.2078      2.5100      3.4630   -999.2500      2.0090     -5.7782    -28.5562    -10.7370     -3.3018      0.2971      0.6191      0.5317      2.0635
   5819.0000      2.0730      3.4410      2.4550      2.0694      3.0020      3.0020      0.0000   -999.2500      0.2344      0.2076      2.4550      3.4410   -999.2500      2.0730     -5.6415    -28.5000    -10.5960     -3.2237      0.2980      0.6208      0.5324      2.0694
   5819.5000      2.1000      3.4040      2.4000      2.0934      3.0054      3.0054      0.0000   -999.2500      0.2340      0.2069      2.4000      3.4040   -999.2500      2.1000     -5.0768    -28.2115    -10.0270     -2.9010      0.3014      0.6280      0.5354      2.0934
   5820.0000      2.0990      3.3670      2.3330      2.1060      3.0071      3.0071      0.0000   -999.2500      0.2338      0.2065      2.3330      3.3670   -999.2500      2.0990     -4.7600    -27.9231     -9.7060     -2.7200      0.3033      0.6318      0.5370      2.1060
   5820.5000      2.0830      3.2070      2.3330      2.1189      3.0089      3.0089      0.0000   -999.2500      0.2335      0.2061      2.3330      3.2070   -999.2500      2.0830     -4.4453    -27.6346     -9.3870     -2.5402      0.3051      0.6357      0.5387      2.1189
   5821.0000      2.0680      3.1920      2.3320      2.1241      3.0097      3.0097      0.0000   -999.2500      0.2334      0.2059      2.3320      3.1920   -999.2500      2.0680     -4.2906    -27.3462     -9.2280     -2.4518      0.3059      0.6372      0.5393      2.1241
   5821.5000      2.0420      3.1980      2.3520      2.1295      3.0105      3.0105      0.0000   -999.2500      0.2333      0.2058      2.3520      3.1980   -999.2500      2.0420     -4.1359    -27.0577     -9.0690     -2.3634      0.3067      0.6389      0.5400      2.1295
   5822.0000      2.0160      3.2040      2.3730      2.1446      3.0126      3.0126      0.0000   -999.2500      0.2331      0.2053      2.3730      3.2040   -999.2500      2.0160     -3.7892    -26.7692     -8.7180     -2.1652      0.3088      0.6434      0.5419      2.1446
   5822.5000      1.9430      3.2030      2.4070      2.1458      3.0128      3.0128      0.0000   -999.2500      0.2331      0.2053      2.4070      3.2030   -999.2500      1.9430     -3.7254    -26.4808     -8.6500     -2.1288      0.3090      0.6437      0.5420      2.1458
   5823.0000      1.8550      3.1660      2.4240      2.1505      3.0134      3.0134      0.0000   -999.2500      0.2330      0.2051      2.4240      3.1660   -999.2500      1.8550     -3.5917    -26.1923     -8.5120     -2.0524      0.3097      0.6451      0.5426      2.1505
   5823.5000      1.8250      3.0780      2.4410      2.1536      3.0139      3.0139      0.0000   -999.2500      0.2329      0.2050      2.4410      3.0780   -999.2500      1.8250     -3.4910    -25.9038     -8.4070     -1.9949      0.3101      0.6461      0.5430      2.1536
   5824.0000      1.7920      2.9840      2.4550      2.1529      3.0138      3.0138      0.0000   -999.2500      0.2329      0.2050      2.4550      2.9840   -999.2500      1.7920     -3.4663    -25.6154     -8.3780     -1.9807      0.3100      0.6459      0.5429      2.1529
   5824.5000      1.7590      2.8600      2.4680      2.1503      3.0135      3.0135      0.0000   -999.2500      0.2329      0.2051      2.4680      2.8600   -999.2500      1.7590     -3.4766    -25.3269     -8.3840     -1.9866      0.3096      0.6451      0.5426      2.1503
   5825.0000      1.7330      2.7870      2.4990      2.1458      3.0129      3.0129      0.0000   -999.2500      0.2330      0.2052      2.4990      2.7870   -999.2500      1.7330     -3.5218    -25.0385     -8.4250     -2.0125      0.3090      0.6437      0.5420      2.1458
   5825.5000      1.7060      2.6780      2.5300      2.1392      3.0120      3.0120      0.0000   -999.2500      0.2331      0.2054      2.5300      2.6780   -999.2500      1.7060     -3.6031    -24.7500     -8.5020     -2.0589      0.3080      0.6418      0.5412      2.1392
   5826.0000      1.6910      2.6550      2.5510      2.1315      3.0110      3.0110      0.0000   -999.2500      0.2332      0.2056      2.5510      2.6550   -999.2500      1.6910     -3.7024    -24.4615     -8.5970     -2.1157      0.3069      0.6395      0.5402      2.1315
   5826.5000      1.6750      2.6400      2.5680      2.1236      3.0099      3.0099      0.0000   -999.2500      0.2334      0.2058      2.5680      2.6400   -999.2500      1.6750     -3.8017    -24.1731     -8.6920     -2.1724      0.3058      0.6371      0.5392      2.1236
   5827.0000      1.6710      2.6250      2.5850      2.1063      3.0075      3.0075      0.0000   -999.2500      0.2336      0.2064      2.5850      2.6250   -999.2500      1.6710     -4.0670    -23.8846     -8.9530     -2.3240      0.3033      0.6319      0.5370      2.1063
   5827.5000      1.6660      2.6160      2.6050      2.0969      3.0063      3.0063      0.0000   -999.2500      0.2338      0.2066      2.6050      2.6160   -999.2500      1.6660     -4.1842    -23.5962     -9.0660     -2.3910      0.3020      0.6291      0.5358      2.0969
