~V
VERS. 2.00: Ver 2.00
WRAP.   NO:        
~W
 STRT.FT 550:
 STOP.FT 8020:
 STEP.FT 0.5:
 NULL. -999.250000:
 COMP. Richfield (ARCO):Company
 WELL. LLU 18-21:Well
 FLD. Los Lobos:Field
 LOC. S21 T11N R22W:Location
 STAT. CA:State
 SRVC. :Service Company
 SON. :Service Order #
 DATE. :Log Date
 UWI. UNKNOWN:Unique Well ID
~C
 DEPT.FT :
 AM10.OHMM :
 AO10.OHMM :
 AO19.OHMM :
 LTHE. :
 MCRV. :
 MM. :
 PHES. :
 PHMX. :
 PHTS. :
 PHZC. :
 RD.OHMM :
 RM.OHMM :
 ROS. :
 RS.OHMM :
 SBL.MV :
 SCLN. :
 SP.MV :
 SPN. :
 VCDS. :
 VCLY. :
 VCWS. :
 VSHS. :
~P
~A
# ...
   7133.0000      2.5070      3.1130      3.2180      1.6658      3.0162      3.0162      0.0000   -999.2500      0.2194      0.1978      3.2180      3.1130   -999.2500      2.5070    -10.8800    -21.7308    -14.8800     -6.2171      0.2399      0.4997      0.4593      1.6658
   7133.5000      2.9170      3.2210      3.3610      1.6408      3.0128      3.0128      0.0000   -999.2500      0.2198      0.1986      3.3610      3.2210   -999.2500      2.9170    -11.2820    -21.7212    -15.2820     -6.4469      0.2363      0.4922      0.4561      1.6408
   7134.0000      3.5810      3.3720      3.5120      1.6158      3.0093      3.0093      0.0000   -999.2500      0.2202      0.1993      3.5120      3.3720   -999.2500      3.5810    -11.6840    -21.7116    -15.6840     -6.6766      0.2327      0.4847      0.4529      1.6158
   7134.5000      4.1430      3.5150      3.6420      1.5351      2.9982      2.9982      0.0000   -999.2500      0.2216      0.2017      3.6420      3.5150   -999.2500      4.1430    -12.9920    -21.7020    -16.9920     -7.4240      0.2211      0.4605      0.4426      1.5351
   7135.0000      4.6920      3.6590      3.7060      1.3245      2.9691      2.9691      0.0000   -999.2500      0.2066      0.2080      3.7060      3.6590   -999.2500      4.6920    -15.4610    -21.6923    -19.4610     -8.8349      0.1907      0.3974      0.3974      1.3245
   7135.5000      5.1600      3.7960      3.8070      0.9390      2.8634      2.8634      0.0610   -999.2500      0.2293      0.2154      3.8070      3.7960   -999.2500      5.1600    -18.1120    -21.6827    -22.1120    -10.3497      0.1554      0.3238      0.3238      0.9390
   7136.0000      5.6870      3.9250      3.8710      0.8374      2.6312      2.6312      0.1028   -999.2500      0.2335      0.2226      3.8710      3.9250   -999.2500      5.6870    -20.7260    -21.6731    -24.7260    -11.8434      0.1206      0.2512      0.2512      0.8374
   7136.5000      6.0970      3.9820      3.9210      0.4939      2.3014      2.3014      0.1623   -999.2500      0.2393      0.2329      3.9210      3.9820   -999.2500      6.0970    -24.5370    -21.6635    -28.5370    -14.0211      0.0711      0.1482      0.1482      0.4939
   7137.0000      6.3130      4.0320      3.9570      0.3982      2.2096      2.2096      0.1788   -999.2500      0.2409      0.2358      3.9570      4.0320   -999.2500      6.3130    -27.1150    -21.6539    -31.1150    -15.4943      0.0573      0.1195      0.1195      0.3982
   7137.5000      6.3630      4.0820      3.9850      0.2824      2.1321      2.1321      0.1988   -999.2500      0.2429      0.2392      3.9850      4.0820   -999.2500      6.3630    -30.2360    -21.6443    -34.2360    -17.2777      0.0407      0.0847      0.0847      0.2824
   7138.0000      6.3630      4.1030      3.9910      0.2295      2.1162      2.1162      0.2080   -999.2500      0.2438      0.2408      3.9910      4.1030   -999.2500      6.3630    -31.6540    -21.6347    -35.6540    -18.0880      0.0330      0.0689      0.0689      0.2295
   7138.5000      6.3620      4.1170      3.9950      0.2356      2.1181      2.1181      0.2069   -999.2500      0.2437      0.2406      3.9950      4.1170   -999.2500      6.3620    -31.4750    -21.6250    -35.4750    -17.9857      0.0339      0.0707      0.0707      0.2356
   7139.0000      6.2390      4.0950      3.9980      0.2766      2.1304      2.1304      0.1998   -999.2500      0.2430      0.2394      3.9980      4.0950   -999.2500      6.2390    -30.3540    -21.6154    -34.3540    -17.3451      0.0398      0.0830      0.0830      0.2766
   7139.5000      6.0940      4.0660      3.9250      0.4385      2.2484      2.2484      0.1718   -999.2500      0.2402      0.2345      3.9250      4.0660   -999.2500      6.0940    -25.9680    -21.6058    -29.9680    -14.8389      0.0631      0.1315      0.1315      0.4385
   7140.0000      5.9420      3.9710      3.7360      0.6640      2.4649      2.4649      0.1328   -999.2500      0.2364      0.2277      3.7360      3.9710   -999.2500      5.9420    -22.5250    -21.5962    -26.5250    -12.8714      0.0956      0.1992      0.1992      0.6640
   7140.5000      5.9050      3.7680      3.5480      0.9130      2.7186      2.7186      0.0870   -999.2500      0.2318      0.2198      3.5480      3.7680   -999.2500      5.9050    -19.6630    -21.5866    -23.6630    -11.2360      0.1337      0.2785      0.2785      0.9130
   7141.0000      5.8760      3.5010      3.3090      1.1793      2.9493      2.9493      0.0000   -999.2500      0.1840      0.2123      3.3090      3.5010   -999.2500      5.8760    -16.9460    -21.5770    -20.9460     -9.6834      0.1698      0.3538      0.3538      1.1793
   7141.5000      5.7450      3.2550      3.0850      1.2220      2.9552      2.9552      0.0000   -999.2500      0.1906      0.2110      3.0850      3.2550   -999.2500      5.7450    -16.4770    -21.5674    -20.4770     -9.4154      0.1760      0.3666      0.3666      1.2220
   7142.0000      5.4410      3.0090      2.8900      1.2548      2.9598      2.9598      0.0000   -999.2500      0.1957      0.2100      2.8900      3.0090   -999.2500      5.4410    -16.1170    -21.5577    -20.1170     -9.2097      0.1807      0.3764      0.3764      1.2548
   7142.5000      5.1380      2.8640      2.7810      1.2874      2.9643      2.9643      0.0000   -999.2500      0.2008      0.2090      2.7810      2.8640   -999.2500      5.1380    -15.7580    -21.5481    -19.7580     -9.0046      0.1854      0.3862      0.3862      1.2874
   7143.0000      4.7470      2.8780      2.8090      1.3270      2.9698      2.9698      0.0000   -999.2500      0.2070      0.2078      2.8090      2.8780   -999.2500      4.7470    -15.3250    -21.5385    -19.3250     -8.7571      0.1911      0.3981      0.3981      1.3270
   7143.5000      4.2920      2.9060      2.8440      1.3530      2.9735      2.9735      0.0000   -999.2500      0.2111      0.2070      2.8440      2.9060   -999.2500      4.2920    -15.0380    -21.5289    -19.0380     -8.5931      0.1948      0.4059      0.4059      1.3530
   7144.0000      3.9380      2.9380      2.8730      1.3656      2.9752      2.9752      0.0000   -999.2500      0.2130      0.2066      2.8730      2.9380   -999.2500      3.9380    -14.8960    -21.5193    -18.8960     -8.5120      0.1966      0.4097      0.4097      1.3656
   7144.5000      3.9080      2.9700      2.8430      1.3074      2.9672      2.9672      0.0000   -999.2500      0.2040      0.2084      2.8430      2.9700   -999.2500      3.9080    -15.5150    -21.5097    -19.5150     -8.8657      0.1883      0.3922      0.3922      1.3074
   7145.0000      3.8930      3.0770      2.7920      1.2289      2.9563      2.9563      0.0000   -999.2500      0.1917      0.2107      2.7920      3.0770   -999.2500      3.8930    -16.3520    -21.5000    -20.3520     -9.3440      0.1770      0.3687      0.3687      1.2289
   7145.5000      3.8490      3.1710      2.7050      0.9375      2.8543      2.8543      0.0625   -999.2500      0.2294      0.2155      2.7050      3.1710   -999.2500      3.8490    -18.0590    -21.4904    -22.0590    -10.3194      0.1540      0.3208      0.3208      0.9375
   7146.0000      3.7690      3.3000      2.6320      0.9104      2.7043      2.7043      0.0896   -999.2500      0.2320      0.2202      2.6320      3.3000   -999.2500      3.7690    -19.7300    -21.4808    -23.7300    -11.2743      0.1315      0.2739      0.2739      0.9104
   7146.5000      3.6600      3.5020      2.7470      0.8646      2.6578      2.6578      0.0979   -999.2500      0.2328      0.2216      2.7470      3.5020   -999.2500      3.6600    -20.2410    -21.4712    -24.2410    -11.5663      0.1245      0.2594      0.2594      0.8646
   7147.0000      3.6160      3.6380      2.8330      0.9159      2.7346      2.7346      0.0841   -999.2500      0.2315      0.2192      2.8330      3.6380   -999.2500      3.6160    -19.3740    -21.4616    -23.3740    -11.0709      0.1360      0.2834      0.2834      0.9159
