~V
VERS. 2.00: Ver 2.00
WRAP.   NO:        
~W
 STRT.FT 550:
 STOP.FT 8020:
 STEP.FT 0.5:
 NULL. -999.250000:
 COMP. Richfield (ARCO):Company
 WELL. LLU 18-21:Well
 FLD. Los Lobos:Field
 LOC. S21 T11N R22W:Location
 STAT. CA:State
 SRVC. :Service Company
 SON. :Service Order #
 DATE. :Log Date
 UWI. UNKNOWN:Unique Well ID
~C
 DEPT.FT :
 AM10.OHMM :
 AO10.OHMM :
 AO19.OHMM :
 LTHE. :
 MCRV. :
 MM. :
 PHES. :
 PHMX. :
 PHTS. :
 PHZC. :
 RD.OHMM :
 RM.OHMM :
 ROS. :
 RS.OHMM :
 SBL.MV :
 SCLN. :
 SP.MV :
 SPN. :
 VCDS. :
 VCLY. :
 VCWS. :
 VSHS. :
~P
~A
# ...
   6103.5000      2.2370      2.7780      2.6510      0.8898      2.6306      2.6306      0.1102   -999.2500      0.2497      0.2381      2.6510      2.7780   -999.2500      2.2370    -13.9370    -15.0201    -17.9370     -7.9640      0.1288      0.2683      0.2683      0.8898
   6104.0000      2.3800      2.8130      2.6650      0.8931      2.6490      2.6490      0.1069   -999.2500      0.2494      0.2375      2.6650      2.8130   -999.2500      2.3800    -13.7960    -15.0230    -17.7960     -7.8834      0.1315      0.2740      0.2740      0.8931
   6104.5000      2.4590      2.8270      2.6860      0.8998      2.6861      2.6861      0.1002   -999.2500      0.2487      0.2364      2.6860      2.8270   -999.2500      2.4590    -13.5090    -15.0260    -17.5090     -7.7194      0.1371      0.2856      0.2856      0.8998
   6105.0000      2.5950      2.8260      2.7000      0.9064      2.7230      2.7230      0.0936   -999.2500      0.2480      0.2352      2.7000      2.8260   -999.2500      2.5950    -13.2230    -15.0289    -17.2230     -7.5560      0.1426      0.2971      0.2971      0.9064
   6105.5000      2.6740      2.8110      2.6850      0.9106      2.7461      2.7461      0.0894   -999.2500      0.2476      0.2345      2.6850      2.8110   -999.2500      2.6740    -13.0450    -15.0318    -17.0450     -7.4543      0.1461      0.3043      0.3043      0.9106
   6106.0000      2.7240      2.7960      2.6410      0.9114      2.7506      2.7506      0.0886   -999.2500      0.2475      0.2343      2.6410      2.7960   -999.2500      2.7240    -13.0120    -15.0348    -17.0120     -7.4354      0.1467      0.3057      0.3057      0.9114
   6106.5000      2.7370      2.7370      2.5750      0.9031      2.7043      2.7043      0.0969   -999.2500      0.2484      0.2358      2.5750      2.7370   -999.2500      2.7370    -13.3780    -15.0377    -17.3780     -7.6446      0.1398      0.2912      0.2912      0.9031
   6107.0000      2.7010      2.7010      2.4300      0.8905      2.6347      2.6347      0.1095   -999.2500      0.2496      0.2379      2.4300      2.7010   -999.2500      2.7010    -13.9260    -15.0407    -17.9260     -7.9577      0.1293      0.2695      0.2695      0.8905
   6107.5000      2.6060      2.6710      2.3500      0.8547      2.5929      2.5929      0.1170   -999.2500      0.2503      0.2392      2.3500      2.6710   -999.2500      2.6060    -14.2560    -15.0436    -18.2560     -8.1463      0.1231      0.2564      0.2564      0.8547
   6108.0000      2.5550      2.6270      2.2550      0.8305      2.5697      2.5697      0.1212   -999.2500      0.2507      0.2400      2.2550      2.6270   -999.2500      2.5550    -14.4410    -15.0465    -18.4410     -8.2520      0.1196      0.2491      0.2491      0.8305
   6108.5000      2.5110      2.5610      2.1390      0.8402      2.5790      2.5790      0.1195   -999.2500      0.2505      0.2397      2.1390      2.5610   -999.2500      2.5110    -14.3710    -15.0495    -18.3710     -8.2120      0.1210      0.2520      0.2520      0.8402
   6109.0000      2.4670      2.5240      2.1310      0.8545      2.5928      2.5928      0.1170   -999.2500      0.2503      0.2392      2.1310      2.5240   -999.2500      2.4670    -14.2660    -15.0524    -18.2660     -8.1520      0.1230      0.2563      0.2563      0.8545
   6109.5000      2.3290      2.4950      2.1740      0.8989      2.6807      2.6807      0.1011   -999.2500      0.2487      0.2365      2.1740      2.4950   -999.2500      2.3290    -13.5800    -15.0554    -17.5800     -7.7600      0.1362      0.2838      0.2838      0.8989
   6110.0000      2.2270      2.4650      2.2380      0.9122      2.7545      2.7545      0.0878   -999.2500      0.2474      0.2341      2.2380      2.4650   -999.2500      2.2270    -13.0040    -15.0583    -17.0040     -7.4309      0.1473      0.3069      0.3069      0.9122
   6110.5000      2.1610      2.4100      2.2730      0.9205      2.8007      2.8007      0.0795   -999.2500      0.2466      0.2327      2.2730      2.4100   -999.2500      2.1610    -12.6440    -15.0612    -16.6440     -7.2251      0.1542      0.3213      0.3213      0.9205
   6111.0000      2.1070      2.3560      2.2870      0.9346      2.8791      2.8791      0.0654   -999.2500      0.2452      0.2302      2.2870      2.3560   -999.2500      2.1070    -12.0320    -15.0642    -16.0320     -6.8754      0.1660      0.3458      0.3458      0.9346
   6111.5000      2.0520      2.3190      2.2860      1.2199      2.9000      2.9000      0.0000   -999.2500      0.1903      0.2282      2.2860      2.3190   -999.2500      2.0520    -11.5270    -15.0671    -15.5270     -6.5869      0.1757      0.3660      0.3660      1.2199
   6112.0000      1.9140      2.3110      2.2490      1.2679      2.9067      2.9067      0.0000   -999.2500      0.1978      0.2268      2.2490      2.3110   -999.2500      1.9140    -11.1680    -15.0701    -15.1680     -6.3817      0.1826      0.3804      0.3804      1.2679
   6112.5000      1.8620      2.3100      2.2410      1.3207      2.9140      2.9140      0.0000   -999.2500      0.2060      0.2252      2.2410      2.3100   -999.2500      1.8620    -10.7720    -15.0730    -14.7720     -6.1554      0.1902      0.3962      0.3962      1.3207
   6113.0000      1.8470      2.3090      2.2330      1.3686      2.9207      2.9207      0.0000   -999.2500      0.2135      0.2237      2.2330      2.3090   -999.2500      1.8470    -10.4130    -15.0759    -14.4130     -5.9503      0.1971      0.4106      0.4106      1.3686
   6113.5000      1.8680      2.3370      2.2400      1.4213      2.9280      2.9280      0.0000   -999.2500      0.2217      0.2221      2.2400      2.3370   -999.2500      1.8680    -10.0180    -15.0789    -14.0180     -5.7246      0.2047      0.4264      0.4264      1.4213
   6114.0000      1.9110      2.3660      2.2650      1.3778      2.9220      2.9220      0.0000   -999.2500      0.2149      0.2234      2.2650      2.3660   -999.2500      1.9110    -10.3480    -15.0818    -14.3480     -5.9131      0.1984      0.4133      0.4133      1.3778
   6114.5000      1.9320      2.3940      2.2890      1.2958      2.9107      2.9107      0.0000   -999.2500      0.2021      0.2259      2.2890      2.3940   -999.2500      1.9320    -10.9680    -15.0848    -14.9680     -6.2674      0.1866      0.3887      0.3887      1.2958
   6115.0000      2.0180      2.4370      2.3350      0.9345      2.8782      2.8782      0.0655   -999.2500      0.2451      0.2302      2.3350      2.4370   -999.2500      2.0180    -12.0590    -15.0877    -16.0590     -6.8909      0.1658      0.3454      0.3454      0.9345
   6115.5000      2.0670      2.4790      2.3820      0.9278      2.8411      2.8411      0.0722   -999.2500      0.2458      0.2314      2.3820      2.4790   -999.2500      2.0670    -12.3530    -15.0906    -16.3530     -7.0589      0.1602      0.3338      0.3338      0.9278
   6116.0000      2.1390      2.5220      2.4380      0.9153      2.7719      2.7719      0.0847   -999.2500      0.2470      0.2335      2.4380      2.5220   -999.2500      2.1390    -12.9000    -15.0936    -16.9000     -7.3714      0.1499      0.3122      0.3122      0.9153
   6116.5000      2.1960      2.5640      2.4670      0.9087      2.7348      2.7348      0.0913   -999.2500      0.2477      0.2347      2.4670      2.5640   -999.2500      2.1960    -13.1940    -15.0965    -17.1940     -7.5394      0.1443      0.3006      0.3006      0.9087
   6117.0000      2.2310      2.6070      2.4590      0.9037      2.7071      2.7071      0.0963   -999.2500      0.2481      0.2355      2.4590      2.6070   -999.2500      2.2310    -13.4150    -15.0995    -17.4150     -7.6657      0.1401      0.2919      0.2919      0.9037
   6117.5000      2.2380      2.6350      2.4220      0.9028      2.7025      2.7025      0.0972   -999.2500      0.2482      0.2357      2.4220      2.6350   -999.2500      2.2380    -13.4540    -15.1024    -17.4540     -7.6880      0.1394      0.2905      0.2905      0.9028
