~V
VERS. 2.00: Ver 2.00
WRAP.   NO:        
~W
 STRT.FT 550:
 STOP.FT 8020:
 STEP.FT 0.5:
 NULL. -999.250000:
 COMP. Richfield (ARCO):Company
 WELL. LLU 18-21:Well
 FLD. Los Lobos:Field
 LOC. S21 T11N R22W:Location
 STAT. CA:State
 SRVC. :Service Company
 SON. :Service Order #
 DATE. :Log Date
 UWI. UNKNOWN:Unique Well ID
~C
 DEPT.FT :
 AM10.OHMM :
 AO10.OHMM :
 AO19.OHMM :
 LTHE. :
 MCRV. :
 MM. :
 PHES. :
 PHMX. :
 PHTS. :
 PHZC. :
 RD.OHMM :
 RM.OHMM :
 ROS. :
 RS.OHMM :
 SBL.MV :
 SCLN. :
 SP.MV :
 SPN. :
 VCDS. :
 VCLY. :
 VCWS. :
 VSHS. :
~P
~A
# ...
   6683.5000      2.0560      2.5510      2.1180      1.5541      2.9768      2.9768      0.0000   -999.2500      0.2288      0.2087      2.1180      2.5510   -999.2500      2.0560    -10.7710    -18.4299    -14.7710     -6.1549      0.2238      0.4662      0.4526      1.5541
   6684.0000      2.0700      2.5760      2.1350      1.5410      2.9750      2.9750      0.0000   -999.2500      0.2290      0.2090      2.1350      2.5760   -999.2500      2.0700    -10.9540    -18.4328    -14.9540     -6.2594      0.2219      0.4623      0.4509      1.5410
   6684.5000      2.1130      2.6010      2.1530      1.5358      2.9743      2.9743      0.0000   -999.2500      0.2291      0.2092      2.1530      2.6010   -999.2500      2.1130    -11.0280    -18.4358    -15.0280     -6.3017      0.2211      0.4607      0.4502      1.5358
   6685.0000      2.1270      2.6260      2.1960      1.5305      2.9736      2.9736      0.0000   -999.2500      0.2292      0.2093      2.1960      2.6260   -999.2500      2.1270    -11.1020    -18.4387    -15.1020     -6.3440      0.2204      0.4592      0.4496      1.5305
   6685.5000      2.1420      2.6830      2.2390      1.5227      2.9725      2.9725      0.0000   -999.2500      0.2293      0.2096      2.2390      2.6830   -999.2500      2.1420    -11.2120    -18.4416    -15.2120     -6.4069      0.2193      0.4568      0.4486      1.5227
   6686.0000      2.1520      2.7110      2.3040      1.5122      2.9711      2.9711      0.0000   -999.2500      0.2295      0.2099      2.3040      2.7110   -999.2500      2.1520    -11.3590    -18.4446    -15.3590     -6.4909      0.2178      0.4537      0.4472      1.5122
   6686.5000      2.1630      2.7470      2.3830      1.5044      2.9700      2.9700      0.0000   -999.2500      0.2296      0.2101      2.3830      2.7470   -999.2500      2.1630    -11.4690    -18.4475    -15.4690     -6.5537      0.2166      0.4513      0.4462      1.5044
   6687.0000      2.1880      2.8120      2.4470      1.4950      2.9688      2.9688      0.0000   -999.2500      0.2297      0.2104      2.4470      2.8120   -999.2500      2.1880    -11.5780    -18.4505    -15.5780     -6.6160      0.2153      0.4485      0.4450      1.4950
   6687.5000      2.2130      2.8480      2.5190      1.4713      2.9655      2.9655      0.0000   -999.2500      0.2295      0.2111      2.5190      2.8480   -999.2500      2.2130    -11.7980    -18.4534    -15.7980     -6.7417      0.2119      0.4414      0.4414      1.4713
   6688.0000      2.2630      2.8910      2.5980      1.4556      2.9634      2.9634      0.0000   -999.2500      0.2271      0.2115      2.5980      2.8910   -999.2500      2.2630    -11.9450    -18.4563    -15.9450     -6.8257      0.2096      0.4367      0.4367      1.4556
   6688.5000      2.3130      2.9340      2.6340      1.4399      2.9612      2.9612      0.0000   -999.2500      0.2246      0.2120      2.6340      2.9340   -999.2500      2.3130    -12.0920    -18.4593    -16.0920     -6.9097      0.2073      0.4320      0.4320      1.4399
   6689.0000      2.3990      2.9660      2.7490      1.4282      2.9596      2.9596      0.0000   -999.2500      0.2228      0.2123      2.7490      2.9660   -999.2500      2.3990    -12.2020    -18.4622    -16.2020     -6.9726      0.2057      0.4284      0.4284      1.4282
   6689.5000      2.4860      2.9980      2.8210      1.4165      2.9580      2.9580      0.0000   -999.2500      0.2210      0.2127      2.8210      2.9980   -999.2500      2.4860    -12.3120    -18.4652    -16.3120     -7.0354      0.2040      0.4249      0.4249      1.4165
   6690.0000      2.5650      3.0700      2.8790      1.4008      2.9559      2.9559      0.0000   -999.2500      0.2185      0.2131      2.8790      3.0700   -999.2500      2.5650    -12.4590    -18.4681    -16.4590     -7.1194      0.2017      0.4202      0.4202      1.4008
   6690.5000      2.6580      3.1570      2.9720      1.3459      2.9483      2.9483      0.0000   -999.2500      0.2100      0.2148      2.9720      3.1570   -999.2500      2.6580    -12.9680    -18.4710    -16.9680     -7.4103      0.1938      0.4038      0.4038      1.3459
   6691.0000      2.7630      3.2280      3.0230      1.2478      2.9348      2.9348      0.0000   -999.2500      0.1947      0.2177      3.0230      3.2280   -999.2500      2.7630    -13.8760    -18.4740    -17.8760     -7.9291      0.1797      0.3743      0.3743      1.2478
   6691.5000      2.8670      3.2710      3.1020      0.9431      2.9034      2.9034      0.0569   -999.2500      0.2356      0.2208      3.1020      3.2710   -999.2500      2.8670    -14.8210    -18.4769    -18.8210     -8.4691      0.1650      0.3437      0.3437      0.9431
   6692.0000      3.0760      3.3220      3.1520      0.9255      2.8056      2.8056      0.0745   -999.2500      0.2373      0.2238      3.1520      3.3220   -999.2500      3.0760    -15.7650    -18.4799    -19.7650     -9.0086      0.1503      0.3131      0.3131      0.9255
   6692.5000      3.2710      3.3720      2.9710      0.9051      2.6927      2.6927      0.0949   -999.2500      0.2393      0.2273      2.9710      3.3720   -999.2500      3.2710    -16.8550    -18.4828    -20.8550     -9.6314      0.1334      0.2778      0.2778      0.9051
   6693.0000      3.3570      3.2490      2.8270      0.8439      2.6138      2.6138      0.1091   -999.2500      0.2407      0.2298      2.8270      3.2490   -999.2500      3.3570    -17.6180    -18.4857    -21.6180    -10.0674      0.1215      0.2532      0.2532      0.8439
   6693.5000      3.2200      3.1110      2.7250      0.8793      2.6478      2.6478      0.1029   -999.2500      0.2401      0.2287      2.7250      3.1110   -999.2500      3.2200    -17.2930    -18.4887    -21.2930     -9.8817      0.1266      0.2638      0.2638      0.8793
   6694.0000      3.0320      3.0030      2.6090      0.9059      2.6968      2.6968      0.0941   -999.2500      0.2392      0.2272      2.6090      3.0030   -999.2500      3.0320    -16.8240    -18.4916    -20.8240     -9.6137      0.1340      0.2791      0.2791      0.9059
   6694.5000      2.7930      2.9090      2.5590      0.9100      2.7197      2.7197      0.0900   -999.2500      0.2388      0.2265      2.5590      2.9090   -999.2500      2.7930    -16.6070    -18.4946    -20.6070     -9.4897      0.1374      0.2862      0.2862      0.9100
   6695.0000      2.6770      2.7500      2.4860      0.9141      2.7425      2.7425      0.0859   -999.2500      0.2384      0.2257      2.4860      2.7500   -999.2500      2.6770    -16.3900    -18.4975    -20.3900     -9.3657      0.1408      0.2934      0.2934      0.9141
   6695.5000      2.5830      2.6770      2.4280      0.9318      2.8403      2.8403      0.0682   -999.2500      0.2367      0.2227      2.4280      2.6770   -999.2500      2.5830    -15.4500    -18.5004    -19.4500     -8.8286      0.1555      0.3239      0.3239      0.9318
   6696.0000      2.5110      2.5610      2.3920      0.9379      2.8743      2.8743      0.0621   -999.2500      0.2361      0.2216      2.3920      2.5610   -999.2500      2.5110    -15.1250    -18.5034    -19.1250     -8.6429      0.1606      0.3345      0.3345      0.9379
   6696.5000      2.4390      2.4600      2.3550      0.9440      2.9083      2.9083      0.0560   -999.2500      0.2355      0.2205      2.3550      2.4600   -999.2500      2.4390    -14.8000    -18.5063    -18.8000     -8.4571      0.1657      0.3452      0.3452      0.9440
   6697.0000      2.3340      2.4020      2.3120      1.1801      2.9257      2.9257      0.0000   -999.2500      0.1841      0.2196      2.3120      2.4020   -999.2500      2.3340    -14.5290    -18.5093    -18.5290     -8.3023      0.1699      0.3540      0.3540      1.1801
   6697.5000      2.2290      2.3440      2.2830      1.2096      2.9298      2.9298      0.0000   -999.2500      0.1887      0.2188      2.2830      2.3440   -999.2500      2.2290    -14.2580    -18.5122    -18.2580     -8.1474      0.1742      0.3629      0.3629      1.2096
