~V
VERS. 2.00: Ver 2.00
WRAP.   NO:        
~W
 STRT.FT 550:
 STOP.FT 8020:
 STEP.FT 0.5:
 NULL. -999.250000:
 COMP. Richfield (ARCO):Company
 WELL. LLU 18-21:Well
 FLD. Los Lobos:Field
 LOC. S21 T11N R22W:Location
 STAT. CA:State
 SRVC. :Service Company
 SON. :Service Order #
 DATE. :Log Date
 UWI. UNKNOWN:Unique Well ID
~C
 DEPT.FT :
 AM10.OHMM :
 AO10.OHMM :
 AO19.OHMM :
 LTHE. :
 MCRV. :
 MM. :
 PHES. :
 PHMX. :
 PHTS. :
 PHZC. :
 RD.OHMM :
 RM.OHMM :
 ROS. :
 RS.OHMM :
 SBL.MV :
 SCLN. :
 SP.MV :
 SPN. :
 VCDS. :
 VCLY. :
 VCWS. :
 VSHS. :
~P
~A
# ...
   6248.5000      1.5340      2.1620      1.9710      1.6822      2.9713      2.9713      0.0000   -999.2500      0.2338      0.2121      1.9710      2.1620   -999.2500      1.5340     -7.7510    -15.8727    -11.7510     -4.4291      0.2422      0.5047      0.4761      1.6822
   6249.0000      1.5050      2.1650      1.9710      1.6884      2.9722      2.9722      0.0000   -999.2500      0.2337      0.2119      1.9710      2.1650   -999.2500      1.5050     -7.6790    -15.8757    -11.6790     -4.3880      0.2431      0.5065      0.4769      1.6884
   6249.5000      1.4690      2.1670      1.9710      1.6885      2.9722      2.9722      0.0000   -999.2500      0.2337      0.2119      1.9710      2.1670   -999.2500      1.4690     -7.6790    -15.8786    -11.6790     -4.3880      0.2431      0.5066      0.4769      1.6885
   6250.0000      1.4620      2.1690      1.9710      1.6947      2.9731      2.9731      0.0000   -999.2500      0.2336      0.2117      1.9710      2.1690   -999.2500      1.4620     -7.6070    -15.8815    -11.6070     -4.3469      0.2440      0.5084      0.4776      1.6947
   6250.5000      1.4540      2.1730      1.9700      1.6946      2.9731      2.9731      0.0000   -999.2500      0.2336      0.2117      1.9700      2.1730   -999.2500      1.4540     -7.6090    -15.8845    -11.6090     -4.3480      0.2440      0.5084      0.4776      1.6946
   6251.0000      1.4610      2.1760      1.9660      1.6885      2.9723      2.9723      0.0000   -999.2500      0.2337      0.2118      1.9660      2.1760   -999.2500      1.4610     -7.6830    -15.8874    -11.6830     -4.3903      0.2432      0.5066      0.4769      1.6885
   6251.5000      1.4900      2.1750      1.9620      1.6732      2.9702      2.9702      0.0000   -999.2500      0.2340      0.2123      1.9620      2.1750   -999.2500      1.4900     -7.8670    -15.8904    -11.8670     -4.4954      0.2409      0.5020      0.4749      1.6732
   6252.0000      1.5150      2.1750      1.9570      1.6581      2.9681      2.9681      0.0000   -999.2500      0.2342      0.2127      1.9570      2.1750   -999.2500      1.5150     -8.0490    -15.8933    -12.0490     -4.5994      0.2388      0.4974      0.4730      1.6581
   6252.5000      1.5400      2.1750      1.9520      1.6428      2.9661      2.9661      0.0000   -999.2500      0.2345      0.2132      1.9520      2.1750   -999.2500      1.5400     -8.2330    -15.8962    -12.2330     -4.7046      0.2366      0.4928      0.4710      1.6428
   6253.0000      1.5750      2.1740      1.9470      1.6245      2.9636      2.9636      0.0000   -999.2500      0.2348      0.2137      1.9470      2.1740   -999.2500      1.5750     -8.4520    -15.8992    -12.4520     -4.8297      0.2339      0.4874      0.4687      1.6245
   6253.5000      1.6110      2.1780      1.9390      1.6063      2.9611      2.9611      0.0000   -999.2500      0.2351      0.2143      1.9390      2.1780   -999.2500      1.6110     -8.6710    -15.9021    -12.6710     -4.9549      0.2313      0.4819      0.4664      1.6063
   6254.0000      1.6540      2.1810      1.9320      1.5789      2.9573      2.9573      0.0000   -999.2500      0.2355      0.2151      1.9320      2.1810   -999.2500      1.6540     -9.0000    -15.9051    -13.0000     -5.1429      0.2274      0.4737      0.4629      1.5789
   6254.5000      1.6680      2.1800      1.9170      1.5606      2.9548      2.9548      0.0000   -999.2500      0.2358      0.2156      1.9170      2.1800   -999.2500      1.6680     -9.2190    -15.9080    -13.2190     -5.2680      0.2247      0.4682      0.4606      1.5606
   6255.0000      1.6820      2.1800      1.9130      1.5485      2.9531      2.9531      0.0000   -999.2500      0.2360      0.2160      1.9130      2.1800   -999.2500      1.6820     -9.3660    -15.9109    -13.3660     -5.3520      0.2230      0.4645      0.4590      1.5485
   6255.5000      1.7030      2.1800      1.9090      1.5363      2.9515      2.9515      0.0000   -999.2500      0.2362      0.2163      1.9090      2.1800   -999.2500      1.7030     -9.5130    -15.9139    -13.5130     -5.4360      0.2212      0.4609      0.4574      1.5363
   6256.0000      1.7070      2.1790      1.9200      1.5150      2.9486      2.9486      0.0000   -999.2500      0.2363      0.2170      1.9200      2.1790   -999.2500      1.7070     -9.7690    -15.9168    -13.7690     -5.5823      0.2182      0.4545      0.4545      1.5150
   6256.5000      1.7100      2.1790      1.9300      1.4906      2.9452      2.9452      0.0000   -999.2500      0.2325      0.2177      1.9300      2.1790   -999.2500      1.7100    -10.0250    -15.9198    -14.0250     -5.7286      0.2146      0.4472      0.4472      1.4906
   6257.0000      1.7090      2.1790      1.9870      1.4723      2.9427      2.9427      0.0000   -999.2500      0.2297      0.2182      1.9870      2.1790   -999.2500      1.7090    -10.1720    -15.9227    -14.1720     -5.8126      0.2120      0.4417      0.4417      1.4723
   6257.5000      1.6870      2.1780      2.0090      1.4860      2.9446      2.9446      0.0000   -999.2500      0.2318      0.2178      2.0090      2.1780   -999.2500      1.6870    -10.0650    -15.9256    -14.0650     -5.7514      0.2140      0.4458      0.4458      1.4860
   6258.0000      1.6620      2.1780      2.0160      1.5210      2.9495      2.9495      0.0000   -999.2500      0.2364      0.2167      2.0160      2.1780   -999.2500      1.6620     -9.7040    -15.9286    -13.7040     -5.5451      0.2190      0.4563      0.4555      1.5210
   6258.5000      1.6360      2.1770      2.0230      1.5484      2.9533      2.9533      0.0000   -999.2500      0.2360      0.2159      2.0230      2.1770   -999.2500      1.6360     -9.3790    -15.9315    -13.3790     -5.3594      0.2230      0.4645      0.4589      1.5484
   6259.0000      1.5640      2.1730      2.0510      1.5938      2.9596      2.9596      0.0000   -999.2500      0.2352      0.2145      2.0510      2.1730   -999.2500      1.5640     -8.8380    -15.9345    -12.8380     -5.0503      0.2295      0.4781      0.4647      1.5938
   6259.5000      1.5270      2.1690      2.0500      1.6242      2.9639      2.9639      0.0000   -999.2500      0.2347      0.2136      2.0500      2.1690   -999.2500      1.5270     -8.4760    -15.9374    -12.4760     -4.8434      0.2339      0.4873      0.4685      1.6242
   6260.0000      1.4910      2.1690      2.0500      1.6636      2.9693      2.9693      0.0000   -999.2500      0.2340      0.2124      2.0500      2.1690   -999.2500      1.4910     -8.0070    -15.9403    -12.0070     -4.5754      0.2396      0.4991      0.4735      1.6636
   6260.5000      1.4610      2.1690      2.0570      1.6848      2.9723      2.9723      0.0000   -999.2500      0.2336      0.2118      2.0570      2.1690   -999.2500      1.4610     -7.7550    -15.9433    -11.7550     -4.4314      0.2426      0.5054      0.4762      1.6848
   6261.0000      1.4610      2.1660      2.0420      1.6878      2.9727      2.9727      0.0000   -999.2500      0.2335      0.2117      2.0420      2.1660   -999.2500      1.4610     -7.7200    -15.9462    -11.7200     -4.4114      0.2430      0.5063      0.4766      1.6878
   6261.5000      1.4900      2.1630      2.0350      1.6604      2.9690      2.9690      0.0000   -999.2500      0.2340      0.2125      2.0350      2.1630   -999.2500      1.4900     -8.0490    -15.9492    -12.0490     -4.5994      0.2391      0.4981      0.4731      1.6604
   6262.0000      1.5250      2.1610      2.0270      1.6483      2.9673      2.9673      0.0000   -999.2500      0.2342      0.2129      2.0270      2.1610   -999.2500      1.5250     -8.1960    -15.9521    -12.1960     -4.6834      0.2374      0.4945      0.4716      1.6483
   6262.5000      1.5470      2.1570      2.0300      1.6362      2.9657      2.9657      0.0000   -999.2500      0.2344      0.2132      2.0300      2.1570   -999.2500      1.5470     -8.3420    -15.9550    -12.3420     -4.7669      0.2356      0.4909      0.4700      1.6362
