~V
VERS. 2.00: Ver 2.00
WRAP.   NO:        
~W
 STRT.FT 550:
 STOP.FT 8020:
 STEP.FT 0.5:
 NULL. -999.250000:
 COMP. Richfield (ARCO):Company
 WELL. LLU 18-21:Well
 FLD. Los Lobos:Field
 LOC. S21 T11N R22W:Location
 STAT. CA:State
 SRVC. :Service Company
 SON. :Service Order #
 DATE. :Log Date
 UWI. UNKNOWN:Unique Well ID
~C
 DEPT.FT :
 AM10.OHMM :
 AO10.OHMM :
 AO19.OHMM :
 LTHE. :
 MCRV. :
 MM. :
 PHES. :
 PHMX. :
 PHTS. :
 PHZC. :
 RD.OHMM :
 RM.OHMM :
 ROS. :
 RS.OHMM :
 SBL.MV :
 SCLN. :
 SP.MV :
 SPN. :
 VCDS. :
 VCLY. :
 VCWS. :
 VSHS. :
~P
~A
# ...
   6988.0000      2.8110      3.4830      3.6740      1.7160      3.0154      3.0154      0.0000   -999.2500      0.2209      0.1987      3.6740      3.4830   -999.2500      2.8110     -9.7760    -21.1155    -13.7760     -5.5863      0.2471      0.5148      0.4681      1.7160
   6988.5000      2.8180      3.4960      3.7020      1.7367      3.0183      3.0183      0.0000   -999.2500      0.2206      0.1981      3.7020      3.4960   -999.2500      2.8180     -9.4520    -21.1221    -13.4520     -5.4011      0.2501      0.5210      0.4707      1.7367
   6989.0000      2.7880      3.4890      3.6730      1.7573      3.0212      3.0212      0.0000   -999.2500      0.2202      0.1975      3.6730      3.4890   -999.2500      2.7880     -9.1280    -21.1286    -13.1280     -5.2160      0.2531      0.5272      0.4733      1.7573
   6989.5000      2.7230      3.3360      3.6220      1.7801      3.0244      3.0244      0.0000   -999.2500      0.2198      0.1968      3.6220      3.3360   -999.2500      2.7230     -8.7690    -21.1352    -12.7690     -5.0109      0.2563      0.5340      0.4762      1.7801
   6990.0000      2.6070      3.2130      3.4480      1.7939      3.0263      3.0263      0.0000   -999.2500      0.2196      0.1964      3.4480      3.2130   -999.2500      2.6070     -8.5540    -21.1418    -12.5540     -4.8880      0.2583      0.5382      0.4779      1.7939
   6990.5000      2.4550      2.9960      3.2880      1.8121      3.0289      3.0289      0.0000   -999.2500      0.2193      0.1958      3.2880      2.9960   -999.2500      2.4550     -8.2670    -21.1484    -12.2670     -4.7240      0.2609      0.5436      0.4802      1.8121
   6991.0000      2.3310      2.8870      3.0640      1.8167      3.0295      3.0295      0.0000   -999.2500      0.2192      0.1956      3.0640      2.8870   -999.2500      2.3310     -8.1970    -21.1550    -12.1970     -4.6840      0.2616      0.5450      0.4808      1.8167
   6991.5000      2.1860      2.7930      3.1000      1.8190      3.0299      3.0299      0.0000   -999.2500      0.2191      0.1956      3.1000      2.7930   -999.2500      2.1860     -8.1630    -21.1616    -12.1630     -4.6646      0.2619      0.5457      0.4811      1.8190
   6992.0000      2.1140      2.7990      3.3440      1.8213      3.0302      3.0302      0.0000   -999.2500      0.2191      0.1955      3.3440      2.7990   -999.2500      2.1140     -8.1290    -21.1682    -12.1290     -4.6451      0.2623      0.5464      0.4814      1.8213
   6992.5000      2.0550      2.9580      3.6040      1.8144      3.0293      3.0293      0.0000   -999.2500      0.2192      0.1957      3.6040      2.9580   -999.2500      2.0550     -8.2420    -21.1748    -12.2420     -4.7097      0.2613      0.5443      0.4805      1.8144
   6993.0000      2.3220      3.2670      3.8120      1.7984      3.0271      3.0271      0.0000   -999.2500      0.2195      0.1962      3.8120      3.2670   -999.2500      2.3220     -8.4980    -21.1814    -12.4980     -4.8560      0.2590      0.5395      0.4784      1.7984
   6993.5000      3.1080      3.6570      4.0860      1.7779      3.0243      3.0243      0.0000   -999.2500      0.2198      0.1968      4.0860      3.6570   -999.2500      3.1080     -8.8270    -21.1880    -12.8270     -5.0440      0.2560      0.5334      0.4758      1.7779
   6994.0000      4.0600      4.0460      4.3600      1.7276      3.0174      3.0174      0.0000   -999.2500      0.2207      0.1983      4.3600      4.0460   -999.2500      4.0600     -9.6280    -21.1946    -13.6280     -5.5017      0.2488      0.5183      0.4694      1.7276
   6994.5000      4.8540      4.2620      4.5250      1.6113      3.0013      3.0013      0.0000   -999.2500      0.2226      0.2018      4.5250      4.2620   -999.2500      4.8540    -11.4810    -21.2012    -15.4810     -6.5606      0.2320      0.4834      0.4547      1.6113
   6995.0000      5.4520      4.3410      4.6260      1.4687      2.9816      2.9816      0.0000   -999.2500      0.2250      0.2060      4.6260      4.3410   -999.2500      5.4520    -13.5870    -21.2078    -17.5870     -7.7640      0.2115      0.4406      0.4365      1.4687
   6995.5000      5.9070      4.3830      4.6540      1.3047      2.9589      2.9589      0.0000   -999.2500      0.2035      0.2109      4.6540      4.3830   -999.2500      5.9070    -15.3310    -21.2144    -19.3310     -8.7606      0.1879      0.3914      0.3914      1.3047
   6996.0000      6.3100      4.2890      4.5090      1.1818      2.9419      2.9419      0.0000   -999.2500      0.1844      0.2146      4.5090      4.2890   -999.2500      6.3100    -16.6390    -21.2210    -20.6390     -9.5080      0.1702      0.3545      0.3545      1.1818
   6996.5000      6.6630      3.9350      4.2340      0.9444      2.8988      2.8988      0.0556   -999.2500      0.2309      0.2163      4.2340      3.9350   -999.2500      6.6630    -17.2590    -21.2276    -21.2590     -9.8623      0.1618      0.3372      0.3372      0.9444
   6997.0000      6.5330      3.6450      3.9880      0.9350      2.8466      2.8466      0.0650   -999.2500      0.2318      0.2180      3.9880      3.6450   -999.2500      6.5330    -17.8420    -21.2341    -21.8420    -10.1954      0.1540      0.3208      0.3208      0.9350
   6997.5000      5.7170      3.4210      3.4320      0.9197      2.7616      2.7616      0.0803   -999.2500      0.2333      0.2206      3.4320      3.4210   -999.2500      5.7170    -18.7880    -21.2407    -22.7880    -10.7360      0.1413      0.2943      0.2943      0.9197
   6998.0000      5.3330      3.1320      3.0560      0.9127      2.7225      2.7225      0.0873   -999.2500      0.2340      0.2218      3.0560      3.1320   -999.2500      5.3330    -19.2260    -21.2473    -23.2260    -10.9863      0.1354      0.2821      0.2821      0.9127
   6998.5000      4.9360      3.0080      2.8750      0.8860      2.6704      2.6704      0.0967   -999.2500      0.2349      0.2234      2.8750      3.0080   -999.2500      4.9360    -19.8090    -21.2539    -23.8090    -11.3194      0.1276      0.2658      0.2658      0.8860
   6999.0000      4.5820      2.9070      2.6650      0.8386      2.6250      2.6250      0.1049   -999.2500      0.2357      0.2249      2.6650      2.9070   -999.2500      4.5820    -20.3190    -21.2605    -24.3190    -11.6109      0.1208      0.2516      0.2516      0.8386
   6999.5000      4.3430      2.8340      2.6140      0.7979      2.5859      2.5859      0.1119   -999.2500      0.2364      0.2261      2.6140      2.8340   -999.2500      4.3430    -20.7580    -21.2671    -24.7580    -11.8617      0.1149      0.2394      0.2394      0.7979
   7000.0000      4.1540      2.8410      2.5840      0.7846      2.5732      2.5732      0.1142   -999.2500      0.2366      0.2265      2.5840      2.8410   -999.2500      4.1540    -20.9060    -21.2737    -24.9060    -11.9463      0.1130      0.2354      0.2354      0.7846
   7000.5000      4.0600      2.8550      2.5950      0.7749      2.5640      2.5640      0.1159   -999.2500      0.2368      0.2267      2.5950      2.8550   -999.2500      4.0600    -21.0150    -21.2803    -25.0150    -12.0086      0.1116      0.2325      0.2325      0.7749
   7001.0000      4.0460      2.8690      2.6060      0.7652      2.5547      2.5547      0.1176   -999.2500      0.2369      0.2270      2.6060      2.8690   -999.2500      4.0460    -21.1250    -21.2869    -25.1250    -12.0714      0.1102      0.2296      0.2296      0.7652
   7001.5000      4.0380      2.8400      2.6340      0.7555      2.5454      2.5454      0.1192   -999.2500      0.2371      0.2273      2.6340      2.8400   -999.2500      4.0380    -21.2350    -21.2935    -25.2350    -12.1343      0.1088      0.2266      0.2266      0.7555
   7002.0000      4.0240      2.8110      2.6270      0.7458      2.5361      2.5361      0.1209   -999.2500      0.2373      0.2276      2.6270      2.8110   -999.2500      4.0240    -21.3450    -21.3001    -25.3450    -12.1971      0.1074      0.2237      0.2237      0.7458
