~V
VERS. 2.00: Ver 2.00
WRAP.   NO:        
~W
 STRT.FT 550:
 STOP.FT 8020:
 STEP.FT 0.5:
 NULL. -999.250000:
 COMP. Richfield (ARCO):Company
 WELL. LLU 18-21:Well
 FLD. Los Lobos:Field
 LOC. S21 T11N R22W:Location
 STAT. CA:State
 SRVC. :Service Company
 SON. :Service Order #
 DATE. :Log Date
 UWI. UNKNOWN:Unique Well ID
~C
 DEPT.FT :
 AM10.OHMM :
 AO10.OHMM :
 AO19.OHMM :
 LTHE. :
 MCRV. :
 MM. :
 PHES. :
 PHMX. :
 PHTS. :
 PHZC. :
 RD.OHMM :
 RM.OHMM :
 ROS. :
 RS.OHMM :
 SBL.MV :
 SCLN. :
 SP.MV :
 SPN. :
 VCDS. :
 VCLY. :
 VCWS. :
 VSHS. :
~P
~A
# ...
   7858.0000     15.4900      5.1960      2.8540      0.0811      2.1101      2.1101      0.2217   -999.2500      0.2343      0.2333      2.8540      5.1960   -999.2500     15.4900   -125.7950    -76.3018   -129.7950    -71.8829      0.0117      0.0243      0.0243      0.0811
   7858.5000     15.7940      5.1030      2.8680      0.0642      2.1051      2.1051      0.2246   -999.2500      0.2346      0.2338      2.8680      5.1030   -999.2500     15.7940   -127.3990    -76.2991   -131.3990    -72.7994      0.0092      0.0193      0.0193      0.0642
   7859.0000     16.1840      4.9290      2.8760      0.0554      2.1024      2.1024      0.2261   -999.2500      0.2347      0.2340      2.8760      4.9290   -999.2500     16.1840   -128.2370    -76.2964   -132.2370    -73.2783      0.0080      0.0166      0.0166      0.0554
   7859.5000     16.9560      4.7920      2.8900      0.0458      2.0996      2.0996      0.2278   -999.2500      0.2349      0.2343      2.8900      4.7920   -999.2500     16.9560   -129.1490    -76.2937   -133.1490    -73.7994      0.0066      0.0137      0.0137      0.0458
   7860.0000     17.5050      4.6990      2.9050      0.0417      2.0984      2.0984      0.2284   -999.2500      0.2350      0.2344      2.9050      4.6990   -999.2500     17.5050   -129.5320    -76.2910   -133.5320    -74.0183      0.0060      0.0125      0.0125      0.0417
   7860.5000     17.8370      4.6770      2.9230      0.0376      2.0972      2.0972      0.2291   -999.2500      0.2350      0.2345      2.9230      4.6770   -999.2500     17.8370   -129.9150    -76.2883   -133.9150    -74.2372      0.0054      0.0113      0.0113      0.0376
   7861.0000     17.9530      4.6700      2.9410      0.0399      2.0979      2.0979      0.2288   -999.2500      0.2350      0.2345      2.9410      4.6700   -999.2500     17.9530   -129.6990    -76.2856   -133.6990    -74.1137      0.0057      0.0120      0.0120      0.0399
   7861.5000     17.9890      4.6850      2.9770      0.0432      2.0989      2.0989      0.2282   -999.2500      0.2349      0.2343      2.9770      4.6850   -999.2500     17.9890   -129.3720    -76.2830   -133.3720    -73.9269      0.0062      0.0130      0.0130      0.0432
   7862.0000     17.8230      4.6920      3.0140      0.0512      2.1013      2.1013      0.2268   -999.2500      0.2348      0.2341      3.0140      4.6920   -999.2500     17.8230   -128.6080    -76.2803   -132.6080    -73.4903      0.0074      0.0154      0.0154      0.0512
   7862.5000     17.5780      4.7180      3.0280      0.0565      2.1029      2.1029      0.2259   -999.2500      0.2347      0.2339      3.0280      4.7180   -999.2500     17.5780   -128.1000    -76.2776   -132.1000    -73.2000      0.0081      0.0169      0.0169      0.0565
   7863.0000     17.6360      4.7430      3.0500      0.0595      2.1039      2.1039      0.2253   -999.2500      0.2346      0.2338      3.0500      4.7430   -999.2500     17.6360   -127.8100    -76.2749   -131.8100    -73.0343      0.0086      0.0178      0.0178      0.0595
   7863.5000     17.7520      4.7790      3.0720      0.0575      2.1033      2.1033      0.2257   -999.2500      0.2346      0.2339      3.0720      4.7790   -999.2500     17.7520   -127.9930    -76.2722   -131.9930    -73.1389      0.0083      0.0173      0.0173      0.0575
   7864.0000     17.6800      4.8150      3.1150      0.0555      2.1027      2.1027      0.2260   -999.2500      0.2347      0.2339      3.1150      4.8150   -999.2500     17.6800   -128.1760    -76.2695   -132.1760    -73.2434      0.0080      0.0167      0.0167      0.0555
   7864.5000     17.4340      4.8440      3.1230      0.0536      2.1022      2.1022      0.2263   -999.2500      0.2347      0.2340      3.1230      4.8440   -999.2500     17.4340   -128.3580    -76.2668   -132.3580    -73.3474      0.0077      0.0161      0.0161      0.0536
   7865.0000     17.6080      4.8660      3.1450      0.0478      2.1005      2.1005      0.2273   -999.2500      0.2348      0.2341      3.1450      4.8660   -999.2500     17.6080   -128.9060    -76.2642   -132.9060    -73.6606      0.0069      0.0143      0.0143      0.0478
   7865.5000     17.7520      4.8880      3.1590      0.0432      2.0991      2.0991      0.2281   -999.2500      0.2348      0.2343      3.1590      4.8880   -999.2500     17.7520   -129.3440    -76.2615   -133.3440    -73.9109      0.0062      0.0129      0.0129      0.0432
   7866.0000     17.8970      4.9820      3.1700      0.0393      2.0980      2.0980      0.2288   -999.2500      0.2349      0.2344      3.1700      4.9820   -999.2500     17.8970   -129.7100    -76.2588   -133.7100    -74.1200      0.0057      0.0118      0.0118      0.0393
   7866.5000     18.0480      5.0040      3.1810      0.0373      2.0974      2.0974      0.2291   -999.2500      0.2349      0.2344      3.1810      5.0040   -999.2500     18.0480   -129.8920    -76.2561   -133.8920    -74.2240      0.0054      0.0112      0.0112      0.0373
   7867.0000     18.1930      5.1050      3.2100      0.0353      2.0968      2.0968      0.2294   -999.2500      0.2349      0.2345      3.2100      5.1050   -999.2500     18.1930   -130.0750    -76.2534   -134.0750    -74.3286      0.0051      0.0106      0.0106      0.0353
   7867.5000     18.2650      5.2350      3.2170      0.0303      2.0954      2.0954      0.2303   -999.2500      0.2350      0.2346      3.2170      5.2350   -999.2500     18.2650   -130.5500    -76.2507   -134.5500    -74.6000      0.0044      0.0091      0.0091      0.0303
   7868.0000     18.3950      5.3720      3.2320      0.0268      2.0943      2.0943      0.2309   -999.2500      0.2351      0.2347      3.2320      5.3720   -999.2500     18.3950   -130.8790    -76.2480   -134.8790    -74.7880      0.0039      0.0080      0.0080      0.0268
   7868.5000     18.4970      5.4810      3.2390      0.0252      2.0939      2.0939      0.2312   -999.2500      0.2351      0.2348      3.2390      5.4810   -999.2500     18.4970   -131.0260    -76.2454   -135.0260    -74.8720      0.0036      0.0076      0.0076      0.0252
   7869.0000     18.4820      5.5530      3.2390      0.0255      2.0940      2.0940      0.2311   -999.2500      0.2351      0.2348      3.2390      5.5530   -999.2500     18.4820   -130.9900    -76.2427   -134.9900    -74.8514      0.0037      0.0077      0.0077      0.0255
   7869.5000     18.2300      5.5640      3.2400      0.0331      2.0963      2.0963      0.2298   -999.2500      0.2349      0.2345      3.2400      5.5640   -999.2500     18.2300   -130.2630    -76.2400   -134.2630    -74.4360      0.0048      0.0099      0.0099      0.0331
   7870.0000     18.0780      5.5750      3.2250      0.0411      2.0987      2.0987      0.2284   -999.2500      0.2348      0.2343      3.2250      5.5750   -999.2500     18.0780   -129.5000    -76.2373   -133.5000    -74.0000      0.0059      0.0123      0.0123      0.0411
   7870.5000     17.9050      5.5610      3.2040      0.0483      2.1009      2.1009      0.2271   -999.2500      0.2347      0.2340      3.2040      5.5610   -999.2500     17.9050   -128.8090    -76.2346   -132.8090    -73.6051      0.0070      0.0145      0.0145      0.0483
   7871.0000     17.7540      5.5470      3.1820      0.0536      2.1025      2.1025      0.2262   -999.2500      0.2346      0.2339      3.1820      5.5470   -999.2500     17.7540   -128.3000    -76.2319   -132.3000    -73.3143      0.0077      0.0161      0.0161      0.0536
   7871.5000     17.6380      5.4380      3.1610      0.0592      2.1043      2.1043      0.2252   -999.2500      0.2345      0.2337      3.1610      5.4380   -999.2500     17.6380   -127.7560    -76.2292   -131.7560    -73.0034      0.0085      0.0178      0.0178      0.0592
   7872.0000     17.4220      5.3450      3.1250      0.0596      2.1044      2.1044      0.2252   -999.2500      0.2345      0.2337      3.1250      5.3450   -999.2500     17.4220   -127.7200    -76.2266   -131.7200    -72.9829      0.0086      0.0179      0.0179      0.0596
