~V
VERS. 2.00: Ver 2.00
WRAP.   NO:        
~W
 STRT.FT 550:
 STOP.FT 8020:
 STEP.FT 0.5:
 NULL. -999.250000:
 COMP. Richfield (ARCO):Company
 WELL. LLU 18-21:Well
 FLD. Los Lobos:Field
 LOC. S21 T11N R22W:Location
 STAT. CA:State
 SRVC. :Service Company
 SON. :Service Order #
 DATE. :Log Date
 UWI. UNKNOWN:Unique Well ID
~C
 DEPT.FT :
 AM10.OHMM :
 AO10.OHMM :
 AO19.OHMM :
 LTHE. :
 MCRV. :
 MM. :
 PHES. :
 PHMX. :
 PHTS. :
 PHZC. :
 RD.OHMM :
 RM.OHMM :
 ROS. :
 RS.OHMM :
 SBL.MV :
 SCLN. :
 SP.MV :
 SPN. :
 VCDS. :
 VCLY. :
 VCWS. :
 VSHS. :
~P
~A
# ...
   6393.5000      1.8930      2.3120      2.1200      1.4934      2.9529      2.9529      0.0000   -999.2500      0.2330      0.2153      2.1200      2.3120   -999.2500      1.8930    -10.5080    -16.7251    -14.5080     -6.0046      0.2151      0.4480      0.4480      1.4934
   6394.0000      1.8280      2.3190      2.1240      1.5073      2.9548      2.9548      0.0000   -999.2500      0.2344      0.2149      2.1240      2.3190   -999.2500      1.8280    -10.3630    -16.7281    -14.3630     -5.9217      0.2171      0.4522      0.4515      1.5073
   6394.5000      1.8070      2.3270      2.1280      1.5335      2.9585      2.9585      0.0000   -999.2500      0.2340      0.2141      2.1280      2.3270   -999.2500      1.8070    -10.0360    -16.7310    -14.0360     -5.7349      0.2208      0.4601      0.4548      1.5335
   6395.0000      1.7850      2.3410      2.1350      1.5539      2.9614      2.9614      0.0000   -999.2500      0.2336      0.2135      2.1350      2.3410   -999.2500      1.7850     -9.7820    -16.7340    -13.7820     -5.5897      0.2238      0.4662      0.4574      1.5539
   6395.5000      1.7750      2.3520      2.1430      1.5628      2.9626      2.9626      0.0000   -999.2500      0.2334      0.2132      2.1430      2.3520   -999.2500      1.7750     -9.6720    -16.7369    -13.6720     -5.5269      0.2250      0.4688      0.4585      1.5628
   6396.0000      1.7640      2.3630      2.1470      1.5658      2.9631      2.9631      0.0000   -999.2500      0.2334      0.2131      2.1470      2.3630   -999.2500      1.7640     -9.6360    -16.7398    -13.6360     -5.5063      0.2255      0.4697      0.4589      1.5658
   6396.5000      1.7710      2.3670      2.1500      1.5660      2.9631      2.9631      0.0000   -999.2500      0.2334      0.2131      2.1500      2.3670   -999.2500      1.7710     -9.6360    -16.7428    -13.6360     -5.5063      0.2255      0.4698      0.4589      1.5660
   6397.0000      1.7790      2.3710      2.1580      1.5575      2.9620      2.9620      0.0000   -999.2500      0.2335      0.2133      2.1580      2.3710   -999.2500      1.7790     -9.7440    -16.7457    -13.7440     -5.5680      0.2243      0.4672      0.4578      1.5575
   6397.5000      1.7930      2.3780      2.1650      1.5519      2.9612      2.9612      0.0000   -999.2500      0.2336      0.2135      2.1650      2.3780   -999.2500      1.7930     -9.8160    -16.7487    -13.8160     -5.6091      0.2235      0.4656      0.4571      1.5519
   6398.0000      1.8080      2.3850      2.1690      1.5463      2.9605      2.9605      0.0000   -999.2500      0.2337      0.2136      2.1690      2.3850   -999.2500      1.8080     -9.8880    -16.7516    -13.8880     -5.6503      0.2227      0.4639      0.4563      1.5463
   6398.5000      1.8220      2.3850      2.1730      1.5292      2.9581      2.9581      0.0000   -999.2500      0.2340      0.2141      2.1730      2.3850   -999.2500      1.8220    -10.1050    -16.7545    -14.1050     -5.7743      0.2202      0.4588      0.4542      1.5292
   6399.0000      1.8440      2.3860      2.1580      1.5120      2.9558      2.9558      0.0000   -999.2500      0.2342      0.2147      2.1580      2.3860   -999.2500      1.8440    -10.3220    -16.7575    -14.3220     -5.8983      0.2177      0.4536      0.4520      1.5120
   6399.5000      1.8730      2.3930      2.1510      1.4837      2.9519      2.9519      0.0000   -999.2500      0.2315      0.2155      2.1510      2.3930   -999.2500      1.8730    -10.6120    -16.7604    -14.6120     -6.0640      0.2137      0.4451      0.4451      1.4837
   6400.0000      1.9020      2.4000      2.1470      1.4320      2.9447      2.9447      0.0000   -999.2500      0.2234      0.2170      2.1470      2.4000   -999.2500      1.9020    -11.0470    -16.7634    -15.0470     -6.3126      0.2062      0.4296      0.4296      1.4320
   6400.5000      1.9190      2.3960      2.1430      1.3540      2.9340      2.9340      0.0000   -999.2500      0.2112      0.2194      2.1430      2.3960   -999.2500      1.9190    -11.7030    -16.7663    -15.7030     -6.6874      0.1950      0.4062      0.4062      1.3540
   6401.0000      1.9370      2.3920      2.1350      1.2587      2.9208      2.9208      0.0000   -999.2500      0.1964      0.2222      2.1350      2.3920   -999.2500      1.9370    -12.5040    -16.7692    -16.5040     -7.1451      0.1813      0.3776      0.3776      1.2587
   6401.5000      1.9760      2.3910      2.1280      0.9316      2.8510      2.8510      0.0684   -999.2500      0.2411      0.2268      2.1280      2.3910   -999.2500      1.9760    -13.7770    -16.7722    -17.7770     -7.8726      0.1594      0.3321      0.3321      0.9316
   6402.0000      2.0150      2.3830      2.1050      0.9002      2.6765      2.6765      0.0998   -999.2500      0.2442      0.2322      2.1050      2.3830   -999.2500      2.0150    -15.3040    -16.7751    -19.3040     -8.7451      0.1333      0.2776      0.2776      0.9002
   6402.5000      2.0250      2.3820      2.0970      0.6831      2.4439      2.4439      0.1417   -999.2500      0.2483      0.2395      2.0970      2.3820   -999.2500      2.0250    -17.3390    -16.7780    -21.3390     -9.9080      0.0984      0.2049      0.2049      0.6831
   6403.0000      2.0350      2.3740      2.0890      0.4660      2.2356      2.2356      0.1793   -999.2500      0.2520      0.2460      2.0890      2.3740   -999.2500      2.0350    -19.5910    -16.7810    -23.5910    -11.1949      0.0671      0.1398      0.1398      0.4660
   6403.5000      2.0770      2.3660      2.0810      0.3329      2.1081      2.1081      0.2023   -999.2500      0.2543      0.2500      2.0810      2.3660   -999.2500      2.0770    -22.3870    -16.7839    -26.3870    -12.7926      0.0479      0.0999      0.0999      0.3329
   6404.0000      2.0910      2.3620      2.0660      0.1982      2.0677      2.0677      0.2256   -999.2500      0.2566      0.2540      2.0660      2.3620   -999.2500      2.0910    -25.2190    -16.7869    -29.2190    -14.4109      0.0285      0.0594      0.0594      0.1982
   6404.5000      2.0980      2.3580      2.0510      0.1118      2.0418      2.0418      0.2406   -999.2500      0.2580      0.2566      2.0510      2.3580   -999.2500      2.0980    -27.0360    -16.7898    -31.0360    -15.4491      0.0161      0.0335      0.0335      0.1118
   6405.0000      2.1110      2.3280      2.0360      0.0531      2.0242      2.0242      0.2507   -999.2500      0.2590      0.2583      2.0360      2.3280   -999.2500      2.1110    -28.2730    -16.7927    -32.2730    -16.1560      0.0076      0.0159      0.0159      0.0531
   6405.5000      2.1040      2.2980      2.0280      0.0860      2.0341      2.0341      0.2450   -999.2500      0.2584      0.2573      2.0280      2.2980   -999.2500      2.1040    -27.5870    -16.7957    -31.5870    -15.7640      0.0124      0.0258      0.0258      0.0860
   6406.0000      2.1030      2.2830      2.0200      0.1448      2.0517      2.0517      0.2349   -999.2500      0.2574      0.2556      2.0200      2.2830   -999.2500      2.1030    -26.3580    -16.7986    -30.3580    -15.0617      0.0208      0.0434      0.0434      0.1448
   6406.5000      2.0990      2.2680      2.0010      0.1966      2.0673      2.0673      0.2259   -999.2500      0.2565      0.2540      2.0010      2.2680   -999.2500      2.0990    -25.2730    -16.8016    -29.2730    -14.4417      0.0283      0.0590      0.0590      0.1966
   6407.0000      2.0940      2.2310      1.9820      0.2709      2.0896      2.0896      0.2130   -999.2500      0.2553      0.2518      1.9820      2.2310   -999.2500      2.0940    -23.7170    -16.8045    -27.7170    -13.5526      0.0390      0.0813      0.0813      0.2709
   6407.5000      2.0860      2.2160      1.9670      0.3538      2.1281      2.1281      0.1986   -999.2500      0.2538      0.2493      1.9670      2.2160   -999.2500      2.0860    -21.9790    -16.8074    -25.9790    -12.5594      0.0510      0.1062      0.1062      0.3538
