~V
VERS. 2.00: Ver 2.00
WRAP.   NO:        
~W
 STRT.FT 350:
 STOP.FT 3310:
 STEP.FT 0.5:
 NULL. -999.250000:
 COMP. Richfield (ARCO):Company
 WELL. SAN EMIDIO A #25-28:Well
 FLD. Los Lobos:Field
 LOC. S28 T11N R22W:Location
 STAT. CA:State
 SRVC. :Service Company
 SON. :Service Order #
 DATE. :Log Date
 UWI. 1538500:Unique Well ID
~C
 DEPT.FT :
 AM16.OHMM :
 AO10.OHMM :
 AO19.OHMM :
 LTHE. :
 MCRV. :
 MM. :
 PHES. :
 PHMX. :
 PHTS. :
 PHZC. :
 RD.OHMM :
 RM.OHMM :
 ROS. :
 RS.OHMM :
 SBL.MV :
 SCLN. :
 SP.MV :
 SPN. :
 VCDS. :
 VCL. :
 VCLY. :
 VCSP. :
 VCWS. :
 VSHS. :
~P
~A
# ...
   2672.0000      2.4920      3.1710      2.5740      1.3641      2.7365      2.7365      0.0000   -999.2500      0.2128      0.2724      2.5740      3.1710   -999.2500      2.4920    -10.7452    -23.5968    -20.6170     -9.3436      0.1964      0.2273      0.4092      0.2273      0.4092      1.3641
   2672.5000      2.4750      3.2070      2.6270      1.4785      2.7524      2.7524      0.0000   -999.2500      0.2306      0.2689      2.6270      3.2070   -999.2500      2.4750     -9.8569    -23.5928    -19.7210     -8.5712      0.2129      0.2595      0.4435      0.2595      0.4435      1.4785
   2673.0000      2.4570      3.1900      2.6810      1.4772      2.7522      2.7522      0.0000   -999.2500      0.2304      0.2690      2.6810      3.1900   -999.2500      2.4570     -9.8647    -23.5887    -19.7210     -8.5780      0.2127      0.2593      0.4432      0.2593      0.4432      1.4772
   2673.5000      2.4390      3.1720      2.7170      1.4760      2.7521      2.7521      0.0000   -999.2500      0.2303      0.2690      2.7170      3.1720   -999.2500      2.4390     -9.8725    -23.5847    -19.7210     -8.5847      0.2125      0.2590      0.4428      0.2590      0.4428      1.4760
   2674.0000      2.4220      3.1360      2.7520      1.4517      2.7487      2.7487      0.0000   -999.2500      0.2265      0.2697      2.7520      3.1360   -999.2500      2.4220    -10.0592    -23.5807    -19.9000     -8.7472      0.2090      0.2522      0.4355      0.2522      0.4355      1.4517
   2674.5000      2.3860      3.1010      2.7520      1.4505      2.7486      2.7486      0.0000   -999.2500      0.2263      0.2697      2.7520      3.1010   -999.2500      2.3860    -10.0670    -23.5766    -19.9000     -8.7539      0.2089      0.2519      0.4351      0.2519      0.4351      1.4505
   2675.0000      2.3680      3.1010      2.7520      1.4492      2.7485      2.7485      0.0000   -999.2500      0.2261      0.2698      2.7520      3.1010   -999.2500      2.3680    -10.0748    -23.5726    -19.9000     -8.7607      0.2087      0.2516      0.4348      0.2516      0.4348      1.4492
   2675.5000      2.3510      3.1010      2.7700      1.4480      2.7483      2.7483      0.0000   -999.2500      0.2259      0.2698      2.7700      3.1010   -999.2500      2.3510    -10.0825    -23.5686    -19.9000     -8.7674      0.2085      0.2514      0.4344      0.2514      0.4344      1.4480
   2676.0000      2.3330      3.0830      2.7880      1.5417      2.7613      2.7613      0.0000   -999.2500      0.2405      0.2670      2.7880      3.0830   -999.2500      2.3330     -9.1943    -23.5645    -19.0040     -7.9950      0.2220      0.2835      0.4625      0.2835      0.4625      1.5417
   2676.5000      2.3150      3.0660      2.8240      1.5409      2.7612      2.7612      0.0000   -999.2500      0.2404      0.2670      2.8240      3.0660   -999.2500      2.3150     -9.2021    -23.5605    -19.0040     -8.0018      0.2219      0.2833      0.4623      0.2833      0.4623      1.5409
   2677.0000      2.3150      3.0120      2.8600      1.5324      2.7601      2.7601      0.0000   -999.2500      0.2391      0.2673      2.8600      3.0120   -999.2500      2.3150     -9.2988    -23.5565    -19.0930     -8.0859      0.2207      0.2798      0.4597      0.2798      0.4597      1.5324
   2677.5000      2.2800      2.9590      2.8600      1.5238      2.7589      2.7589      0.0000   -999.2500      0.2377      0.2675      2.8600      2.9590   -999.2500      2.2800     -9.3966    -23.5524    -19.1830     -8.1709      0.2194      0.2762      0.4572      0.2762      0.4572      1.5238
   2678.0000      2.2800      2.8880      2.8600      1.4881      2.7540      2.7540      0.0000   -999.2500      0.2322      0.2686      2.8600      2.8880   -999.2500      2.2800     -9.7634    -23.5484    -19.5420     -8.4899      0.2143      0.2629      0.4464      0.2629      0.4464      1.4881
   2678.5000      2.2440      2.8700      2.8600      1.4407      2.7475      2.7475      0.0000   -999.2500      0.2247      0.2700      2.8600      2.8700   -999.2500      2.2440    -10.1291    -23.5444    -19.9000     -8.8079      0.2075      0.2497      0.4322      0.2497      0.4322      1.4407
   2679.0000      2.2450      2.8520      2.8770      1.1845      2.7120      2.7120      0.0000   -999.2500      0.1848      0.2777      2.8770      2.8520   -999.2500      2.2450    -12.1089    -23.5404    -21.8720    -10.5295      0.1706      0.1958      0.3553      0.1958      0.3553      1.1845
   2679.5000      2.2810      2.8170      2.8950      0.8875      2.7032      2.7032      0.1125   -999.2500      0.2934      0.2784      2.8950      2.8170   -999.2500      2.2810    -12.2957    -23.5363    -22.0510    -10.6919      0.1670      0.1945      0.3480      0.1945      0.3480      0.8875
   2680.0000      2.2630      2.7810      2.8950      0.8833      2.6797      2.6797      0.1167   -999.2500      0.2939      0.2791      2.8950      2.7810   -999.2500      2.2630    -12.4834    -23.5323    -22.2310    -10.8552      0.1635      0.1932      0.3406      0.1932      0.3406      0.8833
   2680.5000      2.2450      2.7280      2.8950      0.8831      2.6785      2.6785      0.1169   -999.2500      0.2939      0.2792      2.8950      2.7280   -999.2500      2.2450    -12.4912    -23.5283    -22.2310    -10.8619      0.1633      0.1931      0.3403      0.1931      0.3403      0.8831
   2681.0000      2.2450      2.6740      2.8600      0.8829      2.6773      2.6773      0.1171   -999.2500      0.2939      0.2792      2.8600      2.6740   -999.2500      2.2450    -12.4990    -23.5242    -22.2310    -10.8687      0.1631      0.1931      0.3399      0.1931      0.3399      0.8829
   2681.5000      2.2450      2.6030      2.8600      0.8867      2.6984      2.6984      0.1133   -999.2500      0.2935      0.2785      2.8600      2.6030   -999.2500      2.2450    -12.3267    -23.5202    -22.0510    -10.7189      0.1663      0.1942      0.3465      0.1942      0.3465      0.8867
   2682.0000      2.2460      2.5320      2.8600      1.2116      2.7159      2.7159      0.0000   -999.2500      0.1890      0.2768      2.8600      2.5320   -999.2500      2.2460    -11.8865    -23.5162    -21.6030    -10.3361      0.1745      0.1973      0.3635      0.1973      0.3635      1.2116
   2682.5000      2.2460      2.4960      2.7880      1.2684      2.7238      2.7238      0.0000   -999.2500      0.1979      0.2751      2.7880      2.4960   -999.2500      2.2460    -11.4463    -23.5121    -21.1550     -9.9533      0.1826      0.2019      0.3805      0.2019      0.3805      1.2684
   2683.0000      2.2460      2.4610      2.7700      1.3368      2.7333      2.7333      0.0000   -999.2500      0.2085      0.2731      2.7700      2.4610   -999.2500      2.2460    -10.9160    -23.5081    -20.6170     -9.4922      0.1925      0.2212      0.4010      0.2212      0.4010      1.3368
   2683.5000      2.2640      2.4610      2.7520      1.4052      2.7428      2.7428      0.0000   -999.2500      0.2192      0.2710      2.7520      2.4610   -999.2500      2.2640    -10.3858    -23.5041    -20.0790     -9.0311      0.2023      0.2404      0.4216      0.2404      0.4216      1.4052
   2684.0000      2.2820      2.4610      2.7340      1.4735      2.7523      2.7523      0.0000   -999.2500      0.2299      0.2690      2.7340      2.4610   -999.2500      2.2820     -9.8566    -23.5000    -19.5420     -8.5709      0.2122      0.2595      0.4420      0.2595      0.4420      1.4735
   2684.5000      2.2820      2.4610      2.7170      1.6054      2.7706      2.7706      0.0000   -999.2500      0.2504      0.2650      2.7170      2.4610   -999.2500      2.2820     -8.4293    -23.4960    -18.1070     -7.3299      0.2312      0.3113      0.4816      0.3113      0.4816      1.6054
   2685.0000      2.2820      2.4970      2.6810      1.5969      2.7694      2.7694      0.0000   -999.2500      0.2491      0.2652      2.6810      2.4970   -999.2500      2.2820     -8.5271    -23.4920    -18.1970     -7.4149      0.2299      0.3077      0.4791      0.3077      0.4791      1.5969
