~V
VERS. 2.00: Ver 2.00
WRAP.   NO:        
~W
 STRT.FT 350:
 STOP.FT 3310:
 STEP.FT 0.5:
 NULL. -999.250000:
 COMP. Richfield (ARCO):Company
 WELL. SAN EMIDIO A #25-28:Well
 FLD. Los Lobos:Field
 LOC. S28 T11N R22W:Location
 STAT. CA:State
 SRVC. :Service Company
 SON. :Service Order #
 DATE. :Log Date
 UWI. 1538500:Unique Well ID
~C
 DEPT.FT :
 AM16.OHMM :
 AO10.OHMM :
 AO19.OHMM :
 LTHE. :
 MCRV. :
 MM. :
 PHES. :
 PHMX. :
 PHTS. :
 PHZC. :
 RD.OHMM :
 RM.OHMM :
 ROS. :
 RS.OHMM :
 SBL.MV :
 SCLN. :
 SP.MV :
 SPN. :
 VCDS. :
 VCL. :
 VCLY. :
 VCSP. :
 VCWS. :
 VSHS. :
~P
~A
# ...
   2510.0000      2.4700      3.5070      1.9340      1.5251      2.7502      2.7502      0.0000   -999.2500      0.2379      0.2691      1.9340      3.5070   -999.2500      2.4700    -15.5919    -39.1425    -28.4340    -13.5582      0.2196      0.1715      0.4575      0.1715      0.4575      1.5251
   2510.5000      2.2560      2.6490      1.9340      1.7846      2.7861      2.7861      0.0000   -999.2500      0.2784      0.2614      1.9340      2.6490   -999.2500      2.2560    -10.5847    -39.1408    -23.4100     -9.2041      0.2570      0.2332      0.5354      0.2332      0.5354      1.7846
   2511.0000      2.0420      2.3630      1.9700      1.8211      2.7912      2.7912      0.0000   -999.2500      0.2838      0.2603      1.9700      2.3630   -999.2500      2.0420     -9.8816    -39.1392    -22.6900     -8.5927      0.2622      0.2586      0.5463      0.2586      0.5461      1.8211
   2511.5000      1.9340      2.2560      1.9880      1.8204      2.7911      2.7911      0.0000   -999.2500      0.2839      0.2603      1.9880      2.2560   -999.2500      1.9340     -9.8944    -39.1376    -22.6860     -8.6038      0.2621      0.2582      0.5461      0.2582      0.5460      1.8204
   2512.0000      1.8810      2.3100      2.0060      1.8383      2.7936      2.7936      0.0000   -999.2500      0.2835      0.2597      2.0060      2.3100   -999.2500      1.8810     -9.5493    -39.1359    -22.3240     -8.3037      0.2647      0.2707      0.5515      0.2707      0.5483      1.8383
   2512.5000      1.8270      2.3640      2.0420      1.8561      2.7961      2.7961      0.0000   -999.2500      0.2832      0.2592      2.0420      2.3640   -999.2500      1.8270     -9.2041    -39.1343    -21.9620     -8.0036      0.2673      0.2832      0.5568      0.2832      0.5505      1.8561
   2513.0000      1.6850      2.4000      2.0780      1.8833      2.7999      2.7999      0.0000   -999.2500      0.2828      0.2584      2.0780      2.4000   -999.2500      1.6850     -8.6789    -39.1327    -21.4200     -7.5469      0.2712      0.3022      0.5650      0.3022      0.5540      1.8833
   2513.5000      1.6490      2.4180      2.1500      1.9105      2.8037      2.8037      0.0000   -999.2500      0.2823      0.2576      2.1500      2.4180   -999.2500      1.6490     -8.1548    -39.1310    -20.8790     -7.0911      0.2751      0.3212      0.5731      0.3212      0.5574      1.9105
   2514.0000      1.6140      2.4360      2.1860      1.9191      2.8049      2.8049      0.0000   -999.2500      0.2821      0.2573      2.1860      2.4360   -999.2500      1.6140     -7.9886    -39.1294    -20.6960     -6.9466      0.2763      0.3272      0.5757      0.3272      0.5585      1.9191
   2514.5000      1.5780      2.4720      2.2210      1.9184      2.8049      2.8049      0.0000   -999.2500      0.2822      0.2573      2.2210      2.4720   -999.2500      1.5780     -8.0025    -39.1277    -20.6930     -6.9587      0.2762      0.3267      0.5755      0.3267      0.5584      1.9184
   2515.0000      1.5420      2.5080      2.2390      1.9177      2.8048      2.8048      0.0000   -999.2500      0.2822      0.2573      2.2390      2.5080   -999.2500      1.5420     -8.0153    -39.1261    -20.6890     -6.9698      0.2761      0.3263      0.5753      0.3263      0.5583      1.9177
   2515.5000      1.5430      2.5080      2.2580      1.8798      2.7996      2.7996      0.0000   -999.2500      0.2828      0.2585      2.2580      2.5080   -999.2500      1.5430     -8.7452    -39.1245    -21.4020     -7.6045      0.2707      0.2998      0.5639      0.2998      0.5535      1.8798
   2516.0000      1.5790      2.5260      2.2220      1.8605      2.7969      2.7969      0.0000   -999.2500      0.2831      0.2590      2.2220      2.5260   -999.2500      1.5790     -9.1170    -39.1228    -21.7570     -7.9278      0.2679      0.2863      0.5582      0.2863      0.5510      1.8605
   2516.5000      1.5790      2.5440      2.1860      1.8505      2.7956      2.7956      0.0000   -999.2500      0.2833      0.2593      2.1860      2.5440   -999.2500      1.5790     -9.3098    -39.1212    -21.9330     -8.0955      0.2665      0.2794      0.5551      0.2794      0.5498      1.8505
   2517.0000      1.6150      2.5260      2.1510      1.8684      2.7981      2.7981      0.0000   -999.2500      0.2830      0.2588      2.1510      2.5260   -999.2500      1.6150     -8.9647    -39.1196    -21.5710     -7.7954      0.2690      0.2919      0.5605      0.2919      0.5520      1.8684
   2517.5000      1.6150      2.5080      2.1150      1.8863      2.8006      2.8006      0.0000   -999.2500      0.2827      0.2582      2.1150      2.5080   -999.2500      1.6150     -8.6195    -39.1179    -21.2090     -7.4952      0.2716      0.3044      0.5659      0.3044      0.5543      1.8863
   2518.0000      1.6330      2.4910      2.0800      1.9041      2.8031      2.8031      0.0000   -999.2500      0.2824      0.2577      2.0800      2.4910   -999.2500      1.6330     -8.2744    -39.1163    -20.8470     -7.1951      0.2742      0.3169      0.5712      0.3169      0.5566      1.9041
   2518.5000      1.6510      2.4730      2.0800      1.9081      2.8036      2.8036      0.0000   -999.2500      0.2823      0.2576      2.0800      2.4730   -999.2500      1.6510     -8.1982    -39.1147    -20.7540     -7.1289      0.2748      0.3196      0.5724      0.3196      0.5571      1.9081
   2519.0000      1.6510      2.4200      2.0980      1.9120      2.8042      2.8042      0.0000   -999.2500      0.2822      0.2574      2.0980      2.4200   -999.2500      1.6510     -8.1221    -39.1130    -20.6610     -7.0627      0.2753      0.3224      0.5736      0.3224      0.5575      1.9120
   2519.5000      1.6510      2.3660      2.1160      1.9206      2.8054      2.8054      0.0000   -999.2500      0.2821      0.2572      2.1160      2.3660   -999.2500      1.6510     -7.9559    -39.1114    -20.4780     -6.9182      0.2766      0.3284      0.5762      0.3284      0.5586      1.9206
   2520.0000      1.6520      2.2950      2.1340      1.9292      2.8066      2.8066      0.0000   -999.2500      0.2819      0.2569      2.1340      2.2950   -999.2500      1.6520     -7.7897    -39.1097    -20.2950     -6.7737      0.2778      0.3344      0.5788      0.3344      0.5597      1.9292
   2520.5000      1.6520      2.2770      2.1520      1.9378      2.8079      2.8079      0.0000   -999.2500      0.2818      0.2567      2.1520      2.2770   -999.2500      1.6520     -7.6236    -39.1081    -20.1120     -6.6292      0.2790      0.3405      0.5813      0.3405      0.5608      1.9378
   2521.0000      1.6520      2.2600      2.1520      1.9371      2.8078      2.8078      0.0000   -999.2500      0.2818      0.2567      2.1520      2.2600   -999.2500      1.6520     -7.6364    -39.1065    -20.1080     -6.6404      0.2789      0.3400      0.5811      0.3400      0.5607      1.9371
   2521.5000      1.6520      2.2240      2.1520      1.9364      2.8077      2.8077      0.0000   -999.2500      0.2818      0.2567      2.1520      2.2240   -999.2500      1.6520     -7.6503    -39.1048    -20.1050     -6.6524      0.2788      0.3395      0.5809      0.3395      0.5606      1.9364
   2522.0000      1.6520      2.1880      2.1530      1.9450      2.8089      2.8089      0.0000   -999.2500      0.2816      0.2564      2.1530      2.1880   -999.2500      1.6520     -7.4841    -39.1032    -19.9220     -6.5079      0.2801      0.3455      0.5835      0.3455      0.5617      1.9450
   2522.5000      1.6170      2.1530      2.1170      1.9536      2.8102      2.8102      0.0000   -999.2500      0.2815      0.2562      2.1170      2.1530   -999.2500      1.6170     -7.3179    -39.1016    -19.7390     -6.3634      0.2813      0.3515      0.5861      0.3515      0.5628      1.9536
   2523.0000      1.6170      2.1530      2.1170      1.9622      2.8114      2.8114      0.0000   -999.2500      0.2813      0.2559      2.1170      2.1530   -999.2500      1.6170     -7.1518    -39.0999    -19.5560     -6.2189      0.2826      0.3575      0.5887      0.3575      0.5639      1.9622
