~V
VERS. 2.00: Ver 2.00
WRAP.   NO:        
~W
 STRT.FT 350:
 STOP.FT 3310:
 STEP.FT 0.5:
 NULL. -999.250000:
 COMP. Richfield (ARCO):Company
 WELL. SAN EMIDIO A #25-28:Well
 FLD. Los Lobos:Field
 LOC. S28 T11N R22W:Location
 STAT. CA:State
 SRVC. :Service Company
 SON. :Service Order #
 DATE. :Log Date
 UWI. 1538500:Unique Well ID
~C
 DEPT.FT :
 AM16.OHMM :
 AO10.OHMM :
 AO19.OHMM :
 LTHE. :
 MCRV. :
 MM. :
 PHES. :
 PHMX. :
 PHTS. :
 PHZC. :
 RD.OHMM :
 RM.OHMM :
 ROS. :
 RS.OHMM :
 SBL.MV :
 SCLN. :
 SP.MV :
 SPN. :
 VCDS. :
 VCL. :
 VCLY. :
 VCSP. :
 VCWS. :
 VSHS. :
~P
~A
# ...
   3185.0000      3.4620      2.7470      3.2170      1.6747      2.8069      2.8069      0.0000   -999.2500      0.2612      0.2579      3.2170      2.7470   -999.2500      3.4620     -7.8160    -24.0769    -27.8160     -6.7965      0.2412      0.3335      0.5024      0.3335      0.5024      1.6747
   3185.5000      3.5340      2.8550      3.1460      1.5998      2.7965      2.7965      0.0000   -999.2500      0.2496      0.2602      3.1460      2.8550   -999.2500      3.5340     -8.7110    -24.0961    -28.7110     -7.5748      0.2304      0.3011      0.4799      0.3011      0.4799      1.5998
   3186.0000      3.5520      2.8550      3.0740      1.4698      2.7786      2.7786      0.0000   -999.2500      0.2293      0.2640      3.0740      2.8550   -999.2500      3.5520    -10.1440    -24.1153    -30.1440     -8.8209      0.2116      0.2491      0.4409      0.2491      0.4409      1.4698
   3186.5000      3.5700      2.8550      3.0030      1.3352      2.7600      2.7600      0.0000   -999.2500      0.2083      0.2681      3.0030      2.8550   -999.2500      3.5700    -11.2190    -24.1345    -31.2190     -9.7557      0.1923      0.2102      0.4006      0.2102      0.4006      1.3352
   3187.0000      3.6060      2.8190      2.9850      1.2687      2.7508      2.7508      0.0000   -999.2500      0.1979      0.2701      2.9850      2.8190   -999.2500      3.6060    -11.7560    -24.1538    -31.7560    -10.2226      0.1827      0.1982      0.3806      0.1982      0.3806      1.2687
   3187.5000      3.6420      2.7480      2.9670      1.2023      2.7416      2.7416      0.0000   -999.2500      0.1876      0.2721      2.9670      2.7480   -999.2500      3.6420    -12.2930    -24.1730    -32.2930    -10.6896      0.1731      0.1945      0.3607      0.1945      0.3607      1.2023
   3188.0000      3.8210      2.7130      3.0030      1.2036      2.7418      2.7418      0.0000   -999.2500      0.1878      0.2720      3.0030      2.7130   -999.2500      3.8210    -12.2920    -24.1922    -32.2920    -10.6887      0.1733      0.1945      0.3611      0.1945      0.3611      1.2036
   3188.5000      3.8560      2.7130      3.0380      1.2951      2.7545      2.7545      0.0000   -999.2500      0.2020      0.2693      3.0380      2.7130   -999.2500      3.8560    -11.5740    -24.2115    -31.5740    -10.0643      0.1865      0.1995      0.3885      0.1995      0.3885      1.2951
   3189.0000      3.8920      2.7490      3.1460      1.3189      2.7578      2.7578      0.0000   -999.2500      0.2057      0.2685      3.1460      2.7490   -999.2500      3.8920    -11.3940    -24.2307    -31.3940     -9.9078      0.1899      0.2038      0.3957      0.2038      0.3957      1.3189
   3189.5000      3.8930      2.8560      3.2530      1.2751      2.7518      2.7518      0.0000   -999.2500      0.1989      0.2699      3.2530      2.8560   -999.2500      3.8930    -11.7520    -24.2499    -31.7520    -10.2191      0.1836      0.1982      0.3825      0.1982      0.3825      1.2751
   3190.0000      3.8750      2.9990      3.1460      1.2539      2.7489      2.7489      0.0000   -999.2500      0.1956      0.2705      3.1460      2.9990   -999.2500      3.8750    -11.9300    -24.2691    -31.9300    -10.3739      0.1806      0.1970      0.3762      0.1970      0.3762      1.2539
   3190.5000      3.8570      3.0710      2.9670      1.2328      2.7460      2.7460      0.0000   -999.2500      0.1923      0.2711      2.9670      3.0710   -999.2500      3.8570    -12.1080    -24.2884    -32.1080    -10.5287      0.1775      0.1958      0.3698      0.1958      0.3698      1.2328
   3191.0000      3.8220      3.1070      2.8600      1.3239      2.7586      2.7586      0.0000   -999.2500      0.2065      0.2684      2.8600      3.1070   -999.2500      3.8220    -11.3900    -24.3076    -31.3900     -9.9043      0.1906      0.2040      0.3972      0.2040      0.3972      1.3239
   3191.5000      3.8580      3.1070      2.8950      1.4596      2.7774      2.7774      0.0000   -999.2500      0.2277      0.2643      2.8950      3.1070   -999.2500      3.8580    -10.3140    -24.3268    -30.3140     -8.9687      0.2102      0.2430      0.4379      0.2430      0.4379      1.4596
   3192.0000      3.8760      3.0360      2.9310      1.5485      2.7898      2.7898      0.0000   -999.2500      0.2416      0.2616      2.9310      3.0360   -999.2500      3.8760     -9.4170    -24.3461    -29.4170     -8.1887      0.2230      0.2755      0.4646      0.2755      0.4646      1.5485
   3192.5000      3.8940      3.0000      2.9850      1.5940      2.7961      2.7961      0.0000   -999.2500      0.2487      0.2603      2.9850      3.0000   -999.2500      3.8940     -8.8780    -24.3653    -28.8780     -7.7200      0.2295      0.2950      0.4782      0.2950      0.4782      1.5940
   3193.0000      3.9650      2.9650      3.0380      1.5648      2.7921      2.7921      0.0000   -999.2500      0.2441      0.2611      3.0380      2.9650   -999.2500      3.9650     -9.2360    -24.3845    -29.2360     -8.0313      0.2253      0.2820      0.4694      0.2820      0.4694      1.5648
   3193.5000      4.0370      2.9650      3.1460      1.5357      2.7881      2.7881      0.0000   -999.2500      0.2396      0.2620      3.1460      2.9650   -999.2500      4.0370     -9.5940    -24.4038    -29.5940     -8.3426      0.2211      0.2691      0.4607      0.2691      0.4607      1.5357
   3194.0000      4.3230      3.0010      3.1990      1.3759      2.7660      2.7660      0.0000   -999.2500      0.2146      0.2668      3.1990      3.0010   -999.2500      4.3230    -11.0270    -24.4230    -31.0270     -9.5887      0.1981      0.2171      0.4128      0.2171      0.4128      1.3759
   3194.5000      4.6090      3.0720      3.2530      1.3325      2.7600      2.7600      0.0000   -999.2500      0.2079      0.2681      3.2530      3.0720   -999.2500      4.6090    -11.3840    -24.4422    -31.3840     -9.8991      0.1919      0.2042      0.3997      0.2042      0.3997      1.3325
   3195.0000      4.8240      3.2150      3.3420      1.3783      2.7664      2.7664      0.0000   -999.2500      0.2150      0.2667      3.3420      3.2150   -999.2500      4.8240    -11.0250    -24.4614    -31.0250     -9.5870      0.1985      0.2172      0.4135      0.2172      0.4135      1.3783
   3195.5000      4.8960      3.3050      3.4320      1.4686      2.7789      2.7789      0.0000   -999.2500      0.2291      0.2640      3.4320      3.3050   -999.2500      4.8960    -10.3070    -24.4807    -30.3070     -8.9626      0.2115      0.2432      0.4406      0.2432      0.4406      1.4686
   3196.0000      5.0030      3.3940      3.5390      1.5689      2.7928      2.7928      0.0000   -999.2500      0.2448      0.2610      3.5390      3.3940   -999.2500      5.0030     -9.2300    -24.4999    -29.2300     -8.0261      0.2259      0.2822      0.4707      0.2822      0.4707      1.5689
   3196.5000      5.1110      3.5200      3.5390      1.5844      2.7950      2.7950      0.0000   -999.2500      0.2472      0.2605      3.5390      3.5200   -999.2500      5.1110     -9.0500    -24.5191    -29.0500     -7.8696      0.2282      0.2888      0.4753      0.2888      0.4753      1.5844
   3197.0000      5.1110      3.6450      3.5390      1.5703      2.7931      2.7931      0.0000   -999.2500      0.2450      0.2609      3.5390      3.6450   -999.2500      5.1110     -9.2280    -24.5384    -29.2280     -8.0243      0.2261      0.2823      0.4711      0.2823      0.4711      1.5703
   3197.5000      5.0390      3.7700      3.5390      1.5265      2.7870      2.7870      0.0000   -999.2500      0.2381      0.2622      3.5390      3.7700   -999.2500      5.0390     -9.7650    -24.5576    -29.7650     -8.4913      0.2198      0.2629      0.4580      0.2629      0.4580      1.5265
   3198.0000      4.8610      3.8960      3.4670      1.5716      2.7933      2.7933      0.0000   -999.2500      0.2452      0.2609      3.4670      3.8960   -999.2500      4.8610     -9.2270    -24.5768    -29.2270     -8.0235      0.2263      0.2824      0.4715      0.2824      0.4715      1.5716
