~V
VERS. 2.00: Ver 2.00
WRAP.   NO:        
~W
 STRT.FT 350:
 STOP.FT 3310:
 STEP.FT 0.5:
 NULL. -999.250000:
 COMP. Richfield (ARCO):Company
 WELL. SAN EMIDIO A #25-28:Well
 FLD. Los Lobos:Field
 LOC. S28 T11N R22W:Location
 STAT. CA:State
 SRVC. :Service Company
 SON. :Service Order #
 DATE. :Log Date
 UWI. 1538500:Unique Well ID
~C
 DEPT.FT :
 AM16.OHMM :
 AO10.OHMM :
 AO19.OHMM :
 LTHE. :
 MCRV. :
 MM. :
 PHES. :
 PHMX. :
 PHTS. :
 PHZC. :
 RD.OHMM :
 RM.OHMM :
 ROS. :
 RS.OHMM :
 SBL.MV :
 SCLN. :
 SP.MV :
 SPN. :
 VCDS. :
 VCL. :
 VCLY. :
 VCSP. :
 VCWS. :
 VSHS. :
~P
~A
# ...
   2982.5000      2.0310      2.1740      2.1030      0.8587      2.5429      2.5429      0.1413   -999.2500      0.2935      0.2809      2.1030      2.1740   -999.2500      2.0310    -12.2934    -21.0928    -30.6570    -10.6899      0.1406      0.1945      0.2929      0.1945      0.2929      0.8587
   2983.0000      2.0320      2.1920      2.1210      1.3679      2.7536      2.7536      0.0000   -999.2500      0.2134      0.2691      2.1210      2.1920   -999.2500      2.0320     -9.5771    -21.0888    -27.9680     -8.3279      0.1970      0.2697      0.4104      0.2697      0.4104      1.3679
   2983.5000      2.0320      2.2100      2.1390      1.5869      2.7840      2.7840      0.0000   -999.2500      0.2476      0.2626      2.1390      2.2100   -999.2500      2.0320     -7.7568    -21.0848    -26.1750     -6.7451      0.2285      0.3356      0.4761      0.3356      0.4761      1.5869
   2984.0000      2.0140      2.2110      2.1390      1.6238      2.7891      2.7891      0.0000   -999.2500      0.2533      0.2614      2.1390      2.2110   -999.2500      2.0140     -7.3715    -21.0807    -25.8170     -6.4100      0.2338      0.3496      0.4872      0.3496      0.4872      1.6238
   2984.5000      1.9960      2.2110      2.1390      1.6437      2.7919      2.7919      0.0000   -999.2500      0.2564      0.2608      2.1390      2.2110   -999.2500      1.9960     -7.1643    -21.0767    -25.6370     -6.2298      0.2367      0.3571      0.4931      0.3571      0.4931      1.6437
   2985.0000      1.9970      2.2110      2.1400      1.6461      2.7923      2.7923      0.0000   -999.2500      0.2568      0.2608      2.1400      2.2110   -999.2500      1.9970     -7.1370    -21.0727    -25.6370     -6.2061      0.2370      0.3581      0.4938      0.3581      0.4938      1.6461
   2985.5000      1.9970      2.1750      2.1400      1.6313      2.7902      2.7902      0.0000   -999.2500      0.2545      0.2612      2.1400      2.1750   -999.2500      1.9970     -7.2897    -21.0687    -25.8170     -6.3389      0.2349      0.3525      0.4894      0.3525      0.4894      1.6313
   2986.0000      1.9970      2.1760      2.1400      1.6166      2.7882      2.7882      0.0000   -999.2500      0.2522      0.2616      2.1400      2.1760   -999.2500      1.9970     -7.4415    -21.0646    -25.9960     -6.4708      0.2328      0.3470      0.4850      0.3470      0.4850      1.6166
   2986.5000      1.9970      2.1760      2.1400      1.5845      2.7838      2.7838      0.0000   -999.2500      0.2472      0.2626      2.1400      2.1760   -999.2500      1.9970     -7.7732    -21.0606    -26.3550     -6.7593      0.2282      0.3350      0.4753      0.3350      0.4753      1.5845
   2987.0000      1.9970      2.1400      2.1220      1.5524      2.7794      2.7794      0.0000   -999.2500      0.2422      0.2636      2.1220      2.1400   -999.2500      1.9970     -8.1039    -21.0566    -26.7130     -7.0469      0.2236      0.3230      0.4657      0.3230      0.4657      1.5524
   2987.5000      1.9970      2.1050      2.1050      1.5377      2.7774      2.7774      0.0000   -999.2500      0.2399      0.2640      2.1050      2.1050   -999.2500      1.9970     -8.2556    -21.0525    -26.8920     -7.1788      0.2214      0.3175      0.4613      0.3175      0.4613      1.5377
   2988.0000      1.9980      2.0690      2.1050      1.5402      2.7777      2.7777      0.0000   -999.2500      0.2403      0.2639      2.1050      2.0690   -999.2500      1.9980     -8.2284    -21.0485    -26.8920     -7.1551      0.2218      0.3185      0.4620      0.3185      0.4620      1.5402
   2988.5000      1.9980      2.0340      2.0870      1.5599      2.7805      2.7805      0.0000   -999.2500      0.2433      0.2633      2.0870      2.0340   -999.2500      1.9980     -8.0221    -21.0445    -26.7130     -6.9757      0.2246      0.3260      0.4680      0.3260      0.4680      1.5599
   2989.0000      1.9980      2.0220      2.0690      1.5969      2.7856      2.7856      0.0000   -999.2500      0.2491      0.2622      2.0690      2.0220   -999.2500      1.9980     -7.6368    -21.0404    -26.3550     -6.6407      0.2300      0.3400      0.4791      0.3400      0.4791      1.5969
   2989.5000      1.9980      2.0100      2.0520      1.6340      2.7908      2.7908      0.0000   -999.2500      0.2549      0.2611      2.0520      2.0100   -999.2500      1.9980     -7.2505    -21.0364    -25.9960     -6.3048      0.2353      0.3540      0.4902      0.3540      0.4902      1.6340
   2990.0000      1.9980      1.9980      2.0340      1.7058      2.8008      2.8008      0.0000   -999.2500      0.2661      0.2589      2.0340      1.9980   -999.2500      1.9980     -6.5053    -21.0324    -25.2780     -5.6568      0.2456      0.3810      0.5117      0.3810      0.5117      1.7058
   2990.5000      1.9980      1.9810      2.0160      1.7256      2.8035      2.8035      0.0000   -999.2500      0.2692      0.2583      2.0160      1.9810   -999.2500      1.9980     -6.2990    -21.0283    -25.0990     -5.4774      0.2485      0.3884      0.5177      0.3884      0.5177      1.7256
   2991.0000      1.9990      1.9630      1.9990      1.7626      2.8087      2.8087      0.0000   -999.2500      0.2750      0.2572      1.9990      1.9630   -999.2500      1.9990     -5.9137    -21.0243    -24.7410     -5.1424      0.2538      0.4024      0.5288      0.4024      0.5288      1.7626
   2991.5000      1.9990      1.9390      1.9990      1.7651      2.8091      2.8091      0.0000   -999.2500      0.2754      0.2571      1.9990      1.9390   -999.2500      1.9990     -5.8865    -21.0203    -24.7410     -5.1187      0.2542      0.4034      0.5295      0.4034      0.5295      1.7651
   2992.0000      1.9990      1.9160      1.9630      1.7677      2.8095      2.8095      0.0000   -999.2500      0.2758      0.2570      1.9630      1.9160   -999.2500      1.9990     -5.8592    -21.0162    -24.7410     -5.0949      0.2545      0.4044      0.5303      0.4044      0.5303      1.7677
   2992.5000      1.9990      1.8920      1.9630      1.7183      2.8027      2.8027      0.0000   -999.2500      0.2681      0.2585      1.9630      1.8920   -999.2500      1.9990     -6.3689    -21.0122    -25.2780     -5.5382      0.2474      0.3859      0.5155      0.3859      0.5155      1.7183
   2993.0000      1.9990      1.8800      1.9640      1.6515      2.7934      2.7934      0.0000   -999.2500      0.2576      0.2605      1.9640      1.8800   -999.2500      1.9990     -7.0596    -21.0082    -25.9960     -6.1388      0.2378      0.3609      0.4955      0.3609      0.4955      1.6515
   2993.5000      2.0000      1.8680      1.9280      1.6193      2.7890      2.7890      0.0000   -999.2500      0.2526      0.2615      1.9280      1.8680   -999.2500      2.0000     -7.3914    -21.0041    -26.3550     -6.4273      0.2332      0.3489      0.4858      0.3489      0.4858      1.6193
   2994.0000      1.9820      1.8570      1.9280      1.6218      2.7894      2.7894      0.0000   -999.2500      0.2530      0.2614      1.9280      1.8570   -999.2500      1.9820     -7.3641    -21.0001    -26.3550     -6.4036      0.2335      0.3499      0.4865      0.3499      0.4865      1.6218
   2994.5000      1.9640      1.8450      1.9280      1.6070      2.7873      2.7873      0.0000   -999.2500      0.2507      0.2618      1.9280      1.8450   -999.2500      1.9640     -7.5158    -20.9961    -26.5340     -6.5355      0.2314      0.3444      0.4821      0.3444      0.4821      1.6070
   2995.0000      1.9640      1.8330      1.9280      1.6095      2.7877      2.7877      0.0000   -999.2500      0.2511      0.2618      1.9280      1.8330   -999.2500      1.9640     -7.4885    -20.9920    -26.5340     -6.5118      0.2318      0.3453      0.4829      0.3453      0.4829      1.6095
   2995.5000      1.9650      1.8220      1.9110      1.6467      2.7929      2.7929      0.0000   -999.2500      0.2569      0.2606      1.9110      1.8220   -999.2500      1.9650     -7.1023    -20.9880    -26.1750     -6.1759      0.2371      0.3593      0.4940      0.3593      0.4940      1.6467
