~V
VERS. 2.00: Ver 2.00
WRAP.   NO:        
~W
 STRT.FT 350:
 STOP.FT 3310:
 STEP.FT 0.5:
 NULL. -999.250000:
 COMP. Richfield (ARCO):Company
 WELL. SAN EMIDIO A #25-28:Well
 FLD. Los Lobos:Field
 LOC. S28 T11N R22W:Location
 STAT. CA:State
 SRVC. :Service Company
 SON. :Service Order #
 DATE. :Log Date
 UWI. 1538500:Unique Well ID
~C
 DEPT.FT :
 AM16.OHMM :
 AO10.OHMM :
 AO19.OHMM :
 LTHE. :
 MCRV. :
 MM. :
 PHES. :
 PHMX. :
 PHTS. :
 PHZC. :
 RD.OHMM :
 RM.OHMM :
 ROS. :
 RS.OHMM :
 SBL.MV :
 SCLN. :
 SP.MV :
 SPN. :
 VCDS. :
 VCL. :
 VCLY. :
 VCSP. :
 VCWS. :
 VSHS. :
~P
~A
# ...
   3036.5000      2.4210      2.0990      1.8360      0.7765      2.3541      2.3541      0.1753   -999.2500      0.2964      0.2863      1.8360      2.0990   -999.2500      2.4210    -13.3950    -20.6574    -33.3950    -11.6478      0.1118      0.1868      0.2329      0.1868      0.2329      0.7765
   3037.0000      2.4570      2.1360      1.8360      0.8476      2.4809      2.4809      0.1524   -999.2500      0.2941      0.2824      1.8360      2.1360   -999.2500      2.4570    -12.4960    -20.6533    -32.4960    -10.8661      0.1308      0.1931      0.2726      0.1931      0.2726      0.8476
   3037.5000      2.4580      2.1360      1.8360      0.8384      2.4301      2.4301      0.1616   -999.2500      0.2950      0.2840      1.8360      2.1360   -999.2500      2.4580    -12.8530    -20.6493    -32.8530    -11.1765      0.1232      0.1906      0.2567      0.1906      0.2567      0.8384
   3038.0000      2.4580      2.1360      1.8370      0.7233      2.3031      2.3031      0.1845   -999.2500      0.2973      0.2879      1.8370      2.1360   -999.2500      2.4580    -13.7480    -20.6453    -33.7480    -11.9548      0.1042      0.1844      0.2170      0.1844      0.2170      0.7233
   3038.5000      2.4580      2.1360      1.8370      0.6175      2.2015      2.2015      0.2028   -999.2500      0.2991      0.2911      1.8370      2.1360   -999.2500      2.4580    -14.4630    -20.6412    -34.4630    -12.5765      0.0889      0.1794      0.1852      0.1794      0.1852      0.6175
   3039.0000      2.4590      2.1730      1.8370      0.5644      2.1506      2.1506      0.2119   -999.2500      0.3000      0.2927      1.8370      2.1730   -999.2500      2.4590    -14.8200    -20.6372    -34.8200    -12.8870      0.0813      0.1769      0.1693      0.1769      0.1693      0.5644
   3039.5000      2.4590      2.1850      1.8370      0.7230      2.3029      2.3029      0.1845   -999.2500      0.2973      0.2879      1.8370      2.1850   -999.2500      2.4590    -13.7420    -20.6332    -33.7420    -11.9496      0.1041      0.1844      0.2169      0.1844      0.2169      0.7230
   3040.0000      2.4590      2.1970      1.8370      0.8612      2.5566      2.5566      0.1388   -999.2500      0.2928      0.2800      1.8370      2.1970   -999.2500      2.4590    -11.9480    -20.6292    -31.9480    -10.3896      0.1422      0.1969      0.2962      0.1969      0.2962      0.8612
   3040.5000      2.4600      2.2090      1.8370      1.2517      2.7406      2.7406      0.0000   -999.2500      0.1953      0.2720      1.8370      2.2090   -999.2500      2.4600    -10.1540    -20.6251    -30.1540     -8.8296      0.1802      0.2488      0.3755      0.2488      0.3755      1.2517
   3041.0000      2.4600      2.2460      1.8380      1.2914      2.7461      2.7461      0.0000   -999.2500      0.2015      0.2708      1.8380      2.2460   -999.2500      2.4600     -9.8830    -20.6211    -29.8830     -8.5939      0.1860      0.2586      0.3874      0.2586      0.3874      1.2914
   3041.5000      2.4430      2.2460      1.8380      1.3311      2.7516      2.7516      0.0000   -999.2500      0.2076      0.2697      1.8380      2.2460   -999.2500      2.4430     -9.6120    -20.6171    -29.6120     -8.3583      0.1917      0.2684      0.3993      0.2684      0.3993      1.3311
   3042.0000      2.4250      2.2460      1.8380      1.3575      2.7553      2.7553      0.0000   -999.2500      0.2118      0.2689      1.8380      2.2460   -999.2500      2.4250     -9.4310    -20.6130    -29.4310     -8.2009      0.1955      0.2750      0.4073      0.2750      0.4073      1.3575
   3042.5000      2.4250      2.2290      1.8380      1.3443      2.7535      2.7535      0.0000   -999.2500      0.2097      0.2692      1.8380      2.2290   -999.2500      2.4250     -9.5190    -20.6090    -29.5190     -8.2774      0.1936      0.2718      0.4033      0.2718      0.4033      1.3443
   3043.0000      2.4260      2.2110      1.8380      1.3310      2.7517      2.7517      0.0000   -999.2500      0.2076      0.2696      1.8380      2.2110   -999.2500      2.4260     -9.6070    -20.6050    -29.6070     -8.3539      0.1917      0.2686      0.3993      0.2686      0.3993      1.3310
   3043.5000      2.4260      2.2120      1.8390      1.2780      2.7444      2.7444      0.0000   -999.2500      0.1994      0.2712      1.8390      2.2120   -999.2500      2.4260     -9.9640    -20.6009    -29.9640     -8.6643      0.1840      0.2557      0.3834      0.2557      0.3834      1.2780
   3044.0000      2.4620      2.1940      1.8750      1.2251      2.7371      2.7371      0.0000   -999.2500      0.1911      0.2728      1.8750      2.1940   -999.2500      2.4620    -10.3200    -20.5969    -30.3200     -8.9739      0.1764      0.2428      0.3675      0.2428      0.3675      1.2251
   3044.5000      2.5340      2.1760      1.8750      1.1720      2.7298      2.7298      0.0000   -999.2500      0.1828      0.2744      1.8750      2.1760   -999.2500      2.5340    -10.6770    -20.5929    -30.6770     -9.2843      0.1688      0.2298      0.3516      0.2298      0.3516      1.1720
   3045.0000      2.5700      2.1770      1.9110      0.8841      2.6834      2.6834      0.1159   -999.2500      0.2905      0.2760      1.9110      2.1770   -999.2500      2.5700    -11.0330    -20.5888    -31.0330     -9.5939      0.1611      0.2169      0.3357      0.2169      0.3357      0.8841
   3045.5000      2.6060      2.1770      1.9460      0.8818      2.6705      2.6705      0.1182   -999.2500      0.2907      0.2764      1.9460      2.1770   -999.2500      2.6060    -11.1220    -20.5848    -31.1220     -9.6713      0.1592      0.2137      0.3317      0.2137      0.3317      0.8818
   3046.0000      2.6250      2.1780      2.0000      0.8795      2.6577      2.6577      0.1205   -999.2500      0.2909      0.2768      2.0000      2.1780   -999.2500      2.6250    -11.2100    -20.5808    -31.2100     -9.7478      0.1573      0.2105      0.3277      0.2105      0.3277      0.8795
   3046.5000      2.6430      2.1780      2.0540      0.8772      2.6449      2.6449      0.1228   -999.2500      0.2912      0.2772      2.0540      2.1780   -999.2500      2.6430    -11.2980    -20.5767    -31.2980     -9.8243      0.1554      0.2073      0.3237      0.2073      0.3237      0.8772
   3047.0000      2.6970      2.1780      2.1260      0.8749      2.6323      2.6323      0.1251   -999.2500      0.2914      0.2776      2.1260      2.1780   -999.2500      2.6970    -11.3850    -20.5727    -31.3850     -9.9000      0.1535      0.2042      0.3197      0.2042      0.3197      0.8749
   3047.5000      2.7510      2.1790      2.2690      0.8680      2.5939      2.5939      0.1320   -999.2500      0.2920      0.2788      2.2690      2.1790   -999.2500      2.7510    -11.6530    -20.5687    -31.6530    -10.1330      0.1477      0.1989      0.3077      0.1989      0.3077      0.8680
   3048.0000      2.8230      2.2510      2.4840      0.8611      2.5557      2.5557      0.1389   -999.2500      0.2927      0.2799      2.4840      2.2510   -999.2500      2.8230    -11.9200    -20.5646    -31.9200    -10.3652      0.1420      0.1971      0.2958      0.1971      0.2958      0.8611
   3048.5000      2.8940      2.3050      2.5200      0.8611      2.5558      2.5558      0.1389   -999.2500      0.2927      0.2799      2.5200      2.3050   -999.2500      2.8940    -11.9170    -20.5606    -31.9170    -10.3626      0.1420      0.1971      0.2958      0.1971      0.2958      0.8611
   3049.0000      3.0020      2.3590      2.5020      0.8749      2.6321      2.6321      0.1251   -999.2500      0.2914      0.2775      2.5020      2.3590   -999.2500      3.0020    -11.3780    -20.5566    -31.3780     -9.8939      0.1534      0.2044      0.3196      0.2044      0.3196      0.8749
   3049.5000      3.0740      2.8950      2.4840      0.8841      2.6831      2.6831      0.1159   -999.2500      0.2904      0.2759      2.4840      2.8950   -999.2500      3.0740    -11.0170    -20.5525    -31.0170     -9.5800      0.1611      0.2175      0.3356      0.2175      0.3356      0.8841
