~V
VERS. 2.00: Ver 2.00
WRAP.   NO:        
~W
 STRT.FT 350:
 STOP.FT 3310:
 STEP.FT 0.5:
 NULL. -999.250000:
 COMP. Richfield (ARCO):Company
 WELL. SAN EMIDIO A #25-28:Well
 FLD. Los Lobos:Field
 LOC. S28 T11N R22W:Location
 STAT. CA:State
 SRVC. :Service Company
 SON. :Service Order #
 DATE. :Log Date
 UWI. 1538500:Unique Well ID
~C
 DEPT.FT :
 AM16.OHMM :
 AO10.OHMM :
 AO19.OHMM :
 LTHE. :
 MCRV. :
 MM. :
 PHES. :
 PHMX. :
 PHTS. :
 PHZC. :
 RD.OHMM :
 RM.OHMM :
 ROS. :
 RS.OHMM :
 SBL.MV :
 SCLN. :
 SP.MV :
 SPN. :
 VCDS. :
 VCL. :
 VCLY. :
 VCSP. :
 VCWS. :
 VSHS. :
~P
~A
# ...
   2712.5000      2.0110      2.4040      2.5470      0.8543      2.5189      2.5189      0.1457   -999.2500      0.2964      0.2839      2.5470      2.4040   -999.2500      2.0110    -13.6383    -23.2702    -22.8810    -11.8594      0.1391      0.1851      0.2899      0.1851      0.2899      0.8543
   2713.0000      2.0830      2.4400      2.5830      0.8541      2.5180      2.5180      0.1459   -999.2500      0.2964      0.2839      2.5830      2.4400   -999.2500      2.0830    -13.6440    -23.2662    -22.8790    -11.8644      0.1390      0.1851      0.2896      0.1851      0.2896      0.8541
   2713.5000      2.1010      2.4760      2.6190      0.8540      2.5171      2.5171      0.1460   -999.2500      0.2964      0.2839      2.6190      2.4760   -999.2500      2.1010    -13.6488    -23.2621    -22.8760    -11.8685      0.1389      0.1851      0.2893      0.1851      0.2893      0.8540
   2714.0000      2.1190      2.5120      2.6550      0.8335      2.4037      2.4037      0.1665   -999.2500      0.2984      0.2875      2.6550      2.5120   -999.2500      2.1190    -14.5496    -23.2581    -23.7690    -12.6518      0.1218      0.1788      0.2538      0.1788      0.2538      0.8335
   2714.5000      2.1010      2.5480      2.5840      0.8374      2.4253      2.4253      0.1626   -999.2500      0.2981      0.2868      2.5840      2.5480   -999.2500      2.1010    -14.3753    -23.2541    -23.5870    -12.5003      0.1251      0.1800      0.2606      0.1800      0.2606      0.8374
   2715.0000      2.0840      2.6200      2.5490      0.8576      2.5370      2.5370      0.1424   -999.2500      0.2961      0.2833      2.5490      2.6200   -999.2500      2.0840    -13.4841    -23.2500    -22.6880    -11.7253      0.1418      0.1862      0.2955      0.1862      0.2955      0.8576
   2715.5000      2.0660      2.6920      2.5130      0.8574      2.5360      2.5360      0.1426   -999.2500      0.2961      0.2833      2.5130      2.6920   -999.2500      2.0660    -13.4899    -23.2460    -22.6860    -11.7303      0.1417      0.1862      0.2952      0.1862      0.2952      0.8574
   2716.0000      2.0490      2.6920      2.4780      0.8572      2.5351      2.5351      0.1428   -999.2500      0.2961      0.2834      2.4780      2.6920   -999.2500      2.0490    -13.4947    -23.2420    -22.6830    -11.7345      0.1415      0.1861      0.2949      0.1861      0.2949      0.8572
   2716.5000      2.0140      2.6930      2.4430      0.7707      2.3314      2.3314      0.1795   -999.2500      0.2997      0.2897      2.4430      2.6930   -999.2500      2.0140    -15.1124    -23.2379    -24.2930    -13.1412      0.1110      0.1749      0.2312      0.1749      0.2312      0.7707
   2717.0000      2.0140      2.6220      2.4070      0.6992      2.2628      2.2628      0.1918   -999.2500      0.3009      0.2919      2.4070      2.6220   -999.2500      2.0140    -15.6562    -23.2339    -24.8290    -13.6141      0.1007      0.1711      0.2097      0.1711      0.2097      0.6992
   2717.5000      2.0140      2.5150      2.4080      0.7687      2.3295      2.3295      0.1798   -999.2500      0.2997      0.2898      2.4080      2.5150   -999.2500      2.0140    -15.1230    -23.2299    -24.2880    -13.1504      0.1107      0.1748      0.2306      0.1748      0.2306      0.7687
   2718.0000      1.9790      2.4440      2.4260      0.8688      2.5992      2.5992      0.1312   -999.2500      0.2949      0.2813      2.4260      2.4440   -999.2500      1.9790    -12.9767    -23.2258    -22.1340    -11.2841      0.1511      0.1897      0.3149      0.1897      0.3149      0.8688
   2718.5000      1.9440      2.3730      2.4440      1.1895      2.7148      2.7148      0.0000   -999.2500      0.1856      0.2771      2.4440      2.3730   -999.2500      1.9440    -11.9065    -23.2218    -21.0560    -10.3535      0.1713      0.1972      0.3569      0.1972      0.3569      1.1895
   2719.0000      1.9440      2.3370      2.4620      1.3531      2.7375      2.7375      0.0000   -999.2500      0.2111      0.2722      2.4620      2.3370   -999.2500      1.9440    -10.6563    -23.2178    -19.7980     -9.2663      0.1949      0.2306      0.4059      0.2306      0.4059      1.3531
   2719.5000      1.9800      2.3020      2.4800      1.3523      2.7374      2.7374      0.0000   -999.2500      0.2110      0.2722      2.4800      2.3020   -999.2500      1.9800    -10.6610    -23.2137    -19.7950     -9.2705      0.1947      0.2304      0.4057      0.2304      0.4057      1.3523
   2720.0000      1.9800      2.2660      2.4810      1.2338      2.7210      2.7210      0.0000   -999.2500      0.1925      0.2758      2.4810      2.2660   -999.2500      1.9800    -11.5628    -23.2097    -20.6890    -10.0546      0.1777      0.1996      0.3701      0.1996      0.3701      1.2338
   2720.5000      2.0160      2.2670      2.4810      0.8842      2.6849      2.6849      0.1158   -999.2500      0.2934      0.2786      2.4810      2.2670   -999.2500      2.0160    -12.2856    -23.2057    -21.4040    -10.6831      0.1640      0.1945      0.3416      0.1945      0.3416      0.8842
   2721.0000      2.0530      2.2670      2.4990      0.8638      2.5713      2.5713      0.1362   -999.2500      0.2954      0.2822      2.4990      2.2670   -999.2500      2.0530    -13.1863    -23.2017    -22.2970    -11.4664      0.1469      0.1883      0.3061      0.1883      0.3061      0.8638
   2721.5000      2.1240      2.2670      2.5180      0.8636      2.5703      2.5703      0.1364   -999.2500      0.2954      0.2822      2.5180      2.2670   -999.2500      2.1240    -13.1921    -23.1976    -22.2950    -11.4714      0.1468      0.1882      0.3058      0.1882      0.3058      0.8636
   2722.0000      2.1780      2.2680      2.5540      0.8756      2.6372      2.6372      0.1244   -999.2500      0.2942      0.2801      2.5540      2.2680   -999.2500      2.1780    -12.6589    -23.1936    -21.7540    -11.0077      0.1568      0.1919      0.3267      0.1919      0.3267      0.8756
   2722.5000      2.2320      2.3040      2.6080      1.2762      2.7270      2.7270      0.0000   -999.2500      0.1991      0.2745      2.6080      2.3040   -999.2500      2.2320    -11.2296    -23.1896    -20.3170     -9.7649      0.1838      0.2098      0.3829      0.2098      0.3829      1.2762
   2723.0000      2.2860      2.3400      2.6620      1.3223      2.7334      2.7334      0.0000   -999.2500      0.2063      0.2731      2.6620      2.3400   -999.2500      2.2860    -10.8764    -23.1855    -19.9560     -9.4577      0.1904      0.2226      0.3967      0.2226      0.3967      1.3223
   2723.5000      2.3400      2.3580      2.6980      1.2508      2.7236      2.7236      0.0000   -999.2500      0.1951      0.2752      2.6980      2.3580   -999.2500      2.3400    -11.4192    -23.1815    -20.4910     -9.9297      0.1801      0.2029      0.3752      0.2029      0.3752      1.2508
   2724.0000      2.4840      2.3760      2.7340      1.1791      2.7137      2.7137      0.0000   -999.2500      0.1839      0.2774      2.7340      2.3760   -999.2500      2.4840    -11.9629    -23.1775    -21.0270    -10.4025      0.1698      0.1968      0.3537      0.1968      0.3537      1.1791
   2724.5000      2.5560      2.4480      2.8410      0.8748      2.6327      2.6327      0.1252   -999.2500      0.2943      0.2802      2.8410      2.4480   -999.2500      2.5560    -12.6847    -23.1734    -21.7410    -11.0302      0.1561      0.1918      0.3252      0.1918      0.3252      0.8748
   2725.0000      2.6630      2.4840      2.8780      1.1773      2.7135      2.7135      0.0000   -999.2500      0.1837      0.2774      2.8780      2.4840   -999.2500      2.6630    -11.9725    -23.1694    -21.0210    -10.4108      0.1695      0.1967      0.3532      0.1967      0.3532      1.1773
   2725.5000      2.7170      2.5560      2.9140      0.8582      2.5405      2.5405      0.1418   -999.2500      0.2959      0.2831      2.9140      2.5560   -999.2500      2.7170    -13.4112    -23.1654    -22.4520    -11.6619      0.1423      0.1867      0.2964      0.1867      0.2964      0.8582
