~V
VERS. 2.00: Ver 2.00
WRAP.   NO:        
~W
 STRT.FT 350:
 STOP.FT 3310:
 STEP.FT 0.5:
 NULL. -999.250000:
 COMP. Richfield (ARCO):Company
 WELL. SAN EMIDIO A #25-28:Well
 FLD. Los Lobos:Field
 LOC. S28 T11N R22W:Location
 STAT. CA:State
 SRVC. :Service Company
 SON. :Service Order #
 DATE. :Log Date
 UWI. 1538500:Unique Well ID
~C
 DEPT.FT :
 AM16.OHMM :
 AO10.OHMM :
 AO19.OHMM :
 LTHE. :
 MCRV. :
 MM. :
 PHES. :
 PHMX. :
 PHTS. :
 PHZC. :
 RD.OHMM :
 RM.OHMM :
 ROS. :
 RS.OHMM :
 SBL.MV :
 SCLN. :
 SP.MV :
 SPN. :
 VCDS. :
 VCL. :
 VCLY. :
 VCSP. :
 VCWS. :
 VSHS. :
~P
~A
# ...
   3131.0000      5.0510      3.4430      3.5390      0.8600      2.5494      2.5494      0.1400   -999.2500      0.2921      0.2794      3.5390      3.4430   -999.2500      5.0510    -12.3950    -21.2500    -32.3950    -10.7783      0.1404      0.1938      0.2924      0.1938      0.2924      0.8600
   3131.5000      5.0870      3.4790      3.5750      0.8563      2.5289      2.5289      0.1437   -999.2500      0.2924      0.2801      3.5750      3.4790   -999.2500      5.0870    -12.5730    -21.2981    -32.5730    -10.9330      0.1373      0.1925      0.2860      0.1925      0.2860      0.8563
   3132.0000      5.1230      3.4970      3.5930      0.8437      2.4593      2.4593      0.1563   -999.2500      0.2937      0.2823      3.5930      3.4970   -999.2500      5.1230    -13.1100    -21.3461    -33.1100    -11.4000      0.1268      0.1888      0.2642      0.1888      0.2642      0.8437
   3132.5000      5.1590      3.5150      3.6100      0.8423      2.4512      2.4512      0.1577   -999.2500      0.2938      0.2825      3.6100      3.5150   -999.2500      5.1590    -13.1990    -21.3942    -33.1990    -11.4774      0.1256      0.1882      0.2617      0.1882      0.2617      0.8423
   3133.0000      5.1950      3.5510      3.6460      0.8408      2.4431      2.4431      0.1592   -999.2500      0.2939      0.2828      3.6460      3.5510   -999.2500      5.1950    -13.2880    -21.4423    -33.2880    -11.5548      0.1244      0.1876      0.2592      0.1876      0.2592      0.8408
   3133.5000      5.2310      3.5870      3.6100      0.8372      2.4230      2.4230      0.1628   -999.2500      0.2943      0.2834      3.6100      3.5870   -999.2500      5.2310    -13.4660    -21.4904    -33.4660    -11.7096      0.1214      0.1863      0.2529      0.1863      0.2529      0.8372
   3134.0000      5.2490      3.6400      3.5750      0.8401      2.4393      2.4393      0.1599   -999.2500      0.2940      0.2829      3.5750      3.6400   -999.2500      5.2490    -13.3760    -21.5385    -33.3760    -11.6313      0.1238      0.1869      0.2580      0.1869      0.2580      0.8401
   3134.5000      5.2670      3.6940      3.5750      0.8431      2.4557      2.4557      0.1569   -999.2500      0.2937      0.2823      3.5750      3.6940   -999.2500      5.2670    -13.2850    -21.5865    -33.2850    -11.5522      0.1263      0.1876      0.2631      0.1876      0.2631      0.8431
   3135.0000      5.2320      3.9090      3.5750      0.8309      2.4115      2.4115      0.1649   -999.2500      0.2945      0.2837      3.5750      3.9090   -999.2500      5.2320    -13.6420    -21.6346    -33.6420    -11.8626      0.1196      0.1851      0.2493      0.1851      0.2493      0.8309
   3135.5000      5.2140      3.9810      3.6280      0.8100      2.3915      2.3915      0.1685   -999.2500      0.2948      0.2843      3.6280      3.9810   -999.2500      5.2140    -13.8210    -21.6827    -33.8210    -12.0183      0.1166      0.1839      0.2430      0.1839      0.2430      0.8100
   3136.0000      5.1960      4.0520      3.6820      0.7140      2.2994      2.2994      0.1851   -999.2500      0.2965      0.2872      3.6820      4.0520   -999.2500      5.1960    -14.5370    -21.7308    -34.5370    -12.6409      0.1028      0.1789      0.2142      0.1789      0.2142      0.7140
   3136.5000      5.1250      4.1240      3.7180      0.6185      2.2077      2.2077      0.2016   -999.2500      0.2981      0.2901      3.7180      4.1240   -999.2500      5.1250    -15.2530    -21.7788    -35.2530    -13.2635      0.0891      0.1739      0.1855      0.1739      0.1855      0.6185
   3137.0000      5.0540      4.1960      3.7180      0.5982      2.1883      2.1883      0.2051   -999.2500      0.2984      0.2907      3.7180      4.1960   -999.2500      5.0540    -15.4320    -21.8269    -35.4320    -13.4191      0.0861      0.1726      0.1795      0.1726      0.1795      0.5982
   3137.5000      4.9820      4.2670      3.7180      0.5906      2.1809      2.1809      0.2064   -999.2500      0.2986      0.2909      3.7180      4.2670   -999.2500      4.9820    -15.5210    -21.8750    -35.5210    -13.4965      0.0850      0.1720      0.1772      0.1720      0.1772      0.5906
   3138.0000      4.9470      4.3390      3.6460      0.5829      2.1736      2.1736      0.2077   -999.2500      0.2987      0.2911      3.6460      4.3390   -999.2500      4.9470    -15.6100    -21.9231    -35.6100    -13.5739      0.0839      0.1714      0.1749      0.1714      0.1749      0.5829
   3138.5000      4.8750      4.4100      3.5750      0.5507      2.1427      2.1427      0.2133   -999.2500      0.2992      0.2921      3.5750      4.4100   -999.2500      4.8750    -15.8770    -21.9711    -35.8770    -13.8061      0.0793      0.1696      0.1652      0.1696      0.1652      0.5507
   3139.0000      4.8400      4.4820      3.5030      0.5185      2.1118      2.1118      0.2189   -999.2500      0.2998      0.2931      3.5030      4.4820   -999.2500      4.8400    -16.1450    -22.0192    -36.1450    -14.0391      0.0747      0.1677      0.1555      0.1677      0.1555      0.5185
   3139.5000      4.8040      4.4820      3.4670      0.4500      2.0461      2.0461      0.2307   -999.2500      0.3009      0.2951      3.4670      4.4820   -999.2500      4.8040    -17.2200    -22.0673    -37.2200    -14.9739      0.0648      0.1602      0.1350      0.1602      0.1350      0.4500
   3140.0000      4.7330      4.4830      3.3960      0.4028      2.0008      2.0008      0.2389   -999.2500      0.3017      0.2965      3.3960      4.4830   -999.2500      4.7330    -18.1150    -22.1154    -38.1150    -15.7522      0.0580      0.1540      0.1208      0.1540      0.1208      0.4028
   3140.5000      4.7330      4.4830      3.3240      0.4050      2.0030      2.0030      0.2385   -999.2500      0.3017      0.2964      3.3240      4.4830   -999.2500      4.7330    -18.1140    -22.1634    -38.1140    -15.7513      0.0583      0.1540      0.1215      0.1540      0.1215      0.4050
   3141.0000      4.7510      4.4830      3.2890      0.3974      1.9957      1.9957      0.2398   -999.2500      0.3018      0.2967      3.2890      4.4830   -999.2500      4.7510    -18.2930    -22.2115    -38.2930    -15.9070      0.0572      0.1527      0.1192      0.1527      0.1192      0.3974
   3141.5000      4.7690      4.4830      3.3240      0.3702      1.9696      1.9696      0.2445   -999.2500      0.3023      0.2975      3.3240      4.4830   -999.2500      4.7690    -18.8290    -22.2596    -38.8290    -16.3730      0.0533      0.1490      0.1111      0.1490      0.1111      0.3702
   3142.0000      4.9480      4.4830      3.3600      0.3627      1.9624      1.9624      0.2458   -999.2500      0.3024      0.2977      3.3600      4.4830   -999.2500      4.9480    -19.0080    -22.3077    -39.0080    -16.5287      0.0522      0.1478      0.1088      0.1478      0.1088      0.3627
   3142.5000      5.1630      4.4840      3.4490      0.3064      1.9262      1.9262      0.2556   -999.2500      0.3034      0.2994      3.4490      4.4840   -999.2500      5.1630    -20.0830    -22.3558    -40.0830    -17.4635      0.0441      0.1403      0.0919      0.1403      0.0919      0.3064
   3143.0000      5.3060      4.4840      3.5390      0.2601      1.9123      1.9123      0.2636   -999.2500      0.3041      0.3008      3.5390      4.4840   -999.2500      5.3060    -20.9780    -22.4038    -40.9780    -18.2417      0.0375      0.1341      0.0780      0.1341      0.0780      0.2601
   3143.5000      5.3780      4.5020      3.5920      0.1751      1.8868      1.8868      0.2783   -999.2500      0.3056      0.3033      3.5920      4.5020   -999.2500      5.3780    -22.5910    -22.4519    -42.5910    -19.6443      0.0252      0.1228      0.0525      0.1228      0.0525      0.1751
   3144.0000      5.4490      4.5200      3.6460      0.1486      1.8789      1.8789      0.2828   -999.2500      0.3060      0.3041      3.6460      4.5200   -999.2500      5.4490    -23.1280    -22.5000    -43.1280    -20.1113      0.0214      0.1191      0.0446      0.1191      0.0446      0.1486
