~V
VERS. 2.00: Ver 2.00
WRAP.   NO:        
~W
 STRT.FT 350:
 STOP.FT 3310:
 STEP.FT 0.5:
 NULL. -999.250000:
 COMP. Richfield (ARCO):Company
 WELL. SAN EMIDIO A #25-28:Well
 FLD. Los Lobos:Field
 LOC. S28 T11N R22W:Location
 STAT. CA:State
 SRVC. :Service Company
 SON. :Service Order #
 DATE. :Log Date
 UWI. 1538500:Unique Well ID
~C
 DEPT.FT :
 AM16.OHMM :
 AO10.OHMM :
 AO19.OHMM :
 LTHE. :
 MCRV. :
 MM. :
 PHES. :
 PHMX. :
 PHTS. :
 PHZC. :
 RD.OHMM :
 RM.OHMM :
 ROS. :
 RS.OHMM :
 SBL.MV :
 SCLN. :
 SP.MV :
 SPN. :
 VCDS. :
 VCL. :
 VCLY. :
 VCSP. :
 VCWS. :
 VSHS. :
~P
~A
# ...
   2874.5000      1.8950      1.8050      1.6260      1.5728      2.7762      2.7762      0.0000   -999.2500      0.2454      0.2641      1.6260      1.8050   -999.2500      1.8950     -8.2323    -21.9638    -20.7050     -7.1585      0.2265      0.3184      0.4719      0.3184      0.4719      1.5728
   2875.0000      1.8950      1.7510      1.6260      1.4386      2.7577      2.7577      0.0000   -999.2500      0.2244      0.2681      1.6260      1.7510   -999.2500      1.8950     -9.4620    -21.9598    -21.9620     -8.2278      0.2072      0.2738      0.4316      0.2738      0.4316      1.4386
   2875.5000      1.9300      1.7160      1.6270      1.2431      2.7306      2.7306      0.0000   -999.2500      0.1939      0.2740      1.6270      1.7160   -999.2500      1.9300    -10.8707    -21.9557    -23.3980     -9.4528      0.1790      0.2228      0.3729      0.2228      0.3729      1.2431
   2876.0000      1.9660      1.6800      1.5910      0.8872      2.7011      2.7011      0.1128   -999.2500      0.2917      0.2768      1.5910      1.6800   -999.2500      1.9660    -11.5625    -21.9517    -24.1170    -10.0543      0.1652      0.1996      0.3441      0.1996      0.3441      0.8872
   2876.5000      2.0020      1.6800      1.5560      0.8749      2.6326      2.6326      0.1251   -999.2500      0.2929      0.2790      1.5560      1.6800   -999.2500      2.0020    -12.0752    -21.9477    -24.6570    -10.5002      0.1549      0.1960      0.3227      0.1960      0.3227      0.8749
   2877.0000      2.0910      1.6800      1.5560      0.8754      2.6357      2.6357      0.1246   -999.2500      0.2928      0.2789      1.5560      1.6800   -999.2500      2.0910    -12.0499    -21.9436    -24.6590    -10.4782      0.1553      0.1962      0.3236      0.1962      0.3236      0.8754
   2877.5000      2.1810      1.7520      1.5930      0.8846      2.6866      2.6866      0.1154   -999.2500      0.2919      0.2773      1.5930      1.7520   -999.2500      2.1810    -11.6656    -21.9396    -24.3020    -10.1440      0.1630      0.1988      0.3395      0.1988      0.3395      0.8846
   2878.0000      2.2160      1.8230      1.6290      1.3340      2.7433      2.7433      0.0000   -999.2500      0.2081      0.2712      1.6290      1.8230   -999.2500      2.2160    -10.2054    -21.9356    -22.8690     -8.8742      0.1921      0.2469      0.4002      0.2469      0.4002      1.3340
   2878.5000      2.2520      1.8230      1.7720      1.3621      2.7473      2.7473      0.0000   -999.2500      0.2125      0.2704      1.7720      1.8230   -999.2500      2.2520    -10.0011    -21.9315    -22.6920     -8.6966      0.1961      0.2543      0.4086      0.2543      0.4086      1.3621
   2879.0000      2.3590      1.8590      1.8080      1.4152      2.7546      2.7546      0.0000   -999.2500      0.2208      0.2688      1.8080      1.8590   -999.2500      2.3590     -9.6168    -21.9275    -22.3350     -8.3624      0.2038      0.2682      0.4246      0.2682      0.4246      1.4152
   2879.5000      2.3950      1.8590      1.8440      1.4310      2.7568      2.7568      0.0000   -999.2500      0.2232      0.2683      1.8440      1.8590   -999.2500      2.3950     -9.5015    -21.9235    -22.2470     -8.2622      0.2061      0.2724      0.4293      0.2724      0.4293      1.4310
   2880.0000      2.4310      1.8590      1.8620      1.4467      2.7590      2.7590      0.0000   -999.2500      0.2257      0.2678      1.8620      1.8590   -999.2500      2.4310     -9.3863    -21.9194    -22.1590     -8.1620      0.2083      0.2766      0.4340      0.2766      0.4340      1.4467
   2880.5000      2.5380      1.8590      1.8800      1.6492      2.7871      2.7871      0.0000   -999.2500      0.2573      0.2617      1.8800      1.8590   -999.2500      2.5380     -7.3890    -21.9154    -20.1890     -6.4252      0.2375      0.3489      0.4948      0.3489      0.4948      1.6492
   2881.0000      2.5740      1.8230      1.8990      1.6930      2.7932      2.7932      0.0000   -999.2500      0.2641      0.2604      1.8990      1.8230   -999.2500      2.5740     -6.9147    -21.9114    -19.7420     -6.0128      0.2438      0.3661      0.5079      0.3661      0.5079      1.6930
   2881.5000      2.6810      1.8230      1.9170      1.7367      2.7993      2.7993      0.0000   -999.2500      0.2709      0.2591      1.9170      1.8230   -999.2500      2.6810     -6.4415    -21.9073    -19.2960     -5.6013      0.2501      0.3833      0.5210      0.3833      0.5210      1.7367
   2882.0000      2.7170      1.8230      1.9000      1.6560      2.7881      2.7881      0.0000   -999.2500      0.2583      0.2615      1.9000      1.8230   -999.2500      2.7170     -7.3122    -21.9033    -20.1940     -6.3584      0.2385      0.3517      0.4968      0.3517      0.4968      1.6560
   2882.5000      2.8240      1.8230      1.8820      1.5918      2.7793      2.7793      0.0000   -999.2500      0.2483      0.2634      1.8820      1.8230   -999.2500      2.8240     -8.0039    -21.8993    -20.9130     -6.9599      0.2292      0.3267      0.4775      0.3267      0.4775      1.5918
   2883.0000      2.9310      1.8410      1.9180      1.5275      2.7704      2.7704      0.0000   -999.2500      0.2383      0.2653      1.9180      1.8410   -999.2500      2.9310     -8.6956    -21.8952    -21.6320     -7.5614      0.2200      0.3016      0.4583      0.3016      0.4583      1.5275
   2883.5000      3.0740      1.8590      1.9540      1.5131      2.7684      2.7684      0.0000   -999.2500      0.2360      0.2658      1.9540      1.8590   -999.2500      3.0740     -8.8494    -21.8912    -21.8130     -7.6951      0.2179      0.2960      0.4539      0.2960      0.4539      1.5131
   2884.0000      3.1640      1.9300      2.0260      1.5237      2.7699      2.7699      0.0000   -999.2500      0.2377      0.2655      2.0260      1.9300   -999.2500      3.1640     -8.7341    -21.8872    -21.7250     -7.5949      0.2194      0.3002      0.4571      0.3002      0.4571      1.5237
   2884.5000      3.2530      1.9660      2.2410      1.5341      2.7714      2.7714      0.0000   -999.2500      0.2393      0.2651      2.2410      1.9660   -999.2500      3.2530     -8.6198    -21.8831    -21.6380     -7.4955      0.2209      0.3044      0.4602      0.3044      0.4602      1.5341
   2885.0000      3.6460      2.0020      2.7060      1.6362      2.7855      2.7855      0.0000   -999.2500      0.2552      0.2621      2.7060      2.0020   -999.2500      3.6460     -7.5175    -21.8791    -20.5630     -6.5370      0.2356      0.3443      0.4909      0.3443      0.4909      1.6362
   2885.5000      3.7890      2.0730      2.9570      1.6716      2.7905      2.7905      0.0000   -999.2500      0.2608      0.2610      2.9570      2.0730   -999.2500      3.7890     -7.1343    -21.8751    -20.2070     -6.2037      0.2407      0.3582      0.5015      0.3582      0.5015      1.6716
   2886.0000      3.8610      2.3240      3.2790      1.6572      2.7885      2.7885      0.0000   -999.2500      0.2585      0.2614      3.2790      2.3240   -999.2500      3.8610     -7.2880    -21.8710    -20.3880     -6.3374      0.2386      0.3526      0.4972      0.3526      0.4972      1.6572
   2886.5000      3.8960      2.3950      3.7800      1.5929      2.7796      2.7796      0.0000   -999.2500      0.2485      0.2633      3.7800      2.3950   -999.2500      3.8960     -7.9797    -21.8670    -21.1070     -6.9389      0.2294      0.3275      0.4779      0.3275      0.4779      1.5929
   2887.0000      3.9320      2.8240      4.9950      1.4681      2.7624      2.7624      0.0000   -999.2500      0.2290      0.2671      4.9950      2.8240   -999.2500      3.9320     -9.2085    -21.8630    -22.3630     -8.0074      0.2114      0.2830      0.4404      0.2830      0.4404      1.4681
   2887.5000      3.5750      3.4320      9.2140      1.2967      2.7387      2.7387      0.0000   -999.2500      0.2023      0.2722      9.2140      3.4320   -999.2500      3.5750    -10.4382    -21.8590    -23.6200     -9.0767      0.1867      0.2385      0.3890      0.2385      0.3890      1.2967
