~V
VERS. 2.00: Ver 2.00
WRAP.   NO:        
~W
 STRT.FT 350:
 STOP.FT 3310:
 STEP.FT 0.5:
 NULL. -999.250000:
 COMP. Richfield (ARCO):Company
 WELL. SAN EMIDIO A #25-28:Well
 FLD. Los Lobos:Field
 LOC. S28 T11N R22W:Location
 STAT. CA:State
 SRVC. :Service Company
 SON. :Service Order #
 DATE. :Log Date
 UWI. 1538500:Unique Well ID
~C
 DEPT.FT :
 AM16.OHMM :
 AO10.OHMM :
 AO19.OHMM :
 LTHE. :
 MCRV. :
 MM. :
 PHES. :
 PHMX. :
 PHTS. :
 PHZC. :
 RD.OHMM :
 RM.OHMM :
 ROS. :
 RS.OHMM :
 SBL.MV :
 SCLN. :
 SP.MV :
 SPN. :
 VCDS. :
 VCL. :
 VCLY. :
 VCSP. :
 VCWS. :
 VSHS. :
~P
~A
# ...
   2618.0000      1.7040      1.9010      1.8230      0.8507      2.4988      2.4988      0.1493   -999.2500      0.2976      0.2853      1.8230      1.9010   -999.2500      1.7040    -14.2093    -24.0323    -24.9200    -12.3559      0.1369      0.1812      0.2852      0.1812      0.2852      0.8507
   2618.5000      1.7220      1.9010      1.8230      0.8622      2.5630      2.5630      0.1378   -999.2500      0.2965      0.2833      1.8230      1.9010   -999.2500      1.7220    -13.6791    -24.0282    -24.3820    -11.8949      0.1465      0.1848      0.3052      0.1848      0.3052      0.8622
   2619.0000      1.7230      1.9010      1.8230      0.8738      2.6271      2.6271      0.1262   -999.2500      0.2953      0.2813      1.8230      1.9010   -999.2500      1.7230    -13.1499    -24.0242    -23.8450    -11.4347      0.1561      0.1885      0.3252      0.1885      0.3252      0.8738
   2619.5000      1.7230      1.9010      1.8230      0.8736      2.6259      2.6259      0.1264   -999.2500      0.2954      0.2813      1.8230      1.9010   -999.2500      1.7230    -13.1576    -24.0202    -23.8450    -11.4414      0.1559      0.1885      0.3249      0.1885      0.3249      0.8736
   2620.0000      1.7230      1.9020      1.8230      0.8734      2.6247      2.6247      0.1266   -999.2500      0.2954      0.2814      1.8230      1.9020   -999.2500      1.7230    -13.1654    -24.0161    -23.8450    -11.4482      0.1558      0.1884      0.3245      0.1884      0.3245      0.8734
   2620.5000      1.7230      1.9020      1.8050      0.8614      2.5582      2.5582      0.1386   -999.2500      0.2965      0.2834      1.8050      1.9020   -999.2500      1.7230    -13.7102    -24.0121    -24.3820    -11.9219      0.1458      0.1846      0.3037      0.1846      0.3037      0.8614
   2621.0000      1.7230      1.9020      1.7870      0.8375      2.4261      2.4261      0.1625   -999.2500      0.2989      0.2876      1.7870      1.9020   -999.2500      1.7230    -14.7939    -24.0081    -25.4580    -12.8643      0.1259      0.1771      0.2624      0.1771      0.2624      0.8375
   2621.5000      1.7240      1.9020      1.8230      0.7142      2.2721      2.2721      0.1902   -999.2500      0.3016      0.2924      1.8230      1.9020   -999.2500      1.7240    -16.0567    -24.0040    -26.7130    -13.9623      0.1028      0.1683      0.2143      0.1683      0.2143      0.7142
   2622.0000      1.7240      1.9030      1.8230      0.4760      2.0434      2.0434      0.2314   -999.2500      0.3057      0.2995      1.8230      1.9030   -999.2500      1.7240    -18.2165    -24.0000    -28.8650    -15.8404      0.0685      0.1533      0.1428      0.1533      0.1428      0.4760
   2622.5000      1.7060      1.8850      1.8230      0.4300      1.9993      1.9993      0.2394   -999.2500      0.3064      0.3009      1.8230      1.8850   -999.2500      1.7060    -19.1202    -23.9960    -29.7610    -16.6263      0.0619      0.1470      0.1290      0.1470      0.1290      0.4300
   2623.0000      1.6880      1.8670      1.8230      0.4521      2.0206      2.0206      0.2355   -999.2500      0.3061      0.3002      1.8230      1.8670   -999.2500      1.6880    -18.6800    -23.9920    -29.3130    -16.2435      0.0651      0.1501      0.1356      0.1501      0.1356      0.4521
   2623.5000      1.6880      1.8670      1.8230      0.4743      2.0419      2.0419      0.2317   -999.2500      0.3057      0.2995      1.8230      1.8670   -999.2500      1.6880    -18.2398    -23.9879    -28.8650    -15.8607      0.0683      0.1531      0.1423      0.1531      0.1423      0.4743
   2624.0000      1.6890      1.8670      1.8230      0.6165      2.1785      2.1785      0.2071   -999.2500      0.3033      0.2953      1.8230      1.8670   -999.2500      1.6890    -16.8125    -23.9839    -27.4300    -14.6196      0.0888      0.1630      0.1850      0.1630      0.1850      0.6165
   2624.5000      1.7250      1.8680      1.7870      0.7745      2.3301      2.3301      0.1797   -999.2500      0.3006      0.2905      1.7870      1.8680   -999.2500      1.7250    -15.5653    -23.9799    -26.1750    -13.5350      0.1115      0.1717      0.2323      0.1717      0.2323      0.7745
   2625.0000      1.7250      1.8680      1.7520      0.8515      2.5037      2.5037      0.1485   -999.2500      0.2975      0.2851      1.7520      1.8680   -999.2500      1.7250    -14.1391    -23.9758    -24.7410    -12.2948      0.1375      0.1816      0.2866      0.1816      0.2866      0.8515
   2625.5000      1.7610      1.8680      1.7160      0.8710      2.6117      2.6117      0.1290   -999.2500      0.2956      0.2817      1.7160      1.8680   -999.2500      1.7610    -13.2508    -23.9718    -23.8450    -11.5225      0.1537      0.1878      0.3203      0.1878      0.3203      0.8710
   2626.0000      1.7970      1.8680      1.7160      0.8629      2.5668      2.5668      0.1371   -999.2500      0.2963      0.2831      1.7160      1.8680   -999.2500      1.7970    -13.6166    -23.9678    -24.2030    -11.8405      0.1470      0.1853      0.3063      0.1853      0.3063      0.8629
   2626.5000      1.8330      1.8680      1.6800      0.8548      2.5218      2.5218      0.1452   -999.2500      0.2971      0.2845      1.6800      1.8680   -999.2500      1.8330    -13.9834    -23.9637    -24.5620    -12.1594      0.1403      0.1827      0.2922      0.1827      0.2922      0.8548
   2627.0000      1.8690      1.8680      1.6800      0.8467      2.4770      2.4770      0.1533   -999.2500      0.2979      0.2859      1.6800      1.8680   -999.2500      1.8690    -14.3491    -23.9597    -24.9200    -12.4775      0.1335      0.1802      0.2782      0.1802      0.2782      0.8467
   2627.5000      1.9220      1.8690      1.6800      0.8426      2.4538      2.4538      0.1574   -999.2500      0.2983      0.2866      1.6800      1.8690   -999.2500      1.9220    -14.5369    -23.9557    -25.1000    -12.6408      0.1301      0.1789      0.2709      0.1789      0.2709      0.8426
   2628.0000      1.9760      1.8870      1.6800      0.8384      2.4308      2.4308      0.1616   -999.2500      0.2987      0.2873      1.6800      1.8870   -999.2500      1.9760    -14.7237    -23.9516    -25.2790    -12.8032      0.1266      0.1776      0.2637      0.1776      0.2637      0.8384
   2628.5000      2.0480      1.9050      1.7870      0.8382      2.4295      2.4295      0.1618   -999.2500      0.2988      0.2874      1.7870      1.9050   -999.2500      2.0480    -14.7314    -23.9476    -25.2790    -12.8099      0.1264      0.1775      0.2633      0.1775      0.2633      0.8382
   2629.0000      2.1190      1.9410      1.8950      0.8419      2.4502      2.4502      0.1581   -999.2500      0.2984      0.2867      1.8950      1.9410   -999.2500      2.1190    -14.5602    -23.9436    -25.1000    -12.6610      0.1295      0.1787      0.2698      0.1787      0.2698      0.8419
   2629.5000      2.1730      1.9770      1.9300      0.8397      2.4380      2.4380      0.1603   -999.2500      0.2986      0.2871      1.9300      1.9770   -999.2500      2.1730    -14.6580    -23.9395    -25.1900    -12.7461      0.1277      0.1780      0.2660      0.1780      0.2660      0.8397
   2630.0000      2.2270      2.0130      1.9660      0.8375      2.4259      2.4259      0.1625   -999.2500      0.2988      0.2875      1.9660      2.0130   -999.2500      2.2270    -14.7547    -23.9355    -25.2790    -12.8302      0.1258      0.1774      0.2622      0.1774      0.2622      0.8375
   2630.5000      2.2810      2.0480      2.0200      0.7357      2.2933      2.2933      0.1864   -999.2500      0.3012      0.2916      2.0200      2.0480   -999.2500      2.2810    -15.8385    -23.9315    -26.3550    -13.7726      0.1059      0.1698      0.2207      0.1698      0.2207      0.7357
   2631.0000      2.3350      2.0840      2.0730      0.4114      1.9819      1.9819      0.2425   -999.2500      0.3067      0.3013      2.0730      2.0840   -999.2500      2.3350    -19.4313    -23.9274    -29.9400    -16.8968      0.0592      0.1448      0.1234      0.1448      0.1234      0.4114
