~V
VERS. 2.00: Ver 2.00
WRAP.   NO:        
~W
 STRT.FT 350:
 STOP.FT 3310:
 STEP.FT 0.5:
 NULL. -999.250000:
 COMP. Richfield (ARCO):Company
 WELL. SAN EMIDIO A #25-28:Well
 FLD. Los Lobos:Field
 LOC. S28 T11N R22W:Location
 STAT. CA:State
 SRVC. :Service Company
 SON. :Service Order #
 DATE. :Log Date
 UWI. 1538500:Unique Well ID
~C
 DEPT.FT :
 AM16.OHMM :
 AO10.OHMM :
 AO19.OHMM :
 LTHE. :
 MCRV. :
 MM. :
 PHES. :
 PHMX. :
 PHTS. :
 PHZC. :
 RD.OHMM :
 RM.OHMM :
 ROS. :
 RS.OHMM :
 SBL.MV :
 SCLN. :
 SP.MV :
 SPN. :
 VCDS. :
 VCL. :
 VCLY. :
 VCSP. :
 VCWS. :
 VSHS. :
~P
~A
# ...
   3090.5000      4.4260      5.6950      3.4640      1.3973      2.7634      2.7634      0.0000   -999.2500      0.2180      0.2672      3.4640      5.6950   -999.2500      4.4260     -8.9880    -20.2219    -28.9880     -7.8157      0.2012      0.2910      0.4192      0.2910      0.4192      1.3973
   3091.0000      4.1760      5.6770      3.5000      1.3838      2.7616      2.7616      0.0000   -999.2500      0.2159      0.2676      3.5000      5.6770   -999.2500      4.1760     -9.0760    -20.2179    -29.0760     -7.8922      0.1993      0.2878      0.4151      0.2878      0.4151      1.3838
   3091.5000      4.0690      4.9980      3.5360      1.4917      2.7766      2.7766      0.0000   -999.2500      0.2327      0.2643      3.5360      4.9980   -999.2500      4.0690     -8.3570    -20.2138    -28.3570     -7.2670      0.2148      0.3139      0.4475      0.3139      0.4475      1.4917
   3092.0000      3.9980      4.3200      3.6080      1.5214      2.7807      2.7807      0.0000   -999.2500      0.2373      0.2634      3.6080      4.3200   -999.2500      3.9980     -8.0870    -20.2098    -28.0870     -7.0322      0.2191      0.3237      0.4564      0.3237      0.4564      1.5214
   3092.5000      3.9980      4.1060      3.6790      1.5485      2.7845      2.7845      0.0000   -999.2500      0.2416      0.2626      3.6790      4.1060   -999.2500      3.9980     -7.8160    -20.2058    -27.8160     -6.7965      0.2230      0.3335      0.4645      0.3335      0.4645      1.5485
   3093.0000      3.9990      4.0160      4.0370      1.6205      2.7945      2.7945      0.0000   -999.2500      0.2528      0.2605      4.0370      4.0160   -999.2500      3.9990     -7.0970    -20.2017    -27.0970     -6.1713      0.2334      0.3595      0.4862      0.3595      0.4862      1.6205
   3093.5000      4.0700      3.9270      4.2870      1.6386      2.7970      2.7970      0.0000   -999.2500      0.2556      0.2599      4.2870      3.9270   -999.2500      4.0700     -6.9160    -20.1977    -26.9160     -6.0139      0.2360      0.3661      0.4916      0.3661      0.4916      1.6386
   3094.0000      4.1420      3.8920      4.4660      1.5846      2.7895      2.7895      0.0000   -999.2500      0.2472      0.2615      4.4660      3.8920   -999.2500      4.1420     -7.4520    -20.1937    -27.4520     -6.4800      0.2282      0.3467      0.4754      0.3467      0.4754      1.5846
   3094.5000      4.3210      3.9640      4.6450      1.5126      2.7796      2.7796      0.0000   -999.2500      0.2360      0.2637      4.6450      3.9640   -999.2500      4.3210     -8.1670    -20.1896    -28.1670     -7.1017      0.2178      0.3208      0.4538      0.3208      0.4538      1.5126
   3095.0000      4.4470      4.3930      5.0740      1.4378      2.7693      2.7693      0.0000   -999.2500      0.2243      0.2659      5.0740      4.3930   -999.2500      4.4470     -8.7030    -20.1856    -28.7030     -7.5678      0.2070      0.3013      0.4313      0.3013      0.4313      1.4378
   3095.5000      4.5720      4.7510      5.6110      1.3297      2.7543      2.7543      0.0000   -999.2500      0.2074      0.2692      5.6110      4.7510   -999.2500      4.5720     -9.4180    -20.1816    -29.4180     -8.1896      0.1915      0.2754      0.3989      0.2754      0.3989      1.3297
   3096.0000      5.1800      5.0020      5.9330      1.2756      2.7469      2.7469      0.0000   -999.2500      0.1990      0.2708      5.9330      5.0020   -999.2500      5.1800     -9.7750    -20.1776    -29.7750     -8.5000      0.1837      0.2625      0.3827      0.2625      0.3827      1.2756
   3096.5000      5.1810      5.3950      6.0040      1.3026      2.7506      2.7506      0.0000   -999.2500      0.2032      0.2700      6.0040      5.3950   -999.2500      5.1810     -9.5940    -20.1735    -29.5940     -8.3426      0.1876      0.2691      0.3908      0.2691      0.3908      1.3026
   3097.0000      5.0740      5.8250      5.7900      1.3295      2.7544      2.7544      0.0000   -999.2500      0.2074      0.2691      5.7900      5.8250   -999.2500      5.0740     -9.4140    -20.1695    -29.4140     -8.1861      0.1914      0.2756      0.3988      0.2756      0.3988      1.3295
   3097.5000      5.0210      5.8070      5.3610      1.4379      2.7694      2.7694      0.0000   -999.2500      0.2243      0.2659      5.3610      5.8070   -999.2500      5.0210     -8.6940    -20.1655    -28.6940     -7.5600      0.2071      0.3017      0.4314      0.3017      0.4314      1.4379
   3098.0000      4.9670      5.7890      4.7540      1.5126      2.7798      2.7798      0.0000   -999.2500      0.2360      0.2636      4.7540      5.7890   -999.2500      4.9670     -8.1550    -20.1614    -28.1550     -7.0913      0.2178      0.3212      0.4538      0.3212      0.4538      1.5126
   3098.5000      4.7530      5.4320      4.4320      1.5668      2.7873      2.7873      0.0000   -999.2500      0.2444      0.2620      4.4320      5.4320   -999.2500      4.7530     -7.6150    -20.1574    -27.6150     -6.6217      0.2256      0.3408      0.4700      0.3408      0.4700      1.5668
   3099.0000      4.6110      5.1470      4.2890      1.6209      2.7948      2.7948      0.0000   -999.2500      0.2529      0.2604      4.2890      5.1470   -999.2500      4.6110     -7.0760    -20.1534    -27.0760     -6.1530      0.2334      0.3603      0.4863      0.3603      0.4863      1.6209
   3099.5000      4.5750      4.9330      4.2540      1.6211      2.7949      2.7949      0.0000   -999.2500      0.2529      0.2604      4.2540      4.9330   -999.2500      4.5750     -7.0730    -20.1493    -27.0730     -6.1504      0.2334      0.3604      0.4863      0.3604      0.4863      1.6211
   3100.0000      4.4330      4.5760      4.2900      1.6030      2.7924      2.7924      0.0000   -999.2500      0.2501      0.2609      4.2900      4.5760   -999.2500      4.4330     -7.2510    -20.1453    -27.2510     -6.3052      0.2308      0.3539      0.4809      0.3539      0.4809      1.6030
   3100.5000      4.3610      4.4690      4.2540      1.6301      2.7962      2.7962      0.0000   -999.2500      0.2543      0.2601      4.2540      4.4690   -999.2500      4.3610     -6.9810    -20.1413    -26.9810     -6.0704      0.2347      0.3637      0.4890      0.3637      0.4890      1.6301
   3101.0000      4.3080      4.3970      4.2180      1.6571      2.8000      2.8000      0.0000   -999.2500      0.2585      0.2593      4.2180      4.3970   -999.2500      4.3080     -6.7110    -20.1372    -26.7110     -5.8357      0.2386      0.3735      0.4971      0.3735      0.4971      1.6571
   3101.5000      4.2540      4.3790      4.1820      1.6752      2.8025      2.8025      0.0000   -999.2500      0.2613      0.2587      4.1820      4.3790   -999.2500      4.2540     -6.5310    -20.1332    -26.5310     -5.6791      0.2412      0.3800      0.5025      0.3800      0.5025      1.6752
   3102.0000      4.1120      4.3620      4.1470      1.6932      2.8050      2.8050      0.0000   -999.2500      0.2641      0.2582      4.1470      4.3620   -999.2500      4.1120     -6.3510    -20.1292    -26.3510     -5.5226      0.2438      0.3866      0.5079      0.3866      0.5079      1.6932
   3102.5000      4.0050      4.2190      4.0750      1.6569      2.8000      2.8000      0.0000   -999.2500      0.2585      0.2593      4.0750      4.2190   -999.2500      4.0050     -6.7090    -20.1251    -26.7090     -5.8339      0.2386      0.3736      0.4971      0.3736      0.4971      1.6569
   3103.0000      3.8620      4.1120      4.0040      1.6208      2.7950      2.7950      0.0000   -999.2500      0.2528      0.2603      4.0040      4.1120   -999.2500      3.8620     -7.0660    -20.1211    -27.0660     -6.1443      0.2334      0.3607      0.4862      0.3607      0.4862      1.6208
   3103.5000      3.6470      4.0410      3.8960      1.5846      2.7900      2.7900      0.0000   -999.2500      0.2472      0.2614      3.8960      4.0410   -999.2500      3.6470     -7.4240    -20.1171    -27.4240     -6.4557      0.2282      0.3477      0.4754      0.3477      0.4754      1.5846
