~V
VERS. 2.00: Ver 2.00
WRAP.   NO:        
~W
 STRT.FT 350:
 STOP.FT 3310:
 STEP.FT 0.5:
 NULL. -999.250000:
 COMP. Richfield (ARCO):Company
 WELL. SAN EMIDIO A #25-28:Well
 FLD. Los Lobos:Field
 LOC. S28 T11N R22W:Location
 STAT. CA:State
 SRVC. :Service Company
 SON. :Service Order #
 DATE. :Log Date
 UWI. 1538500:Unique Well ID
~C
 DEPT.FT :
 AM16.OHMM :
 AO10.OHMM :
 AO19.OHMM :
 LTHE. :
 MCRV. :
 MM. :
 PHES. :
 PHMX. :
 PHTS. :
 PHZC. :
 RD.OHMM :
 RM.OHMM :
 ROS. :
 RS.OHMM :
 SBL.MV :
 SCLN. :
 SP.MV :
 SPN. :
 VCDS. :
 VCL. :
 VCLY. :
 VCSP. :
 VCWS. :
 VSHS. :
~P
~A
# ...
   3239.0000      3.4810      1.7300      1.9230      0.5745   -999.2500      1.8591      0.4255      0.1798      0.4255      0.5287      1.9230      1.7300      0.9343      3.4810    -35.5080    -27.8231    -55.5080    -30.8765      0.0000      0.0330      0.0000      0.0330      0.0000      0.0000
   3239.5000      3.3740      1.6230      1.8870      0.5746   -999.2500      1.8592      0.4254      0.1798      0.4254      0.5287      1.8870      1.6230      0.9343      3.3740    -36.2240    -27.7885    -56.2240    -31.4991      0.0000      0.0280      0.0000      0.0280      0.0000      0.0000
   3240.0000      3.3570      1.5870      1.8870      0.5746   -999.2500      1.8592      0.4254      0.1798      0.4254      0.5287      1.8870      1.5870      0.9343      3.3570    -37.2980    -27.7539    -57.2980    -32.4330      0.0000      0.0205      0.0000      0.0205      0.0000      0.0000
   3240.5000      3.3390      1.5520      1.8880      0.5746   -999.2500      1.8592      0.4254      0.1798      0.4254      0.5287      1.8880      1.5520      0.9343      3.3390    -37.1180    -27.7193    -57.1180    -32.2765      0.0000      0.0218      0.0000      0.0218      0.0000      0.0000
   3241.0000      3.3030      1.4800      1.9240      0.5746   -999.2500      1.8593      0.4254      0.1798      0.4254      0.5287      1.9240      1.4800      0.9344      3.3030    -35.8620    -27.6846    -55.8620    -31.1843      0.0000      0.0305      0.0000      0.0305      0.0000      0.0000
   3241.5000      3.2680      1.5160      1.9600      0.5746   -999.2500      1.8593      0.4254      0.1798      0.4254      0.5287      1.9600      1.5160      0.9344      3.2680    -33.8890    -27.6500    -53.8890    -29.4687      0.0000      0.0443      0.0000      0.0443      0.0000      0.0000
   3242.0000      3.2680      1.6240      1.9960      0.5746   -999.2500      1.8594      0.4254      0.1798      0.4254      0.5287      1.9960      1.6240      0.9344      3.2680    -33.8890    -27.6154    -53.8890    -29.4687      0.0000      0.0443      0.0000      0.0443      0.0000      0.0000
   3242.5000      3.2680      1.6770      2.0320      0.5756   -999.2500      1.8609      0.4244      0.1797      0.4251      0.5283      2.0320      1.6770      0.9357      3.2680    -31.5570    -27.5808    -51.5570    -27.4409      0.0008      0.0605      0.0015      0.0605      0.0015      0.0051
   3243.0000      3.2860      1.7310      2.0680      0.5897   -999.2500      1.8827      0.4103      0.1786      0.4219      0.5224      2.0680      1.7310      0.9545      3.2860    -29.2260    -27.5462    -49.2260    -25.4139      0.0116      0.0767      0.0232      0.0767      0.0232      0.0774
   3243.5000      3.3040      2.0890      2.1040      0.5972   -999.2500      1.8943      0.4028      0.1780      0.4202      0.5193      2.1040      2.0890      0.9649      3.3040    -27.9700    -27.5116    -47.9700    -24.3217      0.0174      0.0854      0.0348      0.0854      0.0348      0.1159
   3244.0000      3.3400      2.4820      2.1410      0.6048   -999.2500      1.9059      0.3952      0.1775      0.4184      0.5161      2.1410      2.4820      0.9756      3.3400    -26.7140    -27.4770    -46.7140    -23.2296      0.0232      0.0942      0.0464      0.0942      0.0464      0.1546
   3244.5000      3.3760      2.8040      2.1410      0.6046   -999.2500      1.9056      0.3954      0.1775      0.4184      0.5162      2.1410      2.8040      0.9753      3.3760    -26.7130    -27.4423    -46.7130    -23.2287      0.0230      0.0942      0.0461      0.0942      0.0461      0.1535
   3245.0000      3.4300      3.0900      2.2130      0.6033   -999.2500      1.9036      0.3967      0.1776      0.4187      0.5167      2.2130      3.0900      0.9735      3.4300    -26.8910    -27.4077    -46.8910    -23.3835      0.0220      0.0929      0.0440      0.0929      0.0440      0.1468
   3245.5000      3.4840      3.6270      2.2850      0.6042   -999.2500      1.9051      0.3958      0.1775      0.4185      0.5163      2.2850      3.6270      0.9748      3.4840    -26.7110    -27.3731    -46.7110    -23.2270      0.0227      0.0942      0.0454      0.0942      0.0454      0.1515
   3246.0000      3.6270      3.8770      2.4280      0.6062   -999.2500      1.9082      0.3938      0.1774      0.4180      0.5155      2.4280      3.8770      0.9777      3.6270    -26.3520    -27.3385    -46.3520    -22.9148      0.0243      0.0967      0.0485      0.0967      0.0485      0.1618
   3246.5000      3.6980      4.0740      2.6790      0.6094   -999.2500      1.9131      0.3906      0.1771      0.4173      0.5142      2.6790      4.0740      0.9823      3.6980    -25.8130    -27.3039    -45.8130    -22.4461      0.0267      0.1004      0.0534      0.1004      0.0534      0.1779
   3247.0000      3.7700      4.2710      2.9650      0.6148   -999.2500      1.9214      0.3852      0.1767      0.4160      0.5119      2.9650      4.2710      0.9901      3.7700    -24.9160    -27.2693    -44.9160    -21.6661      0.0308      0.1067      0.0616      0.1067      0.0616      0.2055
   3247.5000      3.9490      4.7710      3.1080      0.6163   -999.2500      1.9237      0.3837      0.1766      0.4157      0.5113      3.1080      4.7710      0.9924      3.9490    -24.6460    -27.2347    -44.6460    -21.4313      0.0320      0.1085      0.0639      0.1085      0.0639      0.2131
   3248.0000      4.1280      5.0570      3.2160      0.6178   -999.2500      1.9261      0.3822      0.1765      0.4153      0.5107      3.2160      5.0570      0.9946      4.1280    -24.3760    -27.2000    -44.3760    -21.1965      0.0331      0.1104      0.0662      0.1104      0.0662      0.2207
   3248.5000      4.1640      5.1650      3.2520      0.6176   -999.2500      1.9258      0.3824      0.1765      0.4153      0.5107      3.2520      5.1650      0.9944      4.1640    -24.3750    -27.1654    -44.3750    -21.1957      0.0330      0.1104      0.0659      0.1104      0.0659      0.2198
   3249.0000      4.2000      5.1650      3.2170      0.6163   -999.2500      1.9238      0.3837      0.1766      0.4156      0.5113      3.2170      5.1650      0.9924      4.2000    -24.5530    -27.1308    -44.5530    -21.3504      0.0320      0.1092      0.0639      0.1092      0.0639      0.2131
   3249.5000      4.1290      5.1650      3.0920      0.6150   -999.2500      1.9219      0.3850      0.1767      0.4159      0.5118      3.0920      5.1650      0.9905      4.1290    -24.7320    -27.0962    -44.7320    -21.5061      0.0309      0.1080      0.0619      0.1080      0.0619      0.2063
   3250.0000      4.0930      5.0220      2.9670      0.6160   -999.2500      1.9233      0.3840      0.1766      0.4157      0.5114      2.9670      5.0220      0.9919      4.0930    -24.5520    -27.0616    -44.5520    -21.3496      0.0317      0.1092      0.0633      0.1092      0.0633      0.2111
   3250.5000      3.9860      4.8440      2.5740      0.6169   -999.2500      1.9248      0.3831      0.1765      0.4155      0.5110      2.5740      4.8440      0.9934      3.9860    -24.3710    -27.0270    -44.3710    -21.1922      0.0324      0.1105      0.0648      0.1105      0.0648      0.2159
   3251.0000      3.8790      4.6650      2.3600      0.6173   -999.2500      1.9254      0.3827      0.1765      0.4154      0.5108      2.3600      4.6650      0.9939      3.8790    -24.2810    -26.9924    -44.2810    -21.1139      0.0327      0.1111      0.0653      0.1111      0.0653      0.2178
   3251.5000      3.8430      3.9510      2.2890      0.6177   -999.2500      1.9260      0.3823      0.1765      0.4153      0.5107      2.2890      3.9510      0.9945      3.8430    -24.1910    -26.9577    -44.1910    -21.0357      0.0330      0.1117      0.0659      0.1117      0.0659      0.2197
   3252.0000      3.8080      3.7000      2.2890      0.6175   -999.2500      1.9258      0.3825      0.1765      0.4153      0.5107      2.2890      3.7000      0.9943      3.8080    -24.1900    -26.9231    -44.1900    -21.0348      0.0328      0.1117      0.0656      0.1117      0.0656      0.2187
