~V
VERS. 2.00: Ver 2.00
WRAP.   NO:        
~W
 STRT.FT 350:
 STOP.FT 3310:
 STEP.FT 0.5:
 NULL. -999.250000:
 COMP. Richfield (ARCO):Company
 WELL. SAN EMIDIO A #25-28:Well
 FLD. Los Lobos:Field
 LOC. S28 T11N R22W:Location
 STAT. CA:State
 SRVC. :Service Company
 SON. :Service Order #
 DATE. :Log Date
 UWI. 1538500:Unique Well ID
~C
 DEPT.FT :
 AM16.OHMM :
 AO10.OHMM :
 AO19.OHMM :
 LTHE. :
 MCRV. :
 MM. :
 PHES. :
 PHMX. :
 PHTS. :
 PHZC. :
 RD.OHMM :
 RM.OHMM :
 ROS. :
 RS.OHMM :
 SBL.MV :
 SCLN. :
 SP.MV :
 SPN. :
 VCDS. :
 VCL. :
 VCLY. :
 VCSP. :
 VCWS. :
 VSHS. :
~P
~A
# ...
   2564.0000      1.7390      1.9890      2.0960      1.1885      2.7064      2.7064      0.0000   -999.2500      0.1854      0.2787      2.0960      1.9890   -999.2500      1.7390    -12.5535    -24.4677    -24.1030    -10.9161      0.1711      0.1927      0.3566      0.1927      0.3566      1.1885
   2564.5000      1.7390      1.9890      2.1320      0.8796      2.6595      2.6595      0.1204   -999.2500      0.2953      0.2807      2.1320      1.9890   -999.2500      1.7390    -13.0953    -24.4637    -24.6370    -11.3872      0.1614      0.1889      0.3363      0.1889      0.3363      0.8796
   2565.0000      1.7210      2.0250      2.2750      0.8679      2.5945      2.5945      0.1321   -999.2500      0.2964      0.2828      2.2750      2.0250   -999.2500      1.7210    -13.6370    -24.4597    -25.1710    -11.8583      0.1517      0.1851      0.3160      0.1851      0.3160      0.8679
   2565.5000      1.7030      2.0970      2.3470      0.8600      2.5509      2.5509      0.1400   -999.2500      0.2972      0.2841      2.3470      2.0970   -999.2500      1.7030    -13.9998    -24.4556    -25.5260    -12.1737      0.1451      0.1826      0.3023      0.1826      0.3023      0.8600
   2566.0000      1.6680      2.1500      2.3830      0.8406      2.4430      2.4430      0.1594   -999.2500      0.2991      0.2875      2.3830      2.1500   -999.2500      1.6680    -14.9006    -24.4516    -26.4190    -12.9570      0.1289      0.1763      0.2686      0.1763      0.2686      0.8406
   2566.5000      1.6320      2.2040      2.3290      0.8327      2.3994      2.3994      0.1673   -999.2500      0.2999      0.2888      2.3290      2.2040   -999.2500      1.6320    -15.2633    -24.4476    -26.7740    -13.2725      0.1224      0.1738      0.2550      0.1738      0.2550      0.8327
   2567.0000      1.5970      2.1690      2.2760      0.8326      2.3987      2.3987      0.1674   -999.2500      0.2999      0.2889      2.2760      2.1690   -999.2500      1.5970    -15.2671    -24.4436    -26.7700    -13.2757      0.1223      0.1738      0.2547      0.1738      0.2547      0.8326
   2567.5000      1.5970      2.1690      2.2050      0.8344      2.4086      2.4086      0.1656   -999.2500      0.2997      0.2885      2.2050      2.1690   -999.2500      1.5970    -15.1819    -24.4395    -26.6770    -13.2016      0.1238      0.1744      0.2578      0.1744      0.2578      0.8344
   2568.0000      1.5970      2.1330      2.0980      0.8362      2.4185      2.4185      0.1638   -999.2500      0.2995      0.2882      2.0980      2.1330   -999.2500      1.5970    -15.0966    -24.4355    -26.5840    -13.1275      0.1252      0.1750      0.2609      0.1750      0.2609      0.8362
   2568.5000      1.5970      2.0980      2.0620      0.8515      2.5036      2.5036      0.1485   -999.2500      0.2980      0.2856      2.0620      2.0980   -999.2500      1.5970    -14.3834    -24.4315    -25.8630    -12.5073      0.1380      0.1799      0.2875      0.1799      0.2875      0.8515
   2569.0000      1.6150      2.0270      2.0270      0.8591      2.5457      2.5457      0.1409   -999.2500      0.2972      0.2842      2.0270      2.0270   -999.2500      1.6150    -14.0292    -24.4274    -25.5010    -12.1993      0.1443      0.1824      0.3006      0.1824      0.3006      0.8591
   2569.5000      1.6330      1.9190      1.9910      0.8628      2.5664      2.5664      0.1372   -999.2500      0.2969      0.2836      1.9910      1.9190   -999.2500      1.6330    -13.8539    -24.4234    -25.3180    -12.0469      0.1474      0.1836      0.3071      0.1836      0.3071      0.8628
   2570.0000      1.6340      1.8120      1.9550      0.8550      2.5227      2.5227      0.1450   -999.2500      0.2976      0.2850      1.9550      1.8120   -999.2500      1.6340    -14.2167    -24.4194    -25.6730    -12.3623      0.1408      0.1811      0.2934      0.1811      0.2934      0.8550
   2570.5000      1.6340      1.7770      1.9380      0.8509      2.5005      2.5005      0.1491   -999.2500      0.2980      0.2856      1.9380      1.7770   -999.2500      1.6340    -14.4005    -24.4153    -25.8490    -12.5221      0.1375      0.1798      0.2865      0.1798      0.2865      0.8509
   2571.0000      1.6700      1.7410      1.9200      0.8508      2.4998      2.4998      0.1492   -999.2500      0.2980      0.2857      1.9200      1.7410   -999.2500      1.6700    -14.4042    -24.4113    -25.8450    -12.5254      0.1374      0.1798      0.2862      0.1798      0.2862      0.8508
   2571.5000      1.6700      1.7770      1.9080      0.8468      2.4775      2.4775      0.1532   -999.2500      0.2984      0.2864      1.9080      1.7770   -999.2500      1.6700    -14.5880    -24.4073    -26.0210    -12.6852      0.1341      0.1785      0.2793      0.1785      0.2793      0.8468
   2572.0000      1.6880      1.8130      1.8970      0.8370      2.4230      2.4230      0.1630   -999.2500      0.2994      0.2881      1.8970      1.8130   -999.2500      1.6880    -15.0408    -24.4032    -26.4660    -13.0789      0.1259      0.1754      0.2623      0.1754      0.2623      0.8370
   2572.5000      1.7060      1.8490      1.8850      0.8174      2.3686      2.3686      0.1728   -999.2500      0.3003      0.2898      1.8850      1.8490   -999.2500      1.7060    -15.4935    -24.3992    -26.9110    -13.4726      0.1177      0.1722      0.2452      0.1722      0.2452      0.8174
   2573.0000      1.6880      1.9210      1.8760      0.7718      2.3248      2.3248      0.1807   -999.2500      0.3011      0.2911      1.8760      1.9210   -999.2500      1.6880    -15.8563    -24.3952    -27.2660    -13.7881      0.1111      0.1697      0.2315      0.1697      0.2315      0.7718
   2573.5000      1.6710      1.9210      1.8670      0.7262      2.2811      2.2811      0.1886   -999.2500      0.3019      0.2925      1.8670      1.9210   -999.2500      1.6710    -16.2191    -24.3911    -27.6210    -14.1035      0.1046      0.1672      0.2179      0.1672      0.2179      0.7262
   2574.0000      1.6710      1.9210      1.8580      0.4649      2.0302      2.0302      0.2338   -999.2500      0.3063      0.3003      1.8580      1.9210   -999.2500      1.6710    -18.7328    -24.3871    -30.1270    -16.2894      0.0669      0.1497      0.1395      0.1497      0.1395      0.4649
   2574.5000      1.6710      1.9210      1.8500      0.4600      2.0256      2.0256      0.2347   -999.2500      0.3064      0.3005      1.8500      1.9210   -999.2500      1.6710    -18.8266    -24.3831    -30.2130    -16.3709      0.0662      0.1490      0.1380      0.1490      0.1380      0.4600
   2575.0000      1.6350      1.8860      1.8320      0.4552      2.0210      2.0210      0.2355   -999.2500      0.3065      0.3006      1.8320      1.8860   -999.2500      1.6350    -18.9204    -24.3790    -30.2990    -16.4525      0.0655      0.1484      0.1366      0.1484      0.1366      0.4552
   2575.5000      1.6180      1.8140      1.8140      0.4817      2.0464      2.0464      0.2309   -999.2500      0.3060      0.2998      1.8140      1.8140   -999.2500      1.6180    -18.3871    -24.3750    -29.7580    -15.9888      0.0694      0.1521      0.1445      0.1521      0.1445      0.4817
   2576.0000      1.6000      1.8150      1.8150      0.5205      2.0837      2.0837      0.2242   -999.2500      0.3054      0.2986      1.8150      1.8150   -999.2500      1.6000    -17.8529    -24.3710    -29.2160    -15.5243      0.0750      0.1558      0.1562      0.1558      0.1562      0.5205
   2576.5000      1.5820      1.8860      1.8150      0.8338      2.4054      2.4054      0.1662   -999.2500      0.2997      0.2886      1.8150      1.8860   -999.2500      1.5820    -15.1677    -24.3669    -26.5230    -13.1893      0.1232      0.1745      0.2567      0.1745      0.2567      0.8338
   2577.0000      1.5650      1.9040      1.8150      0.8763      2.6412      2.6412      0.1237   -999.2500      0.2955      0.2812      1.8150      1.9040   -999.2500      1.5650    -13.1994    -24.3629    -24.5470    -11.4778      0.1586      0.1882      0.3303      0.1882      0.3303      0.8763
