~V
VERS. 2.00: Ver 2.00
WRAP.   NO:        
~W
 STRT.FT 350:
 STOP.FT 3310:
 STEP.FT 0.5:
 NULL. -999.250000:
 COMP. Richfield (ARCO):Company
 WELL. SAN EMIDIO A #25-28:Well
 FLD. Los Lobos:Field
 LOC. S28 T11N R22W:Location
 STAT. CA:State
 SRVC. :Service Company
 SON. :Service Order #
 DATE. :Log Date
 UWI. 1538500:Unique Well ID
~C
 DEPT.FT :
 AM16.OHMM :
 AO10.OHMM :
 AO19.OHMM :
 LTHE. :
 MCRV. :
 MM. :
 PHES. :
 PHMX. :
 PHTS. :
 PHZC. :
 RD.OHMM :
 RM.OHMM :
 ROS. :
 RS.OHMM :
 SBL.MV :
 SCLN. :
 SP.MV :
 SPN. :
 VCDS. :
 VCL. :
 VCLY. :
 VCSP. :
 VCWS. :
 VSHS. :
~P
~A
# ...
   2820.5000      1.9660      2.2160      1.9990      1.5495      2.7701      2.7701      0.0000   -999.2500      0.2417      0.2653      1.9990      2.2160   -999.2500      1.9660     -8.6537    -22.3993    -18.1810     -7.5250      0.2231      0.3031      0.4648      0.3031      0.4648      1.5495
   2821.0000      1.9660      2.1450      2.0170      1.5517      2.7704      2.7704      0.0000   -999.2500      0.2421      0.2652      2.0170      2.1450   -999.2500      1.9660     -8.6275    -22.3952    -18.1820     -7.5021      0.2234      0.3041      0.4655      0.3041      0.4655      1.5517
   2821.5000      1.9660      2.0730      2.1240      1.5619      2.7719      2.7719      0.0000   -999.2500      0.2437      0.2649      2.1240      2.0730   -999.2500      1.9660     -8.5132    -22.3912    -18.0950     -7.4028      0.2249      0.3082      0.4686      0.3082      0.4686      1.5619
   2822.0000      1.9660      2.0910      2.1250      1.5722      2.7733      2.7733      0.0000   -999.2500      0.2453      0.2646      2.1250      2.0910   -999.2500      1.9660     -8.3979    -22.3872    -18.0070     -7.3025      0.2264      0.3124      0.4717      0.3124      0.4717      1.5722
   2822.5000      2.0020      2.1090      2.1610      1.6069      2.7782      2.7782      0.0000   -999.2500      0.2507      0.2636      2.1610      2.1090   -999.2500      2.0020     -8.0136    -22.3831    -17.6500     -6.9684      0.2314      0.3263      0.4821      0.3263      0.4821      1.6069
   2823.0000      2.0020      2.1810      2.1610      1.5928      2.7762      2.7762      0.0000   -999.2500      0.2485      0.2640      2.1610      2.1810   -999.2500      2.0020     -8.1674    -22.3791    -17.8310     -7.1021      0.2294      0.3207      0.4779      0.3207      0.4779      1.5928
   2823.5000      2.0020      2.2040      2.1260      1.5788      2.7743      2.7743      0.0000   -999.2500      0.2463      0.2644      2.1260      2.2040   -999.2500      2.0020     -8.3211    -22.3751    -18.0120     -7.2357      0.2273      0.3152      0.4736      0.3152      0.4736      1.5788
   2824.0000      2.0020      2.2280      2.1260      1.5646      2.7724      2.7724      0.0000   -999.2500      0.2441      0.2648      2.1260      2.2280   -999.2500      2.0020     -8.4758    -22.3710    -18.1940     -7.3703      0.2253      0.3096      0.4694      0.3096      0.4694      1.5646
   2824.5000      2.0020      2.2520      1.8760      1.5343      2.7682      2.7682      0.0000   -999.2500      0.2393      0.2657      1.8760      2.2520   -999.2500      2.0020     -8.8085    -22.3670    -18.5540     -7.6596      0.2209      0.2975      0.4603      0.2975      0.4603      1.5343
   2825.0000      2.0020      2.2700      1.8050      1.6016      2.7776      2.7776      0.0000   -999.2500      0.2498      0.2637      1.8050      2.2700   -999.2500      2.0020     -8.0653    -22.3630    -17.8380     -7.0133      0.2306      0.3244      0.4805      0.3244      0.4805      1.6016
   2825.5000      2.0380      2.2880      1.7340      1.6688      2.7869      2.7869      0.0000   -999.2500      0.2603      0.2617      1.7340      2.2880   -999.2500      2.0380     -7.3230    -22.3589    -17.1230     -6.3678      0.2403      0.3513      0.5006      0.3513      0.5006      1.6688
   2826.0000      2.0550      2.1980      1.6810      1.7036      2.7917      2.7917      0.0000   -999.2500      0.2658      0.2606      1.6810      2.1980   -999.2500      2.0550     -6.9387    -22.3549    -16.7660     -6.0337      0.2453      0.3653      0.5111      0.3653      0.5111      1.7036
   2826.5000      2.0730      2.1090      1.6270      1.7057      2.7921      2.7921      0.0000   -999.2500      0.2661      0.2606      1.6270      2.1090   -999.2500      2.0730     -6.9135    -22.3509    -16.7680     -6.0117      0.2456      0.3662      0.5117      0.3662      0.5117      1.7057
   2827.0000      2.0730      2.0730      1.6640      1.7079      2.7924      2.7924      0.0000   -999.2500      0.2664      0.2605      1.6640      2.0730   -999.2500      2.0730     -6.8882    -22.3468    -16.7700     -5.9897      0.2459      0.3671      0.5124      0.3671      0.5124      1.7079
   2827.5000      2.0910      2.1090      1.7000      1.7101      2.7927      2.7927      0.0000   -999.2500      0.2668      0.2604      1.7000      2.1090   -999.2500      2.0910     -6.8629    -22.3428    -16.7720     -5.9677      0.2463      0.3680      0.5130      0.3680      0.5130      1.7101
   2828.0000      2.1090      2.1090      1.7360      1.6798      2.7885      2.7885      0.0000   -999.2500      0.2620      0.2613      1.7360      2.1090   -999.2500      2.1090     -7.1956    -22.3388    -17.1320     -6.2571      0.2419      0.3560      0.5039      0.3560      0.5039      1.6798
   2828.5000      2.1090      2.1090      1.7720      1.6493      2.7844      2.7844      0.0000   -999.2500      0.2573      0.2622      1.7720      2.1090   -999.2500      2.1090     -7.5294    -22.3347    -17.4930     -6.5473      0.2375      0.3439      0.4948      0.3439      0.4948      1.6493
   2829.0000      2.1270      2.1450      1.8080      1.6190      2.7802      2.7802      0.0000   -999.2500      0.2526      0.2631      1.8080      2.1450   -999.2500      2.1270     -7.8621    -22.3307    -17.8530     -6.8366      0.2331      0.3318      0.4857      0.3318      0.4857      1.6190
   2829.5000      2.1450      2.1980      1.8080      1.5723      2.7737      2.7737      0.0000   -999.2500      0.2453      0.2645      1.8080      2.1980   -999.2500      2.1450     -8.3738    -22.3267    -18.3920     -7.2816      0.2264      0.3133      0.4717      0.3133      0.4717      1.5723
   2830.0000      2.1810      2.2520      1.8090      1.5419      2.7696      2.7696      0.0000   -999.2500      0.2405      0.2654      1.8090      2.2520   -999.2500      2.1810     -8.7075    -22.3226    -18.7530     -7.5718      0.2220      0.3012      0.4626      0.3012      0.4626      1.5419
   2830.5000      2.2160      2.3230      1.8090      1.4928      2.7628      2.7628      0.0000   -999.2500      0.2329      0.2669      1.8090      2.3230   -999.2500      2.2160     -9.2193    -22.3186    -19.2920     -8.0168      0.2150      0.2826      0.4478      0.2826      0.4478      1.4928
   2831.0000      2.2880      2.3950      1.8100      1.4104      2.7514      2.7514      0.0000   -999.2500      0.2200      0.2694      1.8100      2.3950   -999.2500      2.2880     -9.8220    -22.3146    -19.9220     -8.5409      0.2031      0.2608      0.4231      0.2608      0.4231      1.4104
   2831.5000      2.3240      2.4310      1.8100      1.3279      2.7400      2.7400      0.0000   -999.2500      0.2072      0.2718      1.8100      2.4310   -999.2500      2.3240    -10.4247    -22.3106    -20.5520     -9.0650      0.1912      0.2390      0.3984      0.2390      0.3984      1.3279
   2832.0000      2.3590      2.4130      1.8280      1.2334      2.7269      2.7269      0.0000   -999.2500      0.1924      0.2747      1.8280      2.4130   -999.2500      2.3590    -11.1155    -22.3065    -21.2700     -9.6656      0.1776      0.2139      0.3700      0.2139      0.3700      1.2334
   2832.5000      2.4130      2.3950      1.8460      1.1999      2.7223      2.7223      0.0000   -999.2500      0.1872      0.2757      1.8460      2.3950   -999.2500      2.4130    -11.3592    -22.3025    -21.5410     -9.8776      0.1728      0.2051      0.3600      0.2051      0.3600      1.1999
   2833.0000      2.4670      2.3240      1.8820      0.8902      2.7174      2.7174      0.1098   -999.2500      0.2918      0.2767      1.8820      2.3240   -999.2500      2.4670    -11.6029    -22.2985    -21.8120    -10.0895      0.1680      0.1993      0.3499      0.1993      0.3499      0.8902
   2833.5000      2.5020      2.2880      1.9180      0.8801      2.6618      2.6618      0.1199   -999.2500      0.2928      0.2784      1.9180      2.2880   -999.2500      2.5020    -12.0256    -22.2944    -22.2620    -10.4571      0.1596      0.1963      0.3325      0.1963      0.3325      0.8801
