~V
VERS. 2.00: Ver 2.00
WRAP.   NO:        
~W
 STRT.FT 350:
 STOP.FT 3310:
 STEP.FT 0.5:
 NULL. -999.250000:
 COMP. Richfield (ARCO):Company
 WELL. SAN EMIDIO A #25-28:Well
 FLD. Los Lobos:Field
 LOC. S28 T11N R22W:Location
 STAT. CA:State
 SRVC. :Service Company
 SON. :Service Order #
 DATE. :Log Date
 UWI. 1538500:Unique Well ID
~C
 DEPT.FT :
 AM16.OHMM :
 AO10.OHMM :
 AO19.OHMM :
 LTHE. :
 MCRV. :
 MM. :
 PHES. :
 PHMX. :
 PHTS. :
 PHZC. :
 RD.OHMM :
 RM.OHMM :
 ROS. :
 RS.OHMM :
 SBL.MV :
 SCLN. :
 SP.MV :
 SPN. :
 VCDS. :
 VCL. :
 VCLY. :
 VCSP. :
 VCWS. :
 VSHS. :
~P
~A
# ...
   3292.5000      3.7510      3.5540      3.3190      0.9053   -999.2500      2.8326      0.0947      0.1550      0.3447      0.3926      3.3190      3.5540      2.8140      3.7510    -18.0210 1000000015047466220000000000000.0000    -38.0210    -15.6704      0.2500      0.1546      0.5000      0.1546      0.5000      0.9053
   3293.0000      3.7870      3.5010      3.2840      0.9053   -999.2500      2.8327      0.0947      0.1550      0.3447      0.3926      3.2840      3.5010      2.8141      3.7870    -18.9170 1000000015047466220000000000000.0000    -38.9170    -16.4496      0.2500      0.1484      0.5000      0.1484      0.5000      0.9053
   3293.5000      3.8230      3.4470      3.2840      0.9053   -999.2500      2.8327      0.0947      0.1550      0.3447      0.3925      3.2840      3.4470      2.8142      3.8230    -19.8120 1000000015047466220000000000000.0000    -39.8120    -17.2278      0.2500      0.1422      0.5000      0.1422      0.5000      0.9053
   3294.0000      3.8580      3.3940      3.2670      0.9053   -999.2500      2.8328      0.0947      0.1550      0.3447      0.3925      3.2670      3.3940      2.8144      3.8580    -20.0810 1000000015047466220000000000000.0000    -40.0810    -17.4617      0.2500      0.1403      0.5000      0.1403      0.5000      0.9053
   3294.5000      3.8940      3.3230      3.2490      0.9053   -999.2500      2.8328      0.0947      0.1550      0.3447      0.3925      3.2490      3.3230      2.8145      3.8940    -20.3490 1000000015047466220000000000000.0000    -40.3490    -17.6948      0.2500      0.1384      0.5000      0.1384      0.5000      0.9053
   3295.0000      4.0020      3.2510      3.2310      0.9053   -999.2500      2.8328      0.0947      0.1550      0.3447      0.3925      3.2310      3.2510      2.8146      4.0020    -20.7060 1000000015047466220000000000000.0000    -40.7060    -18.0052      0.2500      0.1360      0.5000      0.1360      0.5000      0.9053
   3295.5000      4.0730      3.2330      3.2140      0.9053   -999.2500      2.8329      0.0947      0.1550      0.3447      0.3925      3.2140      3.2330      2.8147      4.0730    -21.2430 1000000015047466220000000000000.0000    -41.2430    -18.4722      0.2500      0.1322      0.5000      0.1322      0.5000      0.9053
   3296.0000      4.1450      3.2160      3.2140      0.9053   -999.2500      2.8329      0.0947      0.1550      0.3447      0.3925      3.2140      3.2160      2.8149      4.1450    -21.5110 1000000015047466220000000000000.0000    -41.5110    -18.7052      0.2500      0.1304      0.5000      0.1304      0.5000      0.9053
   3296.5000      4.3060      3.1450      3.2150      0.9054   -999.2500      2.8330      0.0946      0.1550      0.3446      0.3925      3.2150      3.1450      2.8150      4.3060    -21.7800 1000000015047466220000000000000.0000    -41.7800    -18.9391      0.2500      0.1285      0.5000      0.1285      0.5000      0.9054
   3297.0000      4.4670      3.1450      3.2870      0.9054   -999.2500      2.8330      0.0946      0.1550      0.3446      0.3925      3.2870      3.1450      2.8151      4.4670    -22.3160 1000000015047466220000000000000.0000    -42.3160    -19.4052      0.2500      0.1248      0.5000      0.1248      0.5000      0.9054
   3297.5000      4.8250      3.1450      3.3580      0.9054   -999.2500      2.8330      0.0946      0.1550      0.3446      0.3925      3.3580      3.1450      2.8152      4.8250    -21.7770 1000000015047466220000000000000.0000    -41.7770    -18.9365      0.2500      0.1285      0.5000      0.1285      0.5000      0.9054
   3298.0000      5.3610      3.1810      3.4300      0.9054   -999.2500      2.8331      0.0946      0.1550      0.3446      0.3924      3.4300      3.1810      2.8154      5.3610    -20.8800 1000000015047466220000000000000.0000    -40.8800    -18.1565      0.2500      0.1347      0.5000      0.1347      0.5000      0.9054
   3298.5000      6.0050      3.2880      3.7170      0.9054   -999.2500      2.8331      0.0946      0.1550      0.3446      0.3924      3.7170      3.2880      2.8155      6.0050    -20.5210 1000000015047466220000000000000.0000    -40.5210    -17.8443      0.2500      0.1372      0.5000      0.1372      0.5000      0.9054
   3299.0000      6.2910      3.6100      4.1100      0.9054   -999.2500      2.8332      0.0946      0.1550      0.3446      0.3924      4.1100      3.6100      2.8156      6.2910    -20.1620 1000000015047466220000000000000.0000    -40.1620    -17.5322      0.2500      0.1397      0.5000      0.1397      0.5000      0.9054
   3299.5000      6.5410      4.2180      5.0400      0.9054   -999.2500      2.8332      0.0946      0.1550      0.3446      0.3924      5.0400      4.2180      2.8157      6.5410    -19.9810 1000000015047466220000000000000.0000    -39.9810    -17.3748      0.2500      0.1410      0.5000      0.1410      0.5000      0.9054
   3300.0000      6.5060      5.3980      5.3260      0.9054   -999.2500      2.8332      0.0946      0.1550      0.3446      0.3924      5.3260      5.3980      2.8159      6.5060    -20.3390 1000000015047466220000000000000.0000    -40.3390    -17.6861      0.2500      0.1385      0.5000      0.1385      0.5000      0.9054
   3300.5000      6.4360      5.4000      5.3620      0.9054   -999.2500      2.8333      0.0946      0.1550      0.3446      0.3924      5.3620      5.4000      2.8160      6.4360    -20.7690 1000000015047466220000000000000.0000    -40.7690    -18.0600      0.2500      0.1355      0.5000      0.1355      0.5000      0.9054
   3301.0000      6.1520      5.2580      5.3260      0.9055   -999.2500      2.8333      0.0945      0.1550      0.3445      0.3924      5.3260      5.2580      2.8161      6.1520    -21.2000 1000000015047466220000000000000.0000    -41.2000    -18.4348      0.2500      0.1325      0.5000      0.1325      0.5000      0.9055
   3301.5000      5.9040      5.2060      5.2190      0.9055   -999.2500      2.8334      0.0945      0.1550      0.3445      0.3924      5.2190      5.2060      2.8163      5.9040    -21.5400 1000000015047466220000000000000.0000    -41.5400    -18.7304      0.2500      0.1302      0.5000      0.1302      0.5000      0.9055
   3302.0000      5.7620      5.1540      4.5040      0.9055   -999.2500      2.8334      0.0945      0.1550      0.3445      0.3924      4.5040      5.1540      2.8164      5.7620    -21.2530 1000000015047466220000000000000.0000    -41.2530    -18.4809      0.2500      0.1322      0.5000      0.1322      0.5000      0.9055
   3302.5000      5.4070      4.6200      3.6460      0.9055   -999.2500      2.8334      0.0945      0.1550      0.3445      0.3923      3.6460      4.6200      2.8165      5.4070    -20.9660 1000000015047466220000000000000.0000    -40.9660    -18.2313      0.2500      0.1341      0.5000      0.1341      0.5000      0.9055
   3303.0000      5.1220      4.1570      3.4670      0.9055   -999.2500      2.8335      0.0945      0.1550      0.3445      0.3923      3.4670      4.1570      2.8166      5.1220    -20.5900 1000000015047466220000000000000.0000    -40.5900    -17.9043      0.2500      0.1368      0.5000      0.1368      0.5000      0.9055
   3303.5000      4.6600      3.2300      3.2890      0.9055   -999.2500      2.8335      0.0945      0.1550      0.3445      0.3923      3.2890      3.2300      2.8168      4.6600    -20.2130 1000000015047466220000000000000.0000    -40.2130    -17.5765      0.2500      0.1394      0.5000      0.1394      0.5000      0.9055
   3304.0000      4.3400      3.1060      3.1280      0.9055   -999.2500      2.8336      0.0945      0.1550      0.3445      0.3923      3.1280      3.1060      2.8169      4.3400    -19.9270 1000000015047466220000000000000.0000    -39.9270    -17.3278      0.2500      0.1414      0.5000      0.1414      0.5000      0.9055
   3304.5000      4.3410      2.9830      2.9670      0.9055   -999.2500      2.8336      0.0945      0.1550      0.3445      0.3923      2.9670      2.9830      2.8170      4.3410    -19.6400 1000000015047466220000000000000.0000    -39.6400    -17.0783      0.2500      0.1434      0.5000      0.1434      0.5000      0.9055
