~V
VERS. 2.00: Ver 2.00
WRAP.   NO:        
~W
 STRT.FT 350:
 STOP.FT 3310:
 STEP.FT 0.5:
 NULL. -999.250000:
 COMP. Richfield (ARCO):Company
 WELL. SAN EMIDIO A #25-28:Well
 FLD. Los Lobos:Field
 LOC. S28 T11N R22W:Location
 STAT. CA:State
 SRVC. :Service Company
 SON. :Service Order #
 DATE. :Log Date
 UWI. 1538500:Unique Well ID
~C
 DEPT.FT :
 AM16.OHMM :
 AO10.OHMM :
 AO19.OHMM :
 LTHE. :
 MCRV. :
 MM. :
 PHES. :
 PHMX. :
 PHTS. :
 PHZC. :
 RD.OHMM :
 RM.OHMM :
 ROS. :
 RS.OHMM :
 SBL.MV :
 SCLN. :
 SP.MV :
 SPN. :
 VCDS. :
 VCL. :
 VCLY. :
 VCSP. :
 VCWS. :
 VSHS. :
~P
~A
# ...
   2766.5000      1.9420      2.4780      2.1920      0.6920      2.2585      2.2585      0.1926   -999.2500      0.3005      0.2916      2.1920      2.4780   -999.2500      1.9420    -15.4411    -22.8347    -23.8450    -13.4271      0.0996      0.1726      0.2076      0.1726      0.2076      0.6920
   2767.0000      1.9430      2.4790      2.3360      0.7148      2.2805      2.2805      0.1886   -999.2500      0.3001      0.2909      2.3360      2.4790   -999.2500      1.9430    -15.2669    -22.8307    -23.6630    -13.2756      0.1029      0.1738      0.2144      0.1738      0.2144      0.7148
   2767.5000      1.9430      2.4610      2.3540      0.7377      2.3025      2.3025      0.1847   -999.2500      0.2998      0.2902      2.3540      2.4610   -999.2500      1.9430    -15.0927    -22.8267    -23.4810    -13.1240      0.1062      0.1750      0.2213      0.1750      0.2213      0.7377
   2768.0000      1.9430      2.4440      2.3720      0.8083      2.3703      2.3703      0.1724   -999.2500      0.2985      0.2881      2.3720      2.4440   -999.2500      1.9430    -14.5604    -22.8226    -22.9410    -12.6612      0.1164      0.1787      0.2425      0.1787      0.2425      0.8083
   2768.5000      1.9440      2.3900      2.3730      0.8357      2.4153      2.4153      0.1643   -999.2500      0.2977      0.2867      2.3730      2.3900   -999.2500      1.9440    -14.2062    -22.8186    -22.5790    -12.3532      0.1232      0.1812      0.2566      0.1812      0.2566      0.8357
   2769.0000      1.9440      2.3370      2.3730      0.8603      2.5521      2.5521      0.1397   -999.2500      0.2953      0.2824      2.3730      2.3370   -999.2500      1.9440    -13.1360    -22.8146    -21.5010    -11.4226      0.1437      0.1886      0.2993      0.1886      0.2993      0.8603
   2769.5000      1.9260      2.3200      2.3730      0.8809      2.6660      2.6660      0.1191   -999.2500      0.2933      0.2788      2.3730      2.3200   -999.2500      1.9260    -12.2447    -22.8105    -20.6020    -10.6476      0.1607      0.1948      0.3349      0.1948      0.3349      0.8809
   2770.0000      1.9090      2.3020      2.3740      0.8766      2.6422      2.6422      0.1234   -999.2500      0.2937      0.2796      2.3740      2.3020   -999.2500      1.9090    -12.4285    -22.8065    -20.7780    -10.8074      0.1572      0.1935      0.3274      0.1935      0.3274      0.8766
   2770.5000      1.8740      2.2670      2.3740      0.8723      2.6183      2.6183      0.1277   -999.2500      0.2941      0.2803      2.3740      2.2670   -999.2500      1.8740    -12.6133    -22.8025    -20.9550    -10.9680      0.1536      0.1923      0.3199      0.1923      0.3199      0.8723
   2771.0000      1.8740      2.2490      2.3740      0.8700      2.6059      2.6059      0.1300   -999.2500      0.2943      0.2807      2.3740      2.2490   -999.2500      1.8740    -12.7080    -22.7984    -21.0420    -11.0505      0.1517      0.1916      0.3161      0.1916      0.3161      0.8700
   2771.5000      1.8740      2.2320      2.3390      0.8678      2.5933      2.5933      0.1322   -999.2500      0.2946      0.2811      2.3390      2.2320   -999.2500      1.8740    -12.8038    -22.7944    -21.1300    -11.1337      0.1498      0.1909      0.3121      0.1909      0.3121      0.8678
   2772.0000      1.8390      2.2140      2.3390      1.2311      2.7234      2.7234      0.0000   -999.2500      0.1921      0.2753      2.3390      2.2140   -999.2500      1.8390    -11.3736    -22.7904    -19.6920     -9.8900      0.1773      0.2046      0.3693      0.2046      0.3693      1.2311
   2772.5000      1.8390      2.1970      2.3220      1.3738      2.7432      2.7432      0.0000   -999.2500      0.2143      0.2711      2.3220      2.1970   -999.2500      1.8390    -10.3033    -22.7863    -18.6140     -8.9594      0.1978      0.2434      0.4121      0.2434      0.4121      1.3738
   2773.0000      1.8390      2.1610      2.3040      1.5750      2.7711      2.7711      0.0000   -999.2500      0.2457      0.2650      2.3040      2.1610   -999.2500      1.8390     -8.5151    -22.7823    -16.8180     -7.4044      0.2268      0.3081      0.4725      0.3081      0.4725      1.5750
   2773.5000      1.8400      2.1260      2.2810      1.5904      2.7733      2.7733      0.0000   -999.2500      0.2481      0.2646      2.2810      2.1260   -999.2500      1.8400     -8.3409    -22.7783    -16.6360     -7.2529      0.2290      0.3145      0.4771      0.3145      0.4771      1.5904
   2774.0000      1.8400      2.1260      2.2570      1.6058      2.7754      2.7754      0.0000   -999.2500      0.2505      0.2641      2.2570      2.1260   -999.2500      1.8400     -8.1666    -22.7742    -16.4540     -7.1014      0.2312      0.3208      0.4817      0.3208      0.4817      1.6058
   2774.5000      1.8760      2.1620      2.2340      1.6212      2.7776      2.7776      0.0000   -999.2500      0.2529      0.2636      2.2340      2.1620   -999.2500      1.8760     -7.9924    -22.7702    -16.2720     -6.9499      0.2334      0.3271      0.4863      0.3271      0.4863      1.6212
   2775.0000      1.8770      2.1980      2.2160      1.6366      2.7797      2.7797      0.0000   -999.2500      0.2553      0.2632      2.2160      2.1980   -999.2500      1.8770     -7.8182    -22.7662    -16.0900     -6.7984      0.2357      0.3334      0.4910      0.3334      0.4910      1.6366
   2775.5000      1.8770      2.2340      2.1990      1.6679      2.7841      2.7841      0.0000   -999.2500      0.2602      0.2622      2.1990      2.2340   -999.2500      1.8770     -7.4649    -22.7621    -15.7290     -6.4912      0.2402      0.3462      0.5004      0.3462      0.5004      1.6679
   2776.0000      1.8770      2.2710      2.1990      1.6993      2.7885      2.7885      0.0000   -999.2500      0.2651      0.2613      2.1990      2.2710   -999.2500      1.8770     -7.1117    -22.7581    -15.3680     -6.1841      0.2447      0.3590      0.5098      0.3590      0.5098      1.6993
   2776.5000      1.8780      2.2710      2.1990      1.7627      2.7973      2.7973      0.0000   -999.2500      0.2750      0.2594      2.1990      2.2710   -999.2500      1.8780     -6.3995    -22.7541    -14.6480     -5.5647      0.2538      0.3848      0.5288      0.3848      0.5288      1.7627
   2777.0000      1.8780      2.2360      2.2000      1.7941      2.8016      2.8016      0.0000   -999.2500      0.2799      0.2584      2.2000      2.2360   -999.2500      1.8780     -6.0462    -22.7501    -14.2870     -5.2576      0.2583      0.3976      0.5382      0.3976      0.5382      1.7941
   2777.5000      1.8780      2.2000      2.2000      1.8575      2.8105      2.8105      0.0000   -999.2500      0.2806      0.2565      2.2000      2.2000   -999.2500      1.8780     -5.3340    -22.7460    -13.5670     -4.6383      0.2675      0.4234      0.5573      0.4234      0.5480      1.8575
   2778.0000      1.8790      2.1650      2.2000      1.8890      2.8148      2.8148      0.0000   -999.2500      0.2800      0.2556      2.2000      2.1650   -999.2500      1.8790     -4.9808    -22.7420    -13.2060     -4.3311      0.2720      0.4362      0.5667      0.4362      0.5520      1.8890
   2778.5000      1.8790      2.1650      2.2010      1.9365      2.8214      2.8214      0.0000   -999.2500      0.2792      0.2541      2.2010      2.1650   -999.2500      1.8790     -4.4475    -22.7380    -12.6650     -3.8674      0.2789      0.4538      0.5809      0.4538      0.5581      1.9365
   2779.0000      1.8800      2.1650      2.2010      1.9199      2.8192      2.8192      0.0000   -999.2500      0.2795      0.2546      2.2010      2.1650   -999.2500      1.8800     -4.6323    -22.7339    -12.8420     -4.0281      0.2765      0.4488      0.5760      0.4488      0.5560      1.9199
   2779.5000      1.8800      2.1300      2.1660      1.9034      2.8169      2.8169      0.0000   -999.2500      0.2798      0.2551      2.1660      2.1300   -999.2500      1.8800     -4.8161    -22.7299    -13.0180     -4.1879      0.2741      0.4422      0.5710      0.4422      0.5539      1.9034
