~V
VERS. 2.00: Ver 2.00
WRAP.   NO:        
~W
 STRT.FT 350:
 STOP.FT 3310:
 STEP.FT 0.5:
 NULL. -999.250000:
 COMP. Richfield (ARCO):Company
 WELL. SAN EMIDIO A #25-28:Well
 FLD. Los Lobos:Field
 LOC. S28 T11N R22W:Location
 STAT. CA:State
 SRVC. :Service Company
 SON. :Service Order #
 DATE. :Log Date
 UWI. 1538500:Unique Well ID
~C
 DEPT.FT :
 AM16.OHMM :
 AO10.OHMM :
 AO19.OHMM :
 LTHE. :
 MCRV. :
 MM. :
 PHES. :
 PHMX. :
 PHTS. :
 PHZC. :
 RD.OHMM :
 RM.OHMM :
 ROS. :
 RS.OHMM :
 SBL.MV :
 SCLN. :
 SP.MV :
 SPN. :
 VCDS. :
 VCL. :
 VCLY. :
 VCSP. :
 VCWS. :
 VSHS. :
~P
~A
# ...
   2928.5000      2.5840      2.5840      2.0840      0.8757      2.6368      2.6368      0.1243   -999.2500      0.2924      0.2784      2.0840      2.5840   -999.2500      2.5840    -11.8338    -21.5283    -27.2520    -10.2903      0.1551      0.1977      0.3231      0.1977      0.3231      0.8757
   2929.0000      2.5840      2.5130      2.0480      0.8719      2.6159      2.6159      0.1281   -999.2500      0.2927      0.2791      2.0480      2.5130   -999.2500      2.5840    -11.9855    -21.5243    -27.4310    -10.4222      0.1520      0.1966      0.3166      0.1966      0.3166      0.8719
   2929.5000      2.5840      2.5130      2.0480      0.8681      2.5951      2.5951      0.1319   -999.2500      0.2931      0.2797      2.0480      2.5130   -999.2500      2.5840    -12.1373    -21.5203    -27.6100    -10.5542      0.1488      0.1956      0.3100      0.1956      0.3100      0.8681
   2930.0000      2.5840      2.4950      2.0480      0.8863      2.6960      2.6960      0.1137   -999.2500      0.2913      0.2765      2.0480      2.4950   -999.2500      2.5840    -11.3920    -21.5162    -26.8920     -9.9061      0.1640      0.2039      0.3416      0.2039      0.3416      0.8863
   2930.5000      2.6200      2.4770      2.0840      1.1675      2.7231      2.7231      0.0000   -999.2500      0.1821      0.2757      2.0840      2.4770   -999.2500      2.6200    -11.1857    -21.5122    -26.7130     -9.7267      0.1681      0.2114      0.3502      0.2114      0.3502      1.1675
   2931.0000      2.6210      2.4780      2.1200      1.1964      2.7271      2.7271      0.0000   -999.2500      0.1866      0.2748      2.1200      2.4780   -999.2500      2.6210    -10.9795    -21.5082    -26.5340     -9.5474      0.1723      0.2189      0.3589      0.2189      0.3589      1.1964
   2931.5000      2.6210      2.4780      2.2280      1.1872      2.7259      2.7259      0.0000   -999.2500      0.1852      0.2751      2.2280      2.4780   -999.2500      2.6210    -11.0422    -21.5041    -26.6240     -9.6019      0.1710      0.2166      0.3562      0.2166      0.3562      1.1872
   2932.0000      2.6210      2.4420      2.2990      1.1782      2.7246      2.7246      0.0000   -999.2500      0.1838      0.2753      2.2990      2.4420   -999.2500      2.6210    -11.1039    -21.5001    -26.7130     -9.6556      0.1697      0.2144      0.3535      0.2144      0.3535      1.1782
   2932.5000      2.6210      2.4240      2.4070      0.8894      2.7131      2.7131      0.1106   -999.2500      0.2910      0.2760      2.4070      2.4240   -999.2500      2.6210    -11.2566    -21.4961    -26.8930     -9.7884      0.1665      0.2088      0.3469      0.2088      0.3469      0.8894
   2933.0000      2.6570      2.4070      2.4780      0.8856      2.6922      2.6922      0.1144   -999.2500      0.2913      0.2766      2.4780      2.4070   -999.2500      2.6570    -11.4084    -21.4920    -27.0720     -9.9203      0.1634      0.2033      0.3403      0.2033      0.3403      0.8856
   2933.5000      2.6750      2.3710      2.6210      0.8818      2.6711      2.6711      0.1182   -999.2500      0.2917      0.2773      2.6210      2.3710   -999.2500      2.6750    -11.5611    -21.4880    -27.2520    -10.0531      0.1602      0.1996      0.3338      0.1996      0.3338      0.8818
   2934.0000      2.6930      2.3710      2.6930      0.8781      2.6502      2.6502      0.1219   -999.2500      0.2921      0.2779      2.6930      2.3710   -999.2500      2.6930    -11.7128    -21.4840    -27.4310    -10.1851      0.1571      0.1985      0.3272      0.1985      0.3272      0.8781
   2934.5000      2.7290      2.3720      2.6930      0.8743      2.6293      2.6293      0.1257   -999.2500      0.2924      0.2786      2.6930      2.3720   -999.2500      2.7290    -11.8645    -21.4799    -27.6100    -10.3170      0.1539      0.1975      0.3207      0.1975      0.3207      0.8743
   2935.0000      2.7650      2.3720      2.6580      0.8705      2.6084      2.6084      0.1295   -999.2500      0.2928      0.2792      2.6580      2.3720   -999.2500      2.7650    -12.0163    -21.4759    -27.7890    -10.4489      0.1508      0.1964      0.3141      0.1964      0.3141      0.8705
   2935.5000      2.7830      2.3720      2.6220      0.8733      2.6240      2.6240      0.1267   -999.2500      0.2925      0.2787      2.6220      2.3720   -999.2500      2.7830    -11.9000    -21.4719    -27.7000    -10.3478      0.1531      0.1972      0.3190      0.1972      0.3190      0.8733
   2936.0000      2.8010      2.3900      2.6580      0.8762      2.6396      2.6396      0.1238   -999.2500      0.2922      0.2783      2.6580      2.3900   -999.2500      2.8010    -11.7827    -21.4678    -27.6100    -10.2459      0.1555      0.1980      0.3239      0.1980      0.3239      0.8762
   2936.5000      2.9980      2.4080      2.7300      0.8768      2.6431      2.6431      0.1232   -999.2500      0.2922      0.2781      2.7300      2.4080   -999.2500      2.9980    -11.7555    -21.4638    -27.6100    -10.2221      0.1560      0.1982      0.3249      0.1982      0.3249      0.8768
   2937.0000      3.1950      2.4440      2.9090      0.8686      2.5978      2.5978      0.1314   -999.2500      0.2930      0.2796      2.9090      2.4440   -999.2500      3.1950    -12.0862    -21.4598    -27.9680    -10.5097      0.1492      0.1959      0.3108      0.1959      0.3108      0.8686
   2937.5000      3.6240      2.4800      3.0160      0.8670      2.5890      2.5890      0.1330   -999.2500      0.2931      0.2798      3.0160      2.4800   -999.2500      3.6240    -12.1489    -21.4557    -28.0580    -10.5643      0.1478      0.1955      0.3080      0.1955      0.3080      0.8670
   2938.0000      3.8030      2.5520      3.2670      0.8654      2.5801      2.5801      0.1346   -999.2500      0.2933      0.2801      3.2670      2.5520   -999.2500      3.8030    -12.2116    -21.4517    -28.1480    -10.6188      0.1465      0.1950      0.3052      0.1950      0.3052      0.8654
   2938.5000      4.1600      2.6590      3.7670      0.8617      2.5592      2.5592      0.1383   -999.2500      0.2936      0.2807      3.7670      2.6590   -999.2500      4.1600    -12.3634    -21.4477    -28.3270    -10.7508      0.1434      0.1940      0.2987      0.1940      0.2987      0.8617
   2939.0000      4.4820      2.7660      4.2680      0.8579      2.5382      2.5382      0.1421   -999.2500      0.2940      0.2814      4.2680      2.7660   -999.2500      4.4820    -12.5151    -21.4436    -28.5060    -10.8827      0.1402      0.1929      0.2921      0.1929      0.2921      0.8579
   2939.5000      4.5180      3.0170      4.6970      0.8585      2.5416      2.5416      0.1415   -999.2500      0.2940      0.2813      4.6970      3.0170   -999.2500      4.5180    -12.4878    -21.4396    -28.5060    -10.8590      0.1407      0.1931      0.2932      0.1931      0.2932      0.8585
   2940.0000      4.4830      3.1240      5.1260      0.8026      2.3740      2.3740      0.1717   -999.2500      0.2969      0.2865      5.1260      3.1240   -999.2500      4.4830    -13.7155    -21.4356    -29.7610    -11.9266      0.1156      0.1846      0.2408      0.1846      0.2408      0.8026
   2940.5000      4.1610      3.3390      5.5910      0.6025      2.1819      2.1819      0.2063   -999.2500      0.3003      0.2925      5.5910      3.3390   -999.2500      4.1610    -15.1223    -21.4315    -31.1950    -13.1498      0.0868      0.1748      0.1807      0.1748      0.1807      0.6025
   2941.0000      3.7320      4.5190      5.5550      0.5550      2.1363      2.1363      0.2146   -999.2500      0.3011      0.2939      5.5550      4.5190   -999.2500      3.7320    -15.4540    -21.4275    -31.5540    -13.4383      0.0799      0.1725      0.1665      0.1725      0.1665      0.5550
   2941.5000      3.5890      5.3410      4.9480      0.4928      2.0766      2.0766      0.2253   -999.2500      0.3022      0.2958      4.9480      5.3410   -999.2500      3.5890    -15.9647    -21.4235    -32.0920    -13.8824      0.0710      0.1689      0.1478      0.1689      0.1478      0.4928
