~V
VERS. 2.00: Ver 2.00
WRAP.   NO:        
~W
 STRT.FT 350:
 STOP.FT 6660:
 STEP.FT 0.5:
 NULL. -999.250000:
 COMP. Richfield (ARCO):Company
 WELL. SAN EMIDIO A 27-20 REDRILL:Well
 FLD. Los Lobos:Field
 LOC. S20 T11N R22W:Location
 STAT. CA:State
 SRVC. :Service Company
 SON. :Service Order #
 DATE. :Log Date
 UWI. 0143701:Unique Well ID
~C
 DEPT.FT :
 AM16.OHMM :
 AO10.OHMM :
 AO19.OHMM :
 LTHE. :
 MCRV. :
 MM. :
 PHES. :
 PHMX. :
 PHTS. :
 PHZC. :
 RD.OHMM :
 RM.OHMM :
 ROS. :
 RS.OHMM :
 SBL.MV :
 SCLN. :
 SP.MV :
 SPN.MV :
 VCDS. :
 VCLY. :
 VCWS. :
 VSHS. :
~P
~A
# ...
   5193.0000      3.0543      2.5810      2.6960   -999.2500   -999.2500   -999.2500   -999.2500   -999.2500   -999.2500   -999.2500      2.6960      2.5813   -999.2500      3.0540    -10.9482   -999.2500    -14.6373    -10.9482   -999.2500   -999.2500   -999.2500   -999.2500
   5193.5000      3.1053      2.6350      2.7170   -999.2500   -999.2500   -999.2500   -999.2500   -999.2500   -999.2500   -999.2500      2.7170      2.6353   -999.2500      3.1050    -11.0805   -999.2500    -14.7463    -11.0805   -999.2500   -999.2500   -999.2500   -999.2500
   5194.0000      3.1263      2.6890      2.7460   -999.2500   -999.2500   -999.2500   -999.2500   -999.2500   -999.2500   -999.2500      2.7460      2.6893   -999.2500      3.1260    -11.4648   -999.2500    -15.1073    -11.4648   -999.2500   -999.2500   -999.2500   -999.2500
   5194.5000      3.1693      2.7750      2.7960   -999.2500   -999.2500   -999.2500   -999.2500   -999.2500   -999.2500   -999.2500      2.7960      2.7753   -999.2500      3.1690    -12.5692   -999.2500    -16.1883    -12.5692   -999.2500   -999.2500   -999.2500   -999.2500
   5195.0000      3.1913      2.8540      2.8250   -999.2500   -999.2500   -999.2500   -999.2500   -999.2500   -999.2500   -999.2500      2.8250      2.8543   -999.2500      3.1910    -13.8895   -999.2500    -17.4853    -13.8895   -999.2500   -999.2500   -999.2500   -999.2500
   5195.5000      3.2053      2.9110      2.8680   -999.2500   -999.2500   -999.2500   -999.2500   -999.2500   -999.2500   -999.2500      2.8680      2.9113   -999.2500      3.2050    -14.7418   -999.2500    -18.3144    -14.7418   -999.2500   -999.2500   -999.2500   -999.2500
   5196.0000      3.1273      2.9540      2.8900   -999.2500   -999.2500   -999.2500   -999.2500   -999.2500   -999.2500   -999.2500      2.8900      2.9543   -999.2500      3.1270    -15.3062   -999.2500    -18.8554    -15.3062   -999.2500   -999.2500   -999.2500   -999.2500
   5196.5000      3.0413      2.9830      2.9040   -999.2500   -999.2500   -999.2500   -999.2500   -999.2500   -999.2500   -999.2500      2.9040      2.9833   -999.2500      3.0410    -15.3305   -999.2500    -18.8564    -15.3305   -999.2500   -999.2500   -999.2500   -999.2500
   5197.0000      2.9403      2.9760      2.8900   -999.2500   -999.2500   -999.2500   -999.2500   -999.2500   -999.2500   -999.2500      2.8900      2.9763   -999.2500      2.9400    -14.5278   -999.2500    -18.0304    -14.5278   -999.2500   -999.2500   -999.2500   -999.2500
   5197.5000      2.8403      2.8180      2.8470   -999.2500   -999.2500   -999.2500   -999.2500   -999.2500   -999.2500   -999.2500      2.8470      2.8183   -999.2500      2.8400    -12.4640   -999.2500    -15.9433    -12.4640   -999.2500   -999.2500   -999.2500   -999.2500
   5198.0000      2.7833      2.6680      2.7470   -999.2500   -999.2500   -999.2500   -999.2500   -999.2500   -999.2500   -999.2500      2.7470      2.6683   -999.2500      2.7830    -10.7243   -999.2500    -14.1803    -10.7243   -999.2500   -999.2500   -999.2500   -999.2500
   5198.5000      2.6973      2.5960      2.6030   -999.2500   -999.2500   -999.2500   -999.2500   -999.2500   -999.2500   -999.2500      2.6030      2.5963   -999.2500      2.6970     -9.5966   -999.2500    -13.0293     -9.5966   -999.2500   -999.2500   -999.2500   -999.2500
   5199.0000      2.6543      2.5890      2.5170   -999.2500   -999.2500   -999.2500   -999.2500   -999.2500   -999.2500   -999.2500      2.5170      2.5893   -999.2500      2.6540     -9.0089   -999.2500    -12.4183     -9.0089   -999.2500   -999.2500   -999.2500   -999.2500
   5199.5000      2.5963      2.5890      2.5250   -999.2500   -999.2500   -999.2500   -999.2500   -999.2500   -999.2500   -999.2500      2.5250      2.5893   -999.2500      2.5960     -8.5652   -999.2500    -11.9512     -8.5652   -999.2500   -999.2500   -999.2500   -999.2500
   5200.0000      2.5393      2.6040      2.5460      1.5826      2.9224      2.9016      0.0000   -999.2500      0.2469      0.2325      2.5460      2.6043   -999.2500      2.5390     -8.2295    -25.5769    -11.5922     -8.2295      0.2279      0.4748      0.4748      1.5826
   5200.5000      2.5393      2.6321      2.5820      1.5250      2.9160      2.8936      0.0000   -999.2500      0.2379      0.2342      2.5820      2.6323   -999.2500      2.5390     -8.0740    -23.3077    -11.4133     -8.0740      0.2196      0.4575      0.4575      1.5250
   5201.0000      2.5753      2.6541      2.6180      1.4209      2.9074      2.8793      0.0000   -999.2500      0.2217      0.2374      2.6180      2.6543   -999.2500      2.5750     -7.9893    -21.0385    -11.3053     -7.9893      0.2046      0.4263      0.4263      1.4209
   5201.5000      2.6263      2.6691      2.6760      1.2489      2.8948      2.8555      0.0000   -999.2500      0.1948      0.2425      2.6760      2.6693   -999.2500      2.6260     -8.0496    -18.7692    -11.3423     -8.0496      0.1798      0.3747      0.3747      1.2489
   5202.0000      2.6543      2.6831      2.7190      0.8758      2.8584      2.5880      0.1242   -999.2500      0.2646      0.2530      2.7190      2.6833   -999.2500      2.6540     -8.7219    -16.5000    -11.9914     -8.7219      0.1296      0.2700      0.2700      0.8758
   5202.5000      2.6763      2.7331      2.7620      0.6822      2.7761      2.3791      0.1619   -999.2500      0.2683      0.2595      2.7620      2.7333   -999.2500      2.6760     -9.7533    -16.5087    -12.9994     -9.7533      0.0982      0.2047      0.2047      0.6822
   5203.0000      2.6983      2.7841      2.8120      0.4980      2.6324      2.2023      0.1938   -999.2500      0.2715      0.2650      2.8120      2.7843   -999.2500      2.6980    -10.6416    -16.5173    -13.8644    -10.6416      0.0717      0.1494      0.1494      0.4980
   5203.5000      2.7053      2.8561      2.8410      0.4507      2.5415      2.1568      0.2020   -999.2500      0.2723      0.2664      2.8410      2.8563   -999.2500      2.7050    -11.2059    -16.5260    -14.4054    -11.2059      0.0649      0.1352      0.1352      0.4507
   5204.0000      2.5693      2.9061      2.8490      0.4186      2.4800      2.1261      0.2075   -999.2500      0.2728      0.2674      2.8490      2.9063   -999.2500      2.5690    -11.5903    -16.5346    -14.7664    -11.5903      0.0603      0.1256      0.1256      0.4186
   5204.5000      2.4543      2.9421      2.7480      0.4141      2.4714      2.1218      0.2083   -999.2500      0.2729      0.2675      2.7480      2.9423   -999.2500      2.4540    -11.6496    -16.5433    -14.8024    -11.6496      0.0596      0.1242      0.1242      0.4141
   5205.0000      2.3762      2.8131      2.6120      0.4461      2.5328      2.1525      0.2027   -999.2500      0.2723      0.2665      2.6120      2.8133   -999.2500      2.3760    -11.2779    -16.5520    -14.4074    -11.2779      0.0642      0.1338      0.1338      0.4461
   5205.5000      2.2822      2.6551      2.4830      0.5820      2.6993      2.2830      0.1792   -999.2500      0.2700      0.2624      2.4830      2.6553   -999.2500      2.2820    -10.2582    -16.5606    -13.3644    -10.2582      0.0838      0.1746      0.1746      0.5820
   5206.0000      2.1892      2.4551      2.3400      0.8728      2.8567      2.5714      0.1272   -999.2500      0.2649      0.2534      2.3400      2.4552   -999.2500      2.1890     -8.8415    -16.5693    -11.9244     -8.8415      0.1271      0.2647      0.2647      0.8728
   5206.5000      2.1182      2.3901      2.2250      0.9076      2.8790      2.7645      0.0924   -999.2500      0.2614      0.2474      2.2250      2.3902   -999.2500      2.1180     -7.8937    -16.5779    -10.9533     -7.8937      0.1560      0.3250      0.3250      0.9076
   5207.0000      2.0682      2.3551      2.0820      1.2615      2.8960      2.8575      0.0000   -999.2500      0.1968      0.2420      2.0820      2.3552   -999.2500      2.0680     -7.0540    -16.5866    -10.0903     -7.0540      0.1817      0.3785      0.3785      1.2615
