~V
VERS. 2.00: Ver 2.00
WRAP.   NO:        
~W
 STRT.FT 350:
 STOP.FT 6660:
 STEP.FT 0.5:
 NULL. -999.250000:
 COMP. Richfield (ARCO):Company
 WELL. SAN EMIDIO A 27-20 REDRILL:Well
 FLD. Los Lobos:Field
 LOC. S20 T11N R22W:Location
 STAT. CA:State
 SRVC. :Service Company
 SON. :Service Order #
 DATE. :Log Date
 UWI. 0143701:Unique Well ID
~C
 DEPT.FT :
 AM16.OHMM :
 AO10.OHMM :
 AO19.OHMM :
 LTHE. :
 MCRV. :
 MM. :
 PHES. :
 PHMX. :
 PHTS. :
 PHZC. :
 RD.OHMM :
 RM.OHMM :
 ROS. :
 RS.OHMM :
 SBL.MV :
 SCLN. :
 SP.MV :
 SPN.MV :
 VCDS. :
 VCLY. :
 VCWS. :
 VSHS. :
~P
~A
# ...
   5483.0000      1.9602      2.1681      2.2260      1.5263      2.9312      2.9089      0.0000   -999.2500      0.2381      0.2295      2.2260      2.1682   -999.2500      1.9600     -7.3902    -21.3666     -7.6302     -7.3902      0.2198      0.4579      0.4579      1.5263
   5483.5000      1.9612      2.1691      2.2260      1.5153      2.9300      2.9074      0.0000   -999.2500      0.2364      0.2298      2.2260      2.1692   -999.2500      1.9610     -7.4936    -21.3752     -7.7402     -7.4936      0.2182      0.4546      0.4546      1.5153
   5484.0000      1.9612      2.1901      2.2260      1.4887      2.9275      2.9037      0.0000   -999.2500      0.2322      0.2306      2.2260      2.1902   -999.2500      1.9610     -7.7059    -21.3839     -7.9592     -7.7059      0.2144      0.4466      0.4466      1.4887
   5484.5000      1.9612      2.2201      2.2410      1.4370      2.9238      2.8966      0.0000   -999.2500      0.2242      0.2321      2.2410      2.2202   -999.2500      1.9610     -8.0252    -21.3925     -8.2852     -8.0252      0.2069      0.4311      0.4311      1.4370
   5485.0000      1.9622      2.2411      2.2490      1.4030      2.9213      2.8919      0.0000   -999.2500      0.2189      0.2332      2.2490      2.2412   -999.2500      1.9620     -8.2366    -21.4012     -8.5033     -8.2366      0.2020      0.4209      0.4209      1.4030
   5485.5000      1.9482      2.2561      2.2630      1.3572      2.9179      2.8856      0.0000   -999.2500      0.2117      0.2345      2.2630      2.2562   -999.2500      1.9480     -8.5199    -21.4099     -8.7933     -8.5199      0.1954      0.4072      0.4072      1.3572
   5486.0000      1.9342      2.2711      2.2710      1.2997      2.9137      2.8777      0.0000   -999.2500      0.2028      0.2362      2.2710      2.2712   -999.2500      1.9340     -8.8753    -21.4185     -9.1553     -8.8753      0.1872      0.3899      0.3899      1.2997
   5486.5000      1.9132      2.2641      2.2640      1.2187      2.9077      2.8665      0.0000   -999.2500      0.1901      0.2387      2.2640      2.2642   -999.2500      1.9130     -9.3746    -21.4272     -9.6613     -9.3746      0.1755      0.3656      0.3656      1.2187
   5487.0000      1.8982      2.2361      2.1930      0.9176      2.8973      2.8089      0.0824   -999.2500      0.2562      0.2418      2.1930      2.2362   -999.2500      1.8980    -10.0190    -21.4358    -10.3123    -10.0190      0.1604      0.3342      0.3342      0.9176
   5487.5000      1.8842      2.2001      2.1570      0.8904      2.8799      2.6580      0.1096   -999.2500      0.2589      0.2465      2.1570      2.2002   -999.2500      1.8840    -10.9863    -21.4445    -11.2863    -10.9863      0.1378      0.2871      0.2871      0.8904
   5488.0000      1.8492      2.1791      2.1140      0.6588      2.7733      2.3718      0.1612   -999.2500      0.2640      0.2554      2.1140      2.1792   -999.2500      1.8490    -12.8177    -21.4532    -13.1244    -12.8177      0.0949      0.1977      0.1977      0.6588
   5488.5000      1.8212      2.1221      2.1220      0.3857      2.4319      2.1097      0.2085   -999.2500      0.2686      0.2636      2.1220      2.1222   -999.2500      1.8210    -15.5491    -21.4618    -15.8625    -15.5491      0.0555      0.1157      0.1157      0.3857
   5489.0000      1.7852      2.1151      2.1580      0.2667      2.2130      2.0394      0.2290   -999.2500      0.2706      0.2672      2.1580      2.1152   -999.2500      1.7850    -17.3805    -21.4705    -17.7005    -17.3805      0.0384      0.0800      0.0800      0.2667
   5489.5000      1.7642      2.1441      2.1940      0.2276      2.1830      2.0277      0.2358   -999.2500      0.2713      0.2683      2.1940      2.1442   -999.2500      1.7640    -17.9879    -21.4791    -18.3145    -17.9879      0.0328      0.0683      0.0683      0.2276
   5490.0000      1.7432      2.1881      2.2590      0.2095      2.1692      2.0223      0.2389   -999.2500      0.2716      0.2689      2.2590      2.1882   -999.2500      1.7430    -18.2722    -21.4878    -18.6056    -18.2722      0.0302      0.0629      0.0629      0.2095
   5490.5000      1.7292      2.2241      2.3240      0.2056      2.1662      2.0212      0.2396   -999.2500      0.2717      0.2690      2.3240      2.2242   -999.2500      1.7290    -18.3396    -21.4965    -18.6796    -18.3396      0.0296      0.0617      0.0617      0.2056
   5491.0000      1.7082      2.2741      2.3750      0.2392      2.1920      2.0313      0.2338   -999.2500      0.2711      0.2680      2.3750      2.2742   -999.2500      1.7080    -17.8309    -21.5051    -18.1776    -17.8309      0.0344      0.0718      0.0718      0.2392
   5491.5000      1.6942      2.2961      2.4110      0.3009      2.2692      2.0498      0.2231   -999.2500      0.2700      0.2661      2.4110      2.2962   -999.2500      1.6940    -16.8902    -21.5138    -17.2435    -16.8902      0.0433      0.0903      0.0903      0.3009
   5492.0000      1.6802      2.3111      2.4190      0.3719      2.4056      2.0966      0.2108   -999.2500      0.2688      0.2640      2.4190      2.3112   -999.2500      1.6800    -15.8055    -21.5224    -16.1655    -15.8055      0.0536      0.1116      0.1116      0.3719
   5492.5000      1.6732      2.3331      2.4050      0.4030      2.4653      2.1264      0.2054   -999.2500      0.2683      0.2630      2.4050      2.3332   -999.2500      1.6730    -15.3338    -21.5311    -15.7005    -15.3338      0.0580      0.1209      0.1209      0.4030
   5493.0000      1.6522      2.3551      2.3760      0.4271      2.5116      2.1496      0.2012   -999.2500      0.2678      0.2623      2.3760      2.3552   -999.2500      1.6520    -14.9691    -21.5397    -15.3425    -14.9691      0.0615      0.1281      0.1281      0.4271
   5493.5000      1.6452      2.3551      2.3410      0.4465      2.5489      2.1683      0.1979   -999.2500      0.2675      0.2617      2.3410      2.3552   -999.2500      1.6450    -14.6765    -21.5484    -15.0565    -14.6765      0.0643      0.1339      0.1339      0.4465
   5494.0000      1.6382      2.3481      2.2770      0.4659      2.5861      2.1869      0.1945   -999.2500      0.2672      0.2611      2.2770      2.3482   -999.2500      1.6380    -14.3838    -21.5571    -14.7704    -14.3838      0.0671      0.1398      0.1398      0.4659
   5494.5000      1.6242      2.3271      2.2480      0.4829      2.6189      2.2033      0.1915   -999.2500      0.2669      0.2606      2.2480      2.3272   -999.2500      1.6240    -14.1271    -21.5657    -14.5204    -14.1271      0.0695      0.1449      0.1449      0.4829
   5495.0000      1.6102      2.3131      2.2130      0.4976      2.6471      2.2174      0.1890   -999.2500      0.2666      0.2602      2.2130      2.3132   -999.2500      1.6100    -13.9064    -21.5744    -14.3064    -13.9064      0.0717      0.1493      0.1493      0.4976
   5495.5000      1.6182      2.2781      2.1840      0.5540      2.6932      2.2716      0.1792   -999.2500      0.2656      0.2585      2.1840      2.2782   -999.2500      1.6180    -13.5417    -21.5830    -13.9484    -13.5417      0.0798      0.1662      0.1662      0.5540
   5496.0000      1.6252      2.2561      2.1420      0.6138      2.7392      2.3291      0.1688   -999.2500      0.2646      0.2567      2.1420      2.2562   -999.2500      1.6250    -13.1781    -21.5917    -13.5914    -13.1781      0.0884      0.1842      0.1842      0.6138
   5496.5000      1.6402      2.2421      2.1280      0.7321      2.8301      2.4427      0.1484   -999.2500      0.2626      0.2531      2.1280      2.2422   -999.2500      1.6400    -12.4534    -21.6004    -12.8734    -12.4534      0.1054      0.2196      0.2196      0.7321
   5497.0000      1.6622      2.2141      2.1070      0.8037      2.8635      2.5114      0.1360   -999.2500      0.2614      0.2509      2.1070      2.2142   -999.2500      1.6620    -12.0167    -21.6090    -12.4434    -12.0167      0.1157      0.2411      0.2411      0.8037
