~V
VERS. 2.00: Ver 2.00
WRAP.   NO:        
~W
 STRT.FT 350:
 STOP.FT 6660:
 STEP.FT 0.5:
 NULL. -999.250000:
 COMP. Richfield (ARCO):Company
 WELL. SAN EMIDIO A 27-20 REDRILL:Well
 FLD. Los Lobos:Field
 LOC. S20 T11N R22W:Location
 STAT. CA:State
 SRVC. :Service Company
 SON. :Service Order #
 DATE. :Log Date
 UWI. 0143701:Unique Well ID
~C
 DEPT.FT :
 AM16.OHMM :
 AO10.OHMM :
 AO19.OHMM :
 LTHE. :
 MCRV. :
 MM. :
 PHES. :
 PHMX. :
 PHTS. :
 PHZC. :
 RD.OHMM :
 RM.OHMM :
 ROS. :
 RS.OHMM :
 SBL.MV :
 SCLN. :
 SP.MV :
 SPN.MV :
 VCDS. :
 VCLY. :
 VCWS. :
 VSHS. :
~P
~A
# ...
   5874.5000      2.0222      2.2661      2.1580      1.5977      2.9600      2.9397      0.0000   -999.2500      0.2415      0.2208      2.1580      2.2662   -999.2500      2.0220     -8.8733    -28.1468    -10.8733     -8.8733      0.2301      0.4793      0.4716      1.5977
   5875.0000      2.0302      2.2561      2.1550      1.5891      2.9591      2.9385      0.0000   -999.2500      0.2417      0.2211      2.1550      2.2562   -999.2500      2.0300     -8.9803    -28.1555    -10.9803     -8.9803      0.2288      0.4767      0.4705      1.5891
   5875.5000      2.0452      2.2451      2.1520      1.5835      2.9585      2.9377      0.0000   -999.2500      0.2417      0.2212      2.1520      2.2452   -999.2500      2.0450     -9.0513    -28.1642    -11.0513     -9.0513      0.2280      0.4750      0.4698      1.5835
   5876.0000      2.0672      2.2321      2.1450      1.5599      2.9559      2.9345      0.0000   -999.2500      0.2421      0.2219      2.1450      2.2322   -999.2500      2.0670     -9.3383    -28.1728    -11.3383     -9.3383      0.2246      0.4680      0.4668      1.5599
   5876.5000      2.0962      2.2251      2.1460      1.5452      2.9543      2.9325      0.0000   -999.2500      0.2411      0.2224      2.1460      2.2252   -999.2500      2.0960     -9.5183    -28.1815    -11.5183     -9.5183      0.2225      0.4636      0.4636      1.5452
   5877.0000      2.1322      2.2401      2.1460      1.5068      2.9501      2.9272      0.0000   -999.2500      0.2351      0.2235      2.1460      2.2402   -999.2500      2.1320     -9.9854    -28.1901    -11.9854     -9.9854      0.2170      0.4520      0.4520      1.5068
   5877.5000      2.1472      2.2471      2.1390      1.4616      2.9465      2.9210      0.0000   -999.2500      0.2280      0.2249      2.1390      2.2472   -999.2500      2.1470    -10.3804    -28.1988    -12.3804    -10.3804      0.2105      0.4385      0.4385      1.4616
   5878.0000      2.1902      2.2551      2.1330      1.3594      2.9390      2.9068      0.0000   -999.2500      0.2121      0.2279      2.1330      2.2552   -999.2500      2.1900    -11.2074    -28.2075    -13.2074    -11.2074      0.1958      0.4078      0.4078      1.3594
   5878.5000      2.2262      2.2771      2.1190      1.2348      2.9298      2.8896      0.0000   -999.2500      0.1926      0.2316      2.1190      2.2772   -999.2500      2.2260    -12.2154    -28.2161    -14.2154    -12.2154      0.1778      0.3704      0.3704      1.2348
   5879.0000      2.2562      2.2841      2.1050      0.9281      2.9208      2.8519      0.0719   -999.2500      0.2493      0.2346      2.1050      2.2842   -999.2500      2.2560    -13.0064    -28.2248    -15.0064    -13.0064      0.1637      0.3411      0.3411      0.9281
   5879.5000      2.2922      2.2921      2.0980      0.9050      2.9061      2.7240      0.0950   -999.2500      0.2516      0.2386      2.0980      2.2922   -999.2500      2.2920    -14.0855    -28.2334    -16.0855    -14.0855      0.1446      0.3012      0.3012      0.9050
   5880.0000      2.3142      2.3101      2.0920      0.8706      2.8913      2.5960      0.1180   -999.2500      0.2538      0.2425      2.0920      2.3102   -999.2500      2.3140    -15.1655    -28.2421    -17.1655    -15.1655      0.1254      0.2612      0.2612      0.8706
   5880.5000      2.3252      2.3281      2.0920      0.7687      2.8786      2.4982      0.1356   -999.2500      0.2556      0.2456      2.0920      2.3282   -999.2500      2.3250    -15.9925    -28.2508    -17.9925    -15.9925      0.1107      0.2306      0.2306      0.7687
   5881.0000      2.3362      2.3431      2.0920      0.7114      2.8347      2.4433      0.1455   -999.2500      0.2565      0.2473      2.0920      2.3432   -999.2500      2.3360    -16.4596    -28.2594    -18.4596    -16.4596      0.1024      0.2134      0.2134      0.7114
   5881.5000      2.2432      2.3511      2.0930      0.7122      2.8353      2.4440      0.1454   -999.2500      0.2565      0.2473      2.0930      2.3512   -999.2500      2.2430    -16.4586    -28.2681    -18.4586    -16.4586      0.1026      0.2137      0.2137      0.7122
   5882.0000      2.1292      2.3661      2.1150      0.7263      2.8462      2.4576      0.1430   -999.2500      0.2563      0.2468      2.1150      2.3662   -999.2500      2.1290    -16.3496    -28.2767    -18.3496    -16.3496      0.1046      0.2179      0.2179      0.7263
   5882.5000      2.0512      2.3591      2.1440      0.7581      2.8706      2.4882      0.1374   -999.2500      0.2557      0.2459      2.1440      2.3592   -999.2500      2.0510    -16.0975    -28.2854    -18.0975    -16.0975      0.1092      0.2274      0.2274      0.7581
   5883.0000      2.0152      2.3591      2.1730      0.8435      2.8885      2.5701      0.1227   -999.2500      0.2542      0.2433      2.1730      2.3592   -999.2500      2.0150    -15.4125    -28.2941    -17.4125    -15.4125      0.1215      0.2530      0.2530      0.8435
   5883.5000      2.0082      2.3671      2.2020      0.9029      2.9048      2.7118      0.0971   -999.2500      0.2517      0.2389      2.2020      2.3672   -999.2500      2.0080    -14.2245    -28.3027    -16.2245    -14.2245      0.1427      0.2973      0.2973      0.9029
   5884.0000      2.0022      2.3601      2.2670      1.1963      2.9273      2.8846      0.0000   -999.2500      0.1866      0.2327      2.2670      2.3602   -999.2500      2.0020    -12.5674    -28.3114    -14.5674    -12.5674      0.1723      0.3589      0.3589      1.1963
   5884.5000      2.0092      2.3681      2.3000      1.3349      2.9375      2.9038      0.0000   -999.2500      0.2082      0.2285      2.3000      2.3682   -999.2500      2.0090    -11.4504    -28.3200    -13.4504    -11.4504      0.1922      0.4005      0.4005      1.3349
   5885.0000      2.0172      2.3831      2.3320      1.5119      2.9511      2.9283      0.0000   -999.2500      0.2359      0.2232      2.3320      2.3832   -999.2500      2.0170     -9.9734    -28.3287    -11.9734     -9.9734      0.2177      0.4536      0.4536      1.5119
   5885.5000      2.0242      2.4121      2.4050      1.5773      2.9584      2.9374      0.0000   -999.2500      0.2417      0.2213      2.4050      2.4122   -999.2500      2.0240     -9.1813    -28.3373    -11.1813     -9.1813      0.2271      0.4732      0.4688      1.5773
   5886.0000      2.0322      2.4551      2.4550      1.6191      2.9630      2.9432      0.0000   -999.2500      0.2410      0.2200      2.4550      2.4552   -999.2500      2.0320     -8.6763    -28.3460    -10.6763     -8.6763      0.2332      0.4857      0.4741      1.6191
   5886.5000      2.0542      2.4771      2.5060      1.6491      2.9664      2.9474      0.0000   -999.2500      0.2404      0.2191      2.5060      2.4772   -999.2500      2.0540     -8.3153    -28.3547    -10.3153     -8.3153      0.2375      0.4947      0.4779      1.6491
   5887.0000      2.0552      2.5141      2.5570      1.6612      2.9677      2.9491      0.0000   -999.2500      0.2402      0.2187      2.5570      2.5143   -999.2500      2.0550     -8.1703    -28.3633    -10.1703     -8.1703      0.2392      0.4984      0.4794      1.6612
   5887.5000      2.0582      2.5211      2.6070      1.6673      2.9684      2.9500      0.0000   -999.2500      0.2401      0.2185      2.6070      2.5213   -999.2500      2.0580     -8.0983    -28.3720    -10.0983     -8.0983      0.2401      0.5002      0.4802      1.6673
   5888.0000      2.0622      2.5141      2.6360      1.6706      2.9688      2.9505      0.0000   -999.2500      0.2401      0.2184      2.6360      2.5143   -999.2500      2.0620     -8.0613    -28.3806    -10.0613     -8.0613      0.2406      0.5012      0.4806      1.6706
   5888.5000      2.0592      2.4931      2.6510      1.6768      2.9695      2.9513      0.0000   -999.2500      0.2399      0.2182      2.6510      2.4932   -999.2500      2.0590     -7.9883    -28.3893     -9.9883     -7.9883      0.2415      0.5030      0.4814      1.6768
