~V
VERS. 2.00: Ver 2.00
WRAP.   NO:        
~W
 STRT.FT 350:
 STOP.FT 6660:
 STEP.FT 0.5:
 NULL. -999.250000:
 COMP. Richfield (ARCO):Company
 WELL. SAN EMIDIO A 27-20 REDRILL:Well
 FLD. Los Lobos:Field
 LOC. S20 T11N R22W:Location
 STAT. CA:State
 SRVC. :Service Company
 SON. :Service Order #
 DATE. :Log Date
 UWI. 0143701:Unique Well ID
~C
 DEPT.FT :
 AM16.OHMM :
 AO10.OHMM :
 AO19.OHMM :
 LTHE. :
 MCRV. :
 MM. :
 PHES. :
 PHMX. :
 PHTS. :
 PHZC. :
 RD.OHMM :
 RM.OHMM :
 ROS. :
 RS.OHMM :
 SBL.MV :
 SCLN. :
 SP.MV :
 SPN.MV :
 VCDS. :
 VCLY. :
 VCWS. :
 VSHS. :
~P
~A
# ...
   6643.0000     13.2089     17.9982     23.4841      0.8301   -999.2500      2.7080      0.1699      0.1518      0.2944      0.3751     23.4840    126.4906      2.8206     14.6610    -12.8838   -999.2500    -14.8838    -12.8838      0.1245      0.2489      0.2489      0.8297
   6643.5000     13.6468     17.6474     23.7681      0.8197   -999.2500      2.6575      0.1803      0.1526      0.2969      0.3794     23.7680    131.9402      2.6406     14.3360    -13.6203   -999.2500    -15.6203    -13.6203      0.1166      0.2331      0.2331      0.7771
   6644.0000     13.9360     17.1037     24.0541      0.8139   -999.2500      2.6291      0.1861      0.1530      0.2983      0.3818     24.0540    135.8826      2.5459     14.0120    -14.0347   -999.2500    -16.0347    -14.0347      0.1121      0.2243      0.2243      0.7475
   6644.5000     14.1533     16.5610     24.0871      0.8121   -999.2500      2.6203      0.1879      0.1532      0.2987      0.3825     24.0870    138.6069      2.5174     13.6870    -14.1643   -999.2500    -16.1643    -14.1643      0.1107      0.2215      0.2215      0.7383
   6645.0000     14.2547     16.3883     24.1201      0.8177   -999.2500      2.6477      0.1823      0.1528      0.2973      0.3802     24.1200    140.3980      2.6079     13.3620    -13.7650   -999.2500    -15.7650    -13.7650      0.1150      0.2300      0.2300      0.7668
   6645.5000     14.1584     16.2702     24.1901      0.8219   -999.2500      2.6681      0.1781      0.1524      0.2963      0.3785     24.1900    139.3919      2.6778     13.0370    -13.4689   -999.2500    -15.4689    -13.4689      0.1182      0.2364      0.2364      0.7879
   6646.0000     13.9586     16.1550     24.0451      0.8272   -999.2500      2.6935      0.1728      0.1521      0.2950      0.3763     24.0450    135.7316      2.7687     12.7120    -13.0978   -999.2500    -15.0978    -13.0978      0.1222      0.2443      0.2443      0.8144
   6646.5000     13.6865     16.0264     23.6841      0.8350   -999.2500      2.7317      0.1650      0.1515      0.2931      0.3731     23.6840    133.6483      2.9123     12.3870    -12.5413   -999.2500    -14.5413    -12.5413      0.1281      0.2563      0.2563      0.8350
   6647.0000     13.3233     15.8267     23.0371      0.8455   -999.2500      2.7822      0.1545      0.1507      0.2905      0.3688     23.0370    129.8450      3.1169     12.0620    -11.8054   -999.2500    -13.8054    -11.8054      0.1360      0.2720      0.2720      0.8455
   6647.5000     13.0353     15.4420     22.3891      0.8538   -999.2500      2.8224      0.1462      0.1501      0.2885      0.3654     22.3890    127.6908      3.2925     11.7370    -11.2206   -999.2500    -13.2206    -11.2206      0.1423      0.2846      0.2846      0.8538
   6648.0000     12.6841     14.9026     21.6691      0.8584   -999.2500      2.8447      0.1416      0.1497      0.2874      0.3635     21.6690    125.0345      3.3955     11.4120    -10.8961   -999.2500    -12.8961    -10.8961      0.1458      0.2915      0.2915      0.8584
   6648.5000     12.4033     14.3844     20.7351      0.8491   -999.2500      2.7996      0.1509      0.1504      0.2896      0.3673     20.7350    121.0161      3.1918     11.1180    -11.5546   -999.2500    -13.5546    -11.5546      0.1387      0.2774      0.2774      0.8491
   6649.0000     12.2140     13.8825     19.5131      0.8428   -999.2500      2.7691      0.1572      0.1509      0.2911      0.3699     19.5130    118.7179      3.0631     10.4220    -11.9988   -999.2500    -13.9988    -11.9988      0.1339      0.2679      0.2679      0.8428
   6649.5000     12.0417     12.9177     18.0771      0.8368   -999.2500      2.7403      0.1632      0.1513      0.2926      0.3723     18.0770    119.2179      2.9469     10.2850    -12.4205   -999.2500    -14.4205    -12.4205      0.1294      0.2588      0.2588      0.8368
   6650.0000     12.2790     11.7706      2.1730      0.8343   -999.2500      2.7277      0.1657      0.1515      0.2932      0.3733      2.1730      2.3092      2.8983      2.7270    -12.6039   -999.2500    -14.6039    -12.6039      0.1275      0.2549      0.2549      0.8343
   6650.5000     12.5990     11.0259      2.2240      0.8509   -999.2500      2.8082      0.1491      0.1503      0.2891      0.3665      2.2240      2.3182      3.2306      2.7640    -11.4312   -999.2500    -13.4312    -11.4312      0.1400      0.2800      0.2800      0.8509
   6651.0000     13.9023     10.5715      2.2760      0.8580   -999.2500      2.8424      0.1420      0.1497      0.2874      0.3636      2.2760      2.3192      3.3866      2.8010    -10.9321   -999.2500    -12.9321    -10.9321      0.1454      0.2907      0.2907      0.8580
   6651.5000     14.2870     10.2858      2.3200      0.8645   -999.2500      2.8738      0.1355      0.1493      0.2858      0.3610      2.3200      2.3202      3.5379      2.8020    -10.4753   -999.2500    -12.4753    -10.4753      0.1503      0.3005      0.3005      0.8645
   6652.0000     14.3998     10.3294      2.3570      0.8697   -999.2500      2.8993      0.1303      0.1489      0.2845      0.3588      2.3570      2.3132      3.6670      2.7960    -10.1045   -999.2500    -12.1045    -10.1045      0.1542      0.3085      0.3085      0.8697
   6652.5000     14.4333     10.3822      2.4080      0.8724   -999.2500      2.9120      0.1276      0.1487      0.2838      0.3577      2.4080      2.3072      3.7338      2.7820     -9.9196   -999.2500    -11.9196     -9.9196      0.1562      0.3124      0.3124      0.8724
   6653.0000     14.4425     10.4184      2.4380      0.8706   -999.2500      2.9033      0.1294      0.1488      0.2843      0.3584      2.4380      2.2942      3.6886      2.7620    -10.0466   -999.2500    -12.0466    -10.0466      0.1549      0.3097      0.3097      0.8706
   6653.5000     14.4371     10.4433      2.4600      0.8690   -999.2500      2.8955      0.1310      0.1489      0.2847      0.3591      2.4600      2.2882      3.6484      2.7340    -10.1614   -999.2500    -12.1614    -10.1614      0.1536      0.3073      0.3073      0.8690
   6654.0000     14.4318     10.4622      2.4900      0.8676   -999.2500      2.8886      0.1324      0.1490      0.2850      0.3597      2.4900      2.2782      3.6134      2.7060    -10.2627   -999.2500    -12.2627    -10.2627      0.1525      0.3051      0.3051      0.8676
   6654.5000     14.4260     10.4746      2.5130      0.8678   -999.2500      2.8897      0.1322      0.1490      0.2849      0.3596      2.5130      2.2682      3.6192      2.6820    -10.2473   -999.2500    -12.2473    -10.2473      0.1527      0.3054      0.3054      0.8678
   6655.0000     14.4271     10.4848      2.5140      0.8683   -999.2500      2.8922      0.1317      0.1490      0.2848      0.3593      2.5140      2.2482      3.6321      2.6570    -10.2118   -999.2500    -12.2118    -10.2118      0.1531      0.3062      0.3062      0.8683
   6655.5000     14.4302     10.4904      2.5150      0.8704   -999.2500      2.9022      0.1296      0.1488      0.2843      0.3585      2.5150      2.2342      3.6841      2.6080    -10.0664   -999.2500    -12.0664    -10.0664      0.1546      0.3093      0.3093      0.8704
   6656.0000     14.4356     10.4839      2.5090      0.8748   -999.2500      2.9232      0.1252      0.1485      0.2832      0.3567      2.5090      2.2212      3.7960      2.5880     -9.7598   -999.2500    -11.7598     -9.7598      0.1579      0.3159      0.3159      0.8748
   6656.5000     14.4386     10.4845      2.5020      0.8792   -999.2500      2.9446      0.1208      0.1482      0.2821      0.3549      2.5020      2.2152      3.9137      2.5750     -9.4494   -999.2500    -11.4494     -9.4494      0.1613      0.3225      0.3225      0.8792
   6657.0000     14.4400     10.4851      2.4820      0.8825   -999.2500      2.9607      0.1175      0.1479      0.2812      0.3535      2.4820      2.2082      4.0058      2.5540     -9.2146   -999.2500    -11.2146     -9.2146      0.1638      0.3275      0.3275      0.8825
