~V
VERS. 2.00: Ver 2.00
WRAP.   NO:        
~W
 STRT.FT 350:
 STOP.FT 6660:
 STEP.FT 0.5:
 NULL. -999.250000:
 COMP. Richfield (ARCO):Company
 WELL. SAN EMIDIO A 27-20 REDRILL:Well
 FLD. Los Lobos:Field
 LOC. S20 T11N R22W:Location
 STAT. CA:State
 SRVC. :Service Company
 SON. :Service Order #
 DATE. :Log Date
 UWI. 0143701:Unique Well ID
~C
 DEPT.FT :
 AM16.OHMM :
 AO10.OHMM :
 AO19.OHMM :
 LTHE. :
 MCRV. :
 MM. :
 PHES. :
 PHMX. :
 PHTS. :
 PHZC. :
 RD.OHMM :
 RM.OHMM :
 ROS. :
 RS.OHMM :
 SBL.MV :
 SCLN. :
 SP.MV :
 SPN.MV :
 VCDS. :
 VCLY. :
 VCWS. :
 VSHS. :
~P
~A
# ...
   6164.5000      2.0702      2.1561      2.1990      1.7383      2.9911      2.9746      0.0000   -999.2500      0.2343      0.2118      2.1990      2.1562   -999.2500      2.0700     -8.4583    -33.1693    -10.4583     -8.4583      0.2503      0.5215      0.4846      1.7383
   6165.0000      2.0712      2.1571      2.1970      1.7567      2.9931      2.9772      0.0000   -999.2500      0.2340      0.2112      2.1970      2.1572   -999.2500      2.0710     -8.1993    -33.1779    -10.1993     -8.1993      0.2530      0.5270      0.4869      1.7567
   6165.5000      2.0732      2.1661      2.1940      1.7713      2.9948      2.9792      0.0000   -999.2500      0.2337      0.2108      2.1940      2.1662   -999.2500      2.0730     -7.9943    -33.1866     -9.9943     -7.9943      0.2551      0.5314      0.4888      1.7713
   6166.0000      2.0952      2.2031      2.1920      1.7858      2.9964      2.9812      0.0000   -999.2500      0.2335      0.2103      2.1920      2.2032   -999.2500      2.0950     -7.7893    -33.1953     -9.7893     -7.7893      0.2572      0.5357      0.4906      1.7858
   6166.5000      2.1182      2.2331      2.1900      1.7902      2.9969      2.9819      0.0000   -999.2500      0.2334      0.2102      2.1900      2.2332   -999.2500      2.1180     -7.7283    -33.2039     -9.7283     -7.7283      0.2578      0.5371      0.4912      1.7902
   6167.0000      2.1412      2.2481      2.1870      1.7795      2.9958      2.9804      0.0000   -999.2500      0.2336      0.2105      2.1870      2.2482   -999.2500      2.1410     -7.8833    -33.2126     -9.8833     -7.8833      0.2562      0.5338      0.4898      1.7795
   6167.5000      2.1702      2.2781      2.1850      1.7687      2.9946      2.9790      0.0000   -999.2500      0.2337      0.2108      2.1850      2.2782   -999.2500      2.1700     -8.0393    -33.2212    -10.0393     -8.0393      0.2547      0.5306      0.4884      1.7687
   6168.0000      2.2002      2.2861      2.1860      1.7504      2.9926      2.9765      0.0000   -999.2500      0.2340      0.2114      2.1860      2.2862   -999.2500      2.2000     -8.3013    -33.2299    -10.3013     -8.3013      0.2521      0.5251      0.4861      1.7504
   6168.5000      2.2232      2.2911      2.1940      1.7346      2.9909      2.9743      0.0000   -999.2500      0.2343      0.2118      2.1940      2.2912   -999.2500      2.2230     -8.5293    -33.2385    -10.5293     -8.5293      0.2498      0.5204      0.4841      1.7346
   6169.0000      2.2462      2.2961      2.1880      1.7062      2.9877      2.9704      0.0000   -999.2500      0.2348      0.2127      2.1880      2.2962   -999.2500      2.2460     -8.9363    -33.2472    -10.9363     -8.9363      0.2457      0.5119      0.4805      1.7062
   6169.5000      2.2252      2.2831      2.1890      1.6854      2.9855      2.9675      0.0000   -999.2500      0.2351      0.2133      2.1890      2.2832   -999.2500      2.2250     -9.2353    -33.2559    -11.2353     -9.2353      0.2427      0.5056      0.4778      1.6854
   6170.0000      2.1902      2.2691      2.1900      1.6393      2.9804      2.9612      0.0000   -999.2500      0.2359      0.2147      2.1900      2.2692   -999.2500      2.1900     -9.8944    -33.2645    -11.8944     -9.8944      0.2361      0.4918      0.4719      1.6393
   6170.5000      2.1632      2.2561      2.1950      1.5957      2.9756      2.9552      0.0000   -999.2500      0.2366      0.2160      2.1950      2.2562   -999.2500      2.1630    -10.5184    -33.2732    -12.5184    -10.5184      0.2298      0.4787      0.4664      1.5957
   6171.0000      2.1352      2.2431      2.2000      1.5144      2.9666      2.9439      0.0000   -999.2500      0.2362      0.2184      2.2000      2.2432   -999.2500      2.1350    -11.6814    -33.2818    -13.6814    -11.6814      0.2181      0.4543      0.4543      1.5144
   6171.5000      2.1222      2.2301      2.2230      1.4374      2.9604      2.9333      0.0000   -999.2500      0.2242      0.2207      2.2230      2.2302   -999.2500      2.1220    -12.4844    -33.2905    -14.4844    -12.4844      0.2070      0.4312      0.4312      1.4374
   6172.0000      2.1092      2.2171      2.1950      1.4064      2.9582      2.9290      0.0000   -999.2500      0.2194      0.2216      2.1950      2.2172   -999.2500      2.1090    -12.7834    -33.2992    -14.7834    -12.7834      0.2025      0.4219      0.4219      1.4064
   6172.5000      2.0962      2.2141      2.1890      1.4434      2.9609      2.9342      0.0000   -999.2500      0.2252      0.2205      2.1890      2.2142   -999.2500      2.0960    -12.4344    -33.3078    -14.4344    -12.4344      0.2078      0.4330      0.4330      1.4434
   6173.0000      2.0972      2.2121      2.1760      1.5500      2.9707      2.9490      0.0000   -999.2500      0.2374      0.2173      2.1760      2.2122   -999.2500      2.0970    -11.1854    -33.3165    -13.1854    -11.1854      0.2232      0.4650      0.4606      1.5500
   6173.5000      2.0982      2.2131      2.1770      1.5595      2.9717      2.9503      0.0000   -999.2500      0.2372      0.2170      2.1770      2.2132   -999.2500      2.0980    -11.0524    -33.3251    -13.0524    -11.0524      0.2246      0.4678      0.4618      1.5595
   6174.0000      2.0922      2.2141      2.1640      1.5639      2.9723      2.9510      0.0000   -999.2500      0.2371      0.2168      2.1640      2.2142   -999.2500      2.0920    -10.9914    -33.3338    -12.9914    -10.9914      0.2252      0.4692      0.4623      1.5639
   6174.5000      2.0932      2.2191      2.1580      1.5583      2.9717      2.9502      0.0000   -999.2500      0.2372      0.2170      2.1580      2.2192   -999.2500      2.0930    -11.0754    -33.3425    -13.0754    -11.0754      0.2244      0.4675      0.4616      1.5583
   6175.0000      2.0942      2.2231      2.1590      1.5401      2.9697      2.9477      0.0000   -999.2500      0.2375      0.2175      2.1590      2.2232   -999.2500      2.0940    -11.3384    -33.3511    -13.3384    -11.3384      0.2218      0.4620      0.4593      1.5401
   6175.5000      2.0882      2.2271      2.1530      1.5093      2.9663      2.9435      0.0000   -999.2500      0.2354      0.2185      2.1530      2.2272   -999.2500      2.0880    -11.7814    -33.3598    -13.7814    -11.7814      0.2173      0.4528      0.4528      1.5093
   6176.0000      2.0892      2.2301      2.1610      1.4829      2.9640      2.9398      0.0000   -999.2500      0.2313      0.2192      2.1610      2.2302   -999.2500      2.0890    -12.0804    -33.3684    -14.0804    -12.0804      0.2135      0.4449      0.4449      1.4829
   6176.5000      2.0912      2.2341      2.1620      1.4783      2.9637      2.9392      0.0000   -999.2500      0.2306      0.2194      2.1620      2.2342   -999.2500      2.0910    -12.1274    -33.3771    -14.1274    -12.1274      0.2129      0.4435      0.4435      1.4783
   6177.0000      2.0992      2.2281      2.1670      1.4887      2.9645      2.9407      0.0000   -999.2500      0.2322      0.2191      2.1670      2.2282   -999.2500      2.0990    -12.0314    -33.3858    -14.0314    -12.0314      0.2144      0.4466      0.4466      1.4887
   6177.5000      2.1072      2.2291      2.1720      1.5121      2.9667      2.9440      0.0000   -999.2500      0.2359      0.2183      2.1720      2.2292   -999.2500      2.1070    -11.7534    -33.3944    -13.7534    -11.7534      0.2177      0.4536      0.4536      1.5121
   6178.0000      2.1082      2.2341      2.1840      1.5291      2.9686      2.9463      0.0000   -999.2500      0.2376      0.2178      2.1840      2.2342   -999.2500      2.1080    -11.5134    -33.4031    -13.5134    -11.5134      0.2202      0.4587      0.4578      1.5291
   6178.5000      2.1242      2.2391      2.1960      1.5436      2.9702      2.9484      0.0000   -999.2500      0.2374      0.2174      2.1960      2.2392   -999.2500      2.1240    -11.3084    -33.4117    -13.3084    -11.3084      0.2223      0.4631      0.4597      1.5436
