~V
VERS. 2.00: Ver 2.00
WRAP.   NO:        
~W
 STRT.FT 350:
 STOP.FT 6660:
 STEP.FT 0.5:
 NULL. -999.250000:
 COMP. Richfield (ARCO):Company
 WELL. SAN EMIDIO A 27-20 REDRILL:Well
 FLD. Los Lobos:Field
 LOC. S20 T11N R22W:Location
 STAT. CA:State
 SRVC. :Service Company
 SON. :Service Order #
 DATE. :Log Date
 UWI. 0143701:Unique Well ID
~C
 DEPT.FT :
 AM16.OHMM :
 AO10.OHMM :
 AO19.OHMM :
 LTHE. :
 MCRV. :
 MM. :
 PHES. :
 PHMX. :
 PHTS. :
 PHZC. :
 RD.OHMM :
 RM.OHMM :
 ROS. :
 RS.OHMM :
 SBL.MV :
 SCLN. :
 SP.MV :
 SPN.MV :
 VCDS. :
 VCLY. :
 VCWS. :
 VSHS. :
~P
~A
# ...
   6454.5000      2.9083      3.0232      3.7690      1.6089      2.9922      2.9721      0.0000   -999.2500      0.2317      0.2108      3.7690      3.0233   -999.2500      2.9080    -11.8634    -38.2116    -13.8634    -11.8634      0.2317      0.4827      0.4633      1.6089
   6455.0000      3.0023      3.2312      3.8340      1.6049      2.9918      2.9716      0.0000   -999.2500      0.2317      0.2109      3.8340      3.2313   -999.2500      3.0020    -11.9324    -38.2212    -13.9324    -11.9324      0.2311      0.4815      0.4628      1.6049
   6455.5000      3.0673      3.4252      3.8550      1.6075      2.9921      2.9720      0.0000   -999.2500      0.2317      0.2108      3.8550      3.4253   -999.2500      3.0670    -11.8924    -38.2308    -13.8924    -11.8924      0.2315      0.4823      0.4632      1.6075
   6456.0000      3.1173      3.5402      3.8770      1.6123      2.9927      2.9727      0.0000   -999.2500      0.2316      0.2107      3.8770      3.5404   -999.2500      3.1170    -11.8174    -38.2404    -13.8174    -11.8174      0.2322      0.4837      0.4637      1.6123
   6456.5000      3.1253      3.5622      3.9140      1.6171      2.9932      2.9734      0.0000   -999.2500      0.2315      0.2105      3.9140      3.5624   -999.2500      3.1250    -11.7414    -38.2500    -13.7414    -11.7414      0.2329      0.4851      0.4644      1.6171
   6457.0000      3.1033      3.5272      3.9280      1.6263      2.9943      2.9747      0.0000   -999.2500      0.2313      0.2103      3.9280      3.5274   -999.2500      3.1030    -11.5934    -38.2597    -13.5934    -11.5934      0.2342      0.4879      0.4655      1.6263
   6457.5000      3.0893      3.4842      3.9430      1.6398      2.9958      2.9766      0.0000   -999.2500      0.2311      0.2098      3.9430      3.4843   -999.2500      3.0890    -11.3744    -38.2693    -13.3744    -11.3744      0.2361      0.4919      0.4672      1.6398
   6458.0000      3.0613      3.3702      3.9650      1.6600      2.9980      2.9794      0.0000   -999.2500      0.2307      0.2092      3.9650      3.3703   -999.2500      3.0610    -11.0464    -38.2789    -13.0464    -11.0464      0.2390      0.4980      0.4698      1.6600
   6458.5000      3.0113      3.3052      3.6640      1.6757      2.9998      2.9816      0.0000   -999.2500      0.2305      0.2088      3.6640      3.3053   -999.2500      3.0110    -10.7914    -38.2885    -12.7914    -10.7914      0.2413      0.5027      0.4718      1.6757
   6459.0000      2.9973      3.1622      3.5280      1.6695      2.9992      2.9808      0.0000   -999.2500      0.2306      0.2089      3.5280      3.1623   -999.2500      2.9970    -10.8954    -38.2981    -12.8954    -10.8954      0.2404      0.5009      0.4710      1.6695
   6459.5000      2.9763      3.0482      3.3990      1.6634      2.9985      2.9799      0.0000   -999.2500      0.2307      0.2091      3.3990      3.0483   -999.2500      2.9760    -10.9994    -38.3077    -12.9994    -10.9994      0.2395      0.4990      0.4702      1.6634
   6460.0000      3.0343      2.9191      3.3060      1.6593      2.9981      2.9794      0.0000   -999.2500      0.2307      0.2092      3.3060      2.9193   -999.2500      3.0340    -11.0684    -38.3174    -13.0684    -11.0684      0.2389      0.4978      0.4697      1.6593
   6460.5000      3.1283      2.8331      3.2350      1.6510      2.9972      2.9783      0.0000   -999.2500      0.2308      0.2095      3.2350      2.8333   -999.2500      3.1280    -11.2084    -38.3270    -13.2084    -11.2084      0.2377      0.4953      0.4686      1.6510
   6461.0000      3.1423      2.7981      3.1780      1.6491      2.9970      2.9781      0.0000   -999.2500      0.2309      0.2095      3.1780      2.7983   -999.2500      3.1420    -11.2414    -38.3366    -13.2414    -11.2414      0.2375      0.4947      0.4683      1.6491
   6461.5000      3.1143      2.7191      3.1140      1.6473      2.9968      2.9778      0.0000   -999.2500      0.2309      0.2096      3.1140      2.7193   -999.2500      3.1140    -11.2744    -38.3462    -13.2744    -11.2744      0.2372      0.4942      0.4681      1.6473
   6462.0000      3.0783      2.6771      3.0780      1.6455      2.9967      2.9776      0.0000   -999.2500      0.2309      0.2096      3.0780      2.6773   -999.2500      3.0780    -11.3064    -38.3558    -13.3064    -11.3064      0.2370      0.4937      0.4679      1.6455
   6462.5000      3.0643      2.6411      3.0570      1.6481      2.9970      2.9780      0.0000   -999.2500      0.2309      0.2095      3.0570      2.6413   -999.2500      3.0640    -11.2664    -38.3654    -13.2664    -11.2664      0.2373      0.4944      0.4682      1.6481
   6463.0000      3.0723      2.6131      3.0290      1.6464      2.9968      2.9778      0.0000   -999.2500      0.2309      0.2096      3.0290      2.6133   -999.2500      3.0720    -11.2984    -38.3751    -13.2984    -11.2984      0.2371      0.4939      0.4680      1.6464
   6463.5000      3.1153      2.6061      3.0150      1.6424      2.9964      2.9773      0.0000   -999.2500      0.2309      0.2097      3.0150      2.6063   -999.2500      3.1150    -11.3664    -38.3847    -13.3664    -11.3664      0.2365      0.4927      0.4674      1.6424
   6464.0000      3.1373      2.6141      2.9720      1.6362      2.9957      2.9764      0.0000   -999.2500      0.2310      0.2098      2.9720      2.6143   -999.2500      3.1370    -11.4714    -38.3943    -13.4714    -11.4714      0.2356      0.4909      0.4667      1.6362
   6464.5000      3.3313      2.6141      2.9510      1.6322      2.9953      2.9759      0.0000   -999.2500      0.2311      0.2100      2.9510      2.6143   -999.2500      3.3310    -11.5404    -38.4039    -13.5404    -11.5404      0.2350      0.4896      0.4661      1.6322
   6465.0000      3.4894      2.6221      2.9230      1.6216      2.9942      2.9745      0.0000   -999.2500      0.2313      0.2103      2.9230      2.6223   -999.2500      3.4890    -11.7164    -38.4135    -13.7164    -11.7164      0.2335      0.4865      0.4648      1.6216
   6465.5000      3.6484      2.6361      2.8730      1.6155      2.9935      2.9736      0.0000   -999.2500      0.2314      0.2104      2.8730      2.6363   -999.2500      3.6480    -11.8204    -38.4231    -13.8204    -11.8204      0.2326      0.4847      0.4640      1.6155
   6466.0000      3.7774      2.6651      2.8370      1.6072      2.9926      2.9725      0.0000   -999.2500      0.2315      0.2107      2.8370      2.6653   -999.2500      3.7770    -11.9604    -38.4328    -13.9604    -11.9604      0.2314      0.4822      0.4629      1.6072
   6466.5000      3.9144      2.7091      2.8230      1.6010      2.9920      2.9717      0.0000   -999.2500      0.2316      0.2109      2.8230      2.7093   -999.2500      3.9140    -12.0654    -38.4424    -14.0654    -12.0654      0.2305      0.4803      0.4621      1.6010
   6467.0000      4.0294      2.7591      2.8740      1.5861      2.9903      2.9697      0.0000   -999.2500      0.2318      0.2113      2.8740      2.7593   -999.2500      4.0290    -12.3134    -38.4520    -14.3134    -12.3134      0.2284      0.4758      0.4602      1.5861
   6467.5000      4.1154      2.8031      2.9100      1.5756      2.9892      2.9682      0.0000   -999.2500      0.2320      0.2116      2.9100      2.8033   -999.2500      4.1150    -12.4904    -38.4616    -14.4904    -12.4904      0.2269      0.4727      0.4589      1.5756
   6468.0000      4.1444      2.8961      2.9820      1.5542      2.9869      2.9653      0.0000   -999.2500      0.2324      0.2122      2.9820      2.8963   -999.2500      4.1440    -12.8464    -38.4712    -14.8464    -12.8464      0.2238      0.4663      0.4562      1.5542
   6468.5000      4.1664      2.9681      3.0400      1.5436      2.9857      2.9638      0.0000   -999.2500      0.2325      0.2125      3.0400      2.9683   -999.2500      4.1660    -13.0234    -38.4808    -15.0234    -13.0234      0.2223      0.4631      0.4548      1.5436
