~V
VERS. 2.00: Ver 2.00
WRAP.   NO:        
~W
 STRT.FT 350:
 STOP.FT 6660:
 STEP.FT 0.5:
 NULL. -999.250000:
 COMP. Richfield (ARCO):Company
 WELL. SAN EMIDIO A 27-20 REDRILL:Well
 FLD. Los Lobos:Field
 LOC. S20 T11N R22W:Location
 STAT. CA:State
 SRVC. :Service Company
 SON. :Service Order #
 DATE. :Log Date
 UWI. 0143701:Unique Well ID
~C
 DEPT.FT :
 AM16.OHMM :
 AO10.OHMM :
 AO19.OHMM :
 LTHE. :
 MCRV. :
 MM. :
 PHES. :
 PHMX. :
 PHTS. :
 PHZC. :
 RD.OHMM :
 RM.OHMM :
 ROS. :
 RS.OHMM :
 SBL.MV :
 SCLN. :
 SP.MV :
 SPN.MV :
 VCDS. :
 VCLY. :
 VCWS. :
 VSHS. :
~P
~A
# ...
   6353.0000      5.9156      2.6951      2.1280      0.9000      2.9230      2.6773      0.1000   -999.2500      0.2450      0.2329      2.1280      2.6953   -999.2500      5.9150    -18.9566    -36.4339    -20.9566    -18.9566      0.1338      0.2787      0.2787      0.9000
   6353.5000      6.8337      3.2322      2.6440      0.8290      2.9120      2.5814      0.1173   -999.2500      0.2466      0.2359      2.6440      3.2323   -999.2500      6.8330    -20.0017    -36.4425    -22.0017    -20.0017      0.1194      0.2487      0.2487      0.8290
   6354.0000     10.9862      3.6772      3.1740      0.7533      2.8921      2.5087      0.1304   -999.2500      0.2479      0.2382      3.1740      3.6774   -999.2500     10.9850    -20.7947    -36.4512    -22.7947    -20.7947      0.1085      0.2260      0.2260      0.7533
   6354.5000     10.6131      4.2362      3.6330      0.7469      2.8872      2.5026      0.1315   -999.2500      0.2480      0.2384      3.6330      4.2364   -999.2500     10.6120    -20.8667    -36.4598    -22.8667    -20.8667      0.1076      0.2241      0.2241      0.7469
   6355.0000      9.9740      4.7882      4.0920      0.8440      2.9137      2.5958      0.1147   -999.2500      0.2464      0.2354      4.0920      4.7885   -999.2500      9.9730    -19.8597    -36.4685    -21.8597    -19.8597      0.1215      0.2532      0.2532      0.8440
   6355.5000      8.6249      5.0533      4.4720      0.9254      2.9394      2.8184      0.0746   -999.2500      0.2424      0.2285      4.4720      5.0535   -999.2500      8.6240    -17.4486    -36.4771    -19.4486    -17.4486      0.1549      0.3227      0.3227      0.9254
   6356.0000      7.1758      5.0092      4.5500      0.9404      2.9490      2.9017      0.0596   -999.2500      0.2409      0.2259      4.5500      5.0095   -999.2500      7.1750    -16.5486    -36.4858    -18.5486    -16.5486      0.1674      0.3488      0.3488      0.9404
   6356.5000      5.2385      4.1982      4.2770      0.9405      2.9491      2.9020      0.0595   -999.2500      0.2409      0.2258      4.2770      4.1984   -999.2500      5.2380    -16.5496    -36.4945    -18.5496    -16.5496      0.1674      0.3488      0.3488      0.9405
   6357.0000      3.2443      2.8851      4.0330      1.1700      2.9499      2.9062      0.0000   -999.2500      0.1825      0.2256      4.0330      2.8853   -999.2500      3.2440    -16.4786    -36.5031    -18.4786    -16.4786      0.1685      0.3510      0.3510      1.1700
   6357.5000      2.8353      2.3761      3.5450      1.2912      2.9595      2.9230      0.0000   -999.2500      0.2014      0.2220      3.5450      2.3762   -999.2500      2.8350    -15.2185    -36.5118    -17.2185    -15.2185      0.1859      0.3873      0.3873      1.2912
   6358.0000      2.6843      2.1461      3.0140      1.3570      2.9644      2.9321      0.0000   -999.2500      0.2117      0.2200      3.0140      2.1462   -999.2500      2.6840    -14.5355    -36.5204    -16.5355    -14.5355      0.1954      0.4071      0.4071      1.3570
   6358.5000      2.5693      2.0241      2.3970      1.4296      2.9698      2.9422      0.0000   -999.2500      0.2230      0.2178      2.3970      2.0242   -999.2500      2.5690    -13.7805    -36.5291    -15.7805    -13.7805      0.2059      0.4289      0.4289      1.4296
   6359.0000      2.4753      1.9301      1.9230      1.4712      2.9729      2.9480      0.0000   -999.2500      0.2295      0.2165      1.9230      1.9302   -999.2500      2.4750    -13.3495    -36.5378    -15.3495    -13.3495      0.2119      0.4414      0.4414      1.4712
   6359.5000      2.4393      1.8581      1.7580      1.4819      2.9737      2.9495      0.0000   -999.2500      0.2312      0.2162      1.7580      1.8582   -999.2500      2.4390    -13.2415    -36.5464    -15.2415    -13.2415      0.2134      0.4446      0.4446      1.4819
   6360.0000      2.3963      1.8071      1.7640      1.4924      2.9745      2.9510      0.0000   -999.2500      0.2328      0.2159      1.7640      1.8072   -999.2500      2.3960    -13.1345    -36.5551    -15.1345    -13.1345      0.2149      0.4477      0.4477      1.4924
   6360.5000      2.4103      1.7501      1.7780      1.4892      2.9743      2.9505      0.0000   -999.2500      0.2323      0.2160      1.7780      1.7502   -999.2500      2.4100    -13.1714    -36.5637    -15.1714    -13.1714      0.2144      0.4468      0.4468      1.4892
   6361.0000      2.4503      1.7421      1.8070      1.4894      2.9744      2.9506      0.0000   -999.2500      0.2323      0.2160      1.8070      1.7422   -999.2500      2.4500    -13.1725    -36.5724    -15.1725    -13.1725      0.2145      0.4468      0.4468      1.4894
   6361.5000      2.4903      1.7781      1.8640      1.4879      2.9743      2.9504      0.0000   -999.2500      0.2321      0.2160      1.8640      1.7782   -999.2500      2.4900    -13.1915    -36.5811    -15.1915    -13.1915      0.2143      0.4464      0.4464      1.4879
   6362.0000      2.5303      1.8631      1.8920      1.4864      2.9742      2.9502      0.0000   -999.2500      0.2319      0.2160      1.8920      1.8632   -999.2500      2.5300    -13.2105    -36.5897    -15.2105    -13.2105      0.2140      0.4459      0.4459      1.4864
   6362.5000      2.6023      2.0141      1.9280      1.4832      2.9740      2.9498      0.0000   -999.2500      0.2314      0.2161      1.9280      2.0142   -999.2500      2.6020    -13.2465    -36.5984    -15.2465    -13.2465      0.2136      0.4450      0.4450      1.4832
   6363.0000      2.6093      2.2071      1.9630      1.4800      2.9738      2.9494      0.0000   -999.2500      0.2309      0.2162      1.9630      2.2072   -999.2500      2.6090    -13.2835    -36.6070    -15.2835    -13.2835      0.2131      0.4440      0.4440      1.4800
   6363.5000      2.6373      2.4001      2.0060      1.4767      2.9736      2.9490      0.0000   -999.2500      0.2304      0.2163      2.0060      2.4002   -999.2500      2.6370    -13.3205    -36.6157    -15.3205    -13.3205      0.2126      0.4430      0.4430      1.4767
   6364.0000      2.6803      2.6801      2.0480      1.4735      2.9734      2.9486      0.0000   -999.2500      0.2299      0.2164      2.0480      2.6803   -999.2500      2.6800    -13.3575    -36.6244    -15.3575    -13.3575      0.2122      0.4420      0.4420      1.4735
   6364.5000      2.7083      2.8731      2.1050      1.4533      2.9719      2.9458      0.0000   -999.2500      0.2267      0.2170      2.1050      2.8733   -999.2500      2.7080    -13.5725    -36.6330    -15.5725    -13.5725      0.2093      0.4360      0.4360      1.4533
   6365.0000      2.7363      3.1092      2.1630      1.4397      2.9709      2.9439      0.0000   -999.2500      0.2246      0.2174      2.1630      3.1093   -999.2500      2.7360    -13.7175    -36.6417    -15.7175    -13.7175      0.2073      0.4319      0.4319      1.4397
   6365.5000      2.7573      3.2742      2.2340      1.4262      2.9699      2.9421      0.0000   -999.2500      0.2225      0.2178      2.2340      3.2743   -999.2500      2.7570    -13.8625    -36.6503    -15.8625    -13.8625      0.2054      0.4279      0.4279      1.4262
   6366.0000      2.7713      3.4532      2.4060      1.3989      2.9680      2.9383      0.0000   -999.2500      0.2182      0.2186      2.4060      3.4533   -999.2500      2.7710    -14.1515    -36.6590    -16.1515    -14.1515      0.2014      0.4197      0.4197      1.3989
   6366.5000      2.7853      3.5312      2.6130      1.3683      2.9657      2.9341      0.0000   -999.2500      0.2135      0.2195      2.6130      3.5314   -999.2500      2.7850    -14.4755    -36.6677    -16.4755    -14.4755      0.1970      0.4105      0.4105      1.3683
   6367.0000      2.7923      3.5672      2.7850      1.3273      2.9627      2.9285      0.0000   -999.2500      0.2071      0.2207      2.7850      3.5674   -999.2500      2.7920    -14.9085    -36.6763    -16.9085    -14.9085      0.1911      0.3982      0.3982      1.3273
