~V
VERS. 2.00: Ver 2.00
WRAP.   NO:        
~W
 STRT.FT 350:
 STOP.FT 6660:
 STEP.FT 0.5:
 NULL. -999.250000:
 COMP. Richfield (ARCO):Company
 WELL. SAN EMIDIO A 27-20 REDRILL:Well
 FLD. Los Lobos:Field
 LOC. S20 T11N R22W:Location
 STAT. CA:State
 SRVC. :Service Company
 SON. :Service Order #
 DATE. :Log Date
 UWI. 0143701:Unique Well ID
~C
 DEPT.FT :
 AM16.OHMM :
 AO10.OHMM :
 AO19.OHMM :
 LTHE. :
 MCRV. :
 MM. :
 PHES. :
 PHMX. :
 PHTS. :
 PHZC. :
 RD.OHMM :
 RM.OHMM :
 ROS. :
 RS.OHMM :
 SBL.MV :
 SCLN. :
 SP.MV :
 SPN.MV :
 VCDS. :
 VCLY. :
 VCWS. :
 VSHS. :
~P
~A
# ...
   5294.5000      1.7612      1.7971      1.8970      1.5620      2.9251      2.9038      0.0000   -999.2500      0.2437      0.2316      1.8970      1.7972   -999.2500      1.7610     -5.9842    -18.1020     -4.9401     -5.9842      0.2249      0.4686      0.4686      1.5620
   5295.0000      1.8472      1.8331      1.8900      1.5131      2.9197      2.8970      0.0000   -999.2500      0.2360      0.2330      1.8900      1.8332   -999.2500      1.8470     -6.3665    -18.1106     -5.2992     -6.3665      0.2179      0.4539      0.4539      1.5131
   5295.5000      2.0042      1.9401      1.9040      1.4462      2.9143      2.8878      0.0000   -999.2500      0.2256      0.2350      1.9040      1.9402   -999.2500      2.0040     -6.7498    -18.1193     -5.6592     -6.7498      0.2082      0.4339      0.4339      1.4462
   5296.0000      2.0902      2.0471      1.9320      1.3730      2.9090      2.8777      0.0000   -999.2500      0.2142      0.2372      1.9320      2.0472   -999.2500      2.0900     -7.1322    -18.1280     -6.0182     -7.1322      0.1977      0.4119      0.4119      1.3730
   5296.5000      2.1902      2.1111      2.0900      1.2962      2.9033      2.8671      0.0000   -999.2500      0.2022      0.2395      2.0900      2.1112   -999.2500      2.1900     -7.5335    -18.1366     -6.3962     -7.5335      0.1867      0.3889      0.3889      1.2962
   5297.0000      2.3402      2.1681      2.4980      1.2197      2.8977      2.8565      0.0000   -999.2500      0.1903      0.2418      2.4980      2.1682   -999.2500      2.3400     -7.9338    -18.1453     -6.7732     -7.9338      0.1756      0.3659      0.3659      1.2197
   5297.5000      2.4403      2.2471      3.0500      0.9200      2.8908      2.8300      0.0800   -999.2500      0.2588      0.2440      3.0500      2.2472   -999.2500      2.4400     -8.3162    -18.1539     -7.1322     -8.3162      0.1651      0.3440      0.3440      0.9200
   5298.0000      2.5403      2.3971      3.4590      0.9086      2.8836      2.7667      0.0914   -999.2500      0.2600      0.2459      3.4590      2.3972   -999.2500      2.5400     -8.6625    -18.1626     -7.4552     -8.6625      0.1556      0.3242      0.3242      0.9086
   5298.5000      2.6123      2.5261      3.7880      0.8984      2.8770      2.7101      0.1016   -999.2500      0.2609      0.2477      3.7880      2.5263   -999.2500      2.6120     -8.9728    -18.1713     -7.7422     -8.9728      0.1471      0.3065      0.3065      0.8984
   5299.0000      2.6403      2.7551      4.0390      0.8931      2.8736      2.6802      0.1069   -999.2500      0.2615      0.2486      4.0390      2.7553   -999.2500      2.6400     -9.1391    -18.1799     -7.8852     -9.1391      0.1426      0.2972      0.2972      0.8931
   5299.5000      2.6473      3.0272      4.1530      0.8972      2.8763      2.7033      0.1028   -999.2500      0.2611      0.2479      4.1530      3.0273   -999.2500      2.6470     -9.0184    -18.1886     -7.7412     -9.0184      0.1461      0.3044      0.3044      0.8972
   5300.0000      2.5893      3.1632      4.1960      0.9122      2.8859      2.7864      0.0878   -999.2500      0.2596      0.2453      4.1960      3.1633   -999.2500      2.5890     -8.5727    -18.1972     -7.2722     -8.5727      0.1586      0.3303      0.3303      0.9122
   5300.5000      2.4033      3.2422      4.1960      1.2151      2.8976      2.8561      0.0000   -999.2500      0.1896      0.2419      4.1960      3.2423   -999.2500      2.4030     -7.9840    -18.2059     -6.6602     -7.9840      0.1750      0.3645      0.3645      1.2151
   5301.0000      2.2742      3.1132      3.8880      1.3564      2.9080      2.8757      0.0000   -999.2500      0.2116      0.2376      3.8880      3.1133   -999.2500      2.2740     -7.2523    -18.2146     -5.9052     -7.2523      0.1953      0.4069      0.4069      1.3564
   5301.5000      2.1882      2.8411      3.4360      1.5354      2.9226      2.9005      0.0000   -999.2500      0.2395      0.2322      3.4360      2.8413   -999.2500      2.1880     -6.2316    -18.2232     -4.8611     -6.2316      0.2211      0.4606      0.4606      1.5354
   5302.0000      2.1382      2.5401      3.0560      1.6710      2.9376      2.9193      0.0000   -999.2500      0.2498      0.2282      3.0560      2.5403   -999.2500      2.1380     -5.1749    -18.2319     -3.7811     -5.1749      0.2406      0.5013      0.4904      1.6710
   5302.5000      2.0882      2.2681      2.6260      1.7005      2.9409      2.9234      0.0000   -999.2500      0.2493      0.2273      2.6260      2.2682   -999.2500      2.0880     -4.9472    -18.2405     -3.5301     -4.9472      0.2449      0.5101      0.4942      1.7005
   5303.0000      2.0022      2.0171      2.1820      1.6794      2.9386      2.9205      0.0000   -999.2500      0.2497      0.2279      2.1820      2.0172   -999.2500      2.0020     -5.1145    -18.2492     -3.6741     -5.1145      0.2418      0.5038      0.4915      1.6794
   5303.5000      1.8882      1.8521      1.9170      1.6721      2.9378      2.9195      0.0000   -999.2500      0.2498      0.2281      1.9170      1.8522   -999.2500      1.8880     -5.1738    -18.2579     -3.7101     -5.1738      0.2408      0.5016      0.4906      1.6721
   5304.0000      1.7592      1.7161      1.7300      1.6603      2.9365      2.9179      0.0000   -999.2500      0.2500      0.2285      1.7300      1.7162   -999.2500      1.7590     -5.2692    -18.2665     -3.7821     -5.2692      0.2391      0.4981      0.4890      1.6603
   5304.5000      1.6872      1.6371      1.6370      1.6575      2.9362      2.9175      0.0000   -999.2500      0.2500      0.2285      1.6370      1.6372   -999.2500      1.6870     -5.2935    -18.2752     -3.7831     -5.2935      0.2387      0.4972      0.4887      1.6575
   5305.0000      1.6592      1.6021      1.6020      1.6594      2.9365      2.9178      0.0000   -999.2500      0.2500      0.2285      1.6020      1.6022   -999.2500      1.6590     -5.2808    -18.2838     -3.7471     -5.2808      0.2390      0.4978      0.4889      1.6594
   5305.5000      1.6452      1.5951      1.5660      1.6612      2.9367      2.9181      0.0000   -999.2500      0.2499      0.2284      1.5660      1.5952   -999.2500      1.6450     -5.2691    -18.2925     -3.7121     -5.2691      0.2392      0.4984      0.4891      1.6612
   5306.0000      1.6382      1.6021      1.5380      1.6632      2.9370      2.9184      0.0000   -999.2500      0.2499      0.2283      1.5380      1.6022   -999.2500      1.6380     -5.2564    -18.3011     -3.6761     -5.2564      0.2395      0.4989      0.4894      1.6632
   5306.5000      1.6382      1.6091      1.5230      1.6787      2.9387      2.9206      0.0000   -999.2500      0.2496      0.2279      1.5230      1.6092   -999.2500      1.6380     -5.1367    -18.3098     -3.5331     -5.1367      0.2417      0.5036      0.4913      1.6787
   5307.0000      1.6602      1.6241      1.5200      1.6990      2.9410      2.9234      0.0000   -999.2500      0.2493      0.2272      1.5200      1.6242   -999.2500      1.6600     -4.9800    -18.3185     -3.3531     -4.9800      0.2447      0.5097      0.4939      1.6990
   5307.5000      1.6822      1.6671      1.5170      1.7284      2.9443      2.9275      0.0000   -999.2500      0.2487      0.2264      1.5170      1.6672   -999.2500      1.6820     -4.7513    -18.3271     -3.1011     -4.7513      0.2489      0.5185      0.4976      1.7284
   5308.0000      1.6922      1.7611      1.5240      1.7485      2.9465      2.9303      0.0000   -999.2500      0.2484      0.2257      1.5240      1.7612   -999.2500      1.6920     -4.5957    -18.3358     -2.9221     -4.5957      0.2518      0.5246      0.5002      1.7485
   5308.5000      1.7032      1.8471      1.5280      1.7825      2.9503      2.9350      0.0000   -999.2500      0.2478      0.2247      1.5280      1.8472   -999.2500      1.7030     -4.3310    -18.3444     -2.6341     -4.3310      0.2567      0.5347      0.5045      1.7825
