~V
VERS. 2.00: Ver 2.00
WRAP.   NO:        
~W
 STRT.FT 350:
 STOP.FT 6660:
 STEP.FT 0.5:
 NULL. -999.250000:
 COMP. Richfield (ARCO):Company
 WELL. SAN EMIDIO A 27-20 REDRILL:Well
 FLD. Los Lobos:Field
 LOC. S20 T11N R22W:Location
 STAT. CA:State
 SRVC. :Service Company
 SON. :Service Order #
 DATE. :Log Date
 UWI. 0143701:Unique Well ID
~C
 DEPT.FT :
 AM16.OHMM :
 AO10.OHMM :
 AO19.OHMM :
 LTHE. :
 MCRV. :
 MM. :
 PHES. :
 PHMX. :
 PHTS. :
 PHZC. :
 RD.OHMM :
 RM.OHMM :
 ROS. :
 RS.OHMM :
 SBL.MV :
 SCLN. :
 SP.MV :
 SPN.MV :
 VCDS. :
 VCLY. :
 VCWS. :
 VSHS. :
~P
~A
# ...
   6541.5000     33.5215     44.6732     30.7212      0.0000      3.0771      2.0155      0.2576   -999.2500      0.2576      0.2576     30.7210     44.6755   -999.2500     33.5180    -94.0789   -999.2500    -96.0789    -94.0789      0.0000      0.0000      0.0000      0.0000
   6542.0000     33.9546     44.4242     31.5842      0.0000      3.0771      2.0156      0.2576   -999.2500      0.2576      0.2576     31.5840     44.4264   -999.2500     33.9510    -95.0029   -999.2500    -97.0029    -95.0029      0.0000      0.0000      0.0000      0.0000
   6542.5000     34.3876     44.1762     32.0892      0.0000      3.0771      2.0156      0.2576   -999.2500      0.2576      0.2576     32.0890     44.1784   -999.2500     34.3840    -96.1770   -999.2500    -98.1770    -96.1770      0.0000      0.0000      0.0000      0.0000
   6543.0000     35.3237     43.9272     32.5932      0.0000      3.0772      2.0156      0.2576   -999.2500      0.2576      0.2576     32.5930     43.9294   -999.2500     35.3200    -99.4530   -999.2500   -101.4530    -99.4530      0.0000      0.0000      0.0000      0.0000
   6543.5000     36.9759     43.5012     33.3862      0.0000      3.0772      2.0157      0.2576   -999.2500      0.2576      0.2576     33.3860     43.5033   -999.2500     36.9720   -100.2701   -999.2500   -102.2701   -100.2701      0.0000      0.0000      0.0000      0.0000
   6544.0000     38.4140     43.3612     33.7472      0.0000      3.0772      2.0157      0.2576   -999.2500      0.2576      0.2576     33.7470     43.3633   -999.2500     38.4100   -100.9441   -999.2500   -102.9441   -100.9441      0.0000      0.0000      0.0000      0.0000
   6544.5000     39.9942     43.2922     33.8222      0.0000      3.0772      2.0157      0.2576   -999.2500      0.2576      0.2576     33.8220     43.2943   -999.2500     39.9900   -102.2601   -999.2500   -104.2601   -102.2601      0.0000      0.0000      0.0000      0.0000
   6545.0000     41.6474     43.2942     33.9682      0.0000      3.0773      2.0157      0.2576   -999.2500      0.2576      0.2576     33.9680     43.2963   -999.2500     41.6430   -103.4342   -999.2500   -105.4342   -103.4342      0.0000      0.0000      0.0000      0.0000
   6545.5000     42.7975     43.1542     34.1142      0.0000      3.0773      2.0158      0.2576   -999.2500      0.2576      0.2576     34.1140     43.1563   -999.2500     42.7930   -104.4652   -999.2500   -106.4652   -104.4652      0.0000      0.0000      0.0000      0.0000
   6546.0000     43.3745     43.0852     34.4052      0.0000      3.0773      2.0158      0.2576   -999.2500      0.2576      0.2576     34.4050     43.0873   -999.2500     43.3700   -105.0322   -999.2500   -107.0322   -105.0322      0.0000      0.0000      0.0000      0.0000
   6546.5000     44.1666     43.0511     34.5862      0.0000      3.0774      2.0158      0.2576   -999.2500      0.2576      0.2576     34.5860     43.0533   -999.2500     44.1620   -104.8872   -999.2500   -106.8872   -104.8872      0.0000      0.0000      0.0000      0.0000
   6547.0000     44.7427     43.0181     34.7682      0.0000      3.0774      2.0158      0.2576   -999.2500      0.2576      0.2576     34.7680     43.0203   -999.2500     44.7380   -104.4202   -999.2500   -106.4202   -104.4202      0.0000      0.0000      0.0000      0.0000
   6547.5000     45.4628     43.1662     35.2732      0.0000      3.0774      2.0159      0.2575   -999.2500      0.2575      0.2575     35.2730     43.1683   -999.2500     45.4580   -103.8822   -999.2500   -105.8822   -103.8822      0.0000      0.0000      0.0000      0.0000
   6548.0000     46.1118     43.5272     35.6362      0.0000      3.0774      2.0159      0.2575   -999.2500      0.2575      0.2575     35.6360     43.5294   -999.2500     46.1070   -103.4522   -999.2500   -105.4522   -103.4522      0.0000      0.0000      0.0000      0.0000
   6548.5000     47.1189     44.3912     35.9252      0.0000      3.0775      2.0159      0.2575   -999.2500      0.2575      0.2575     35.9250     44.3934   -999.2500     47.1140   -103.5202   -999.2500   -105.5202   -103.5202      0.0000      0.0000      0.0000      0.0000
   6549.0000     47.9110     44.8952     36.2862      0.0000      3.0775      2.0159      0.2575   -999.2500      0.2575      0.2575     36.2860     44.8975   -999.2500     47.9060   -104.1232   -999.2500   -106.1232   -104.1232      0.0000      0.0000      0.0000      0.0000
   6549.5000     48.6311     45.3993     36.5042      0.0000      3.0775      2.0160      0.2575   -999.2500      0.2575      0.2575     36.5040     45.4015   -999.2500     48.6260   -104.9752   -999.2500   -106.9752   -104.9752      0.0000      0.0000      0.0000      0.0000
   6550.0000     49.2792     46.8383     36.7602      0.0000      3.0775      2.0160      0.2575   -999.2500      0.2575      0.2575     36.7600     46.8407   -999.2500     49.2740   -105.7572   -999.2500   -107.7572   -105.7572      0.0000      0.0000      0.0000      0.0000
   6550.5000     50.0042     47.4554     37.0162      0.0000      3.0776      2.0160      0.2575   -999.2500      0.2575      0.2575     37.0160     47.4577   -999.2500     49.9990   -106.0032   -999.2500   -108.0032   -106.0032      0.0000      0.0000      0.0000      0.0000
   6551.0000     50.9444     48.0724     37.6712      0.0000      3.0776      2.0161      0.2575   -999.2500      0.2575      0.2575     37.6710     48.0748   -999.2500     50.9390   -106.1432   -999.2500   -108.1432   -106.1432      0.0000      0.0000      0.0000      0.0000
   6551.5000     52.0295     50.4485     37.9652      0.0000      3.0776      2.0161      0.2575   -999.2500      0.2575      0.2575     37.9650     50.4510   -999.2500     52.0240   -106.1042   -999.2500   -108.1042   -106.1042      0.0000      0.0000      0.0000      0.0000
   6552.0000     53.0406     51.8186     38.2592      0.0000      3.0776      2.0161      0.2575   -999.2500      0.2575      0.2575     38.2590     51.8212   -999.2500     53.0350   -105.9942   -999.2500   -107.9942   -105.9942      0.0000      0.0000      0.0000      0.0000
   6552.5000     53.9097     53.4757     39.2722      0.0000      3.0777      2.0161      0.2575   -999.2500      0.2575      0.2575     39.2720     53.4783   -999.2500     53.9040   -105.8482   -999.2500   -107.8482   -105.8482      0.0000      0.0000      0.0000      0.0000
   6553.0000     55.3518     55.5638     39.9972      0.0000      3.0777      2.0162      0.2574   -999.2500      0.2574      0.2574     39.9970     55.5666   -999.2500     55.3460   -105.6672   -999.2500   -107.6672   -105.6672      0.0000      0.0000      0.0000      0.0000
   6553.5000     56.6509     57.8669     39.8622      0.0000      3.0777      2.0162      0.2574   -999.2500      0.2574      0.2574     39.8620     57.8698   -999.2500     56.6450   -105.2722   -999.2500   -107.2722   -105.2722      0.0000      0.0000      0.0000      0.0000
   6554.0000     58.0931     60.1710     39.5832      0.0000      3.0778      2.0162      0.2574   -999.2500      0.2574      0.2574     39.5830     60.1740   -999.2500     58.0870   -104.8412   -999.2500   -106.8412   -104.8412      0.0000      0.0000      0.0000      0.0000
   6554.5000     60.5404     62.5461     39.4472      0.0000      3.0778      2.0162      0.2574   -999.2500      0.2574      0.2574     39.4470     62.5493   -999.2500     60.5340   -104.2682   -999.2500   -106.2682   -104.2682      0.0000      0.0000      0.0000      0.0000
   6555.0000     62.3415     64.2742     39.4552      0.0000      3.0778      2.0163      0.2574   -999.2500      0.2574      0.2574     39.4550     64.2774   -999.2500     62.3350   -103.4092   -999.2500   -105.4092   -103.4092      0.0000      0.0000      0.0000      0.0000
   6555.5000     64.1427     68.3714     39.9652      0.0000      3.0778      2.0163      0.2574   -999.2500      0.2574      0.2574     39.9650     68.3748   -999.2500     64.1360   -102.5141   -999.2500   -104.5141   -102.5141      0.0000      0.0000      0.0000      0.0000
