~V
VERS. 2.00: Ver 2.00
WRAP.   NO:        
~W
 STRT.FT 350:
 STOP.FT 6660:
 STEP.FT 0.5:
 NULL. -999.250000:
 COMP. Richfield (ARCO):Company
 WELL. SAN EMIDIO A 27-20 REDRILL:Well
 FLD. Los Lobos:Field
 LOC. S20 T11N R22W:Location
 STAT. CA:State
 SRVC. :Service Company
 SON. :Service Order #
 DATE. :Log Date
 UWI. 0143701:Unique Well ID
~C
 DEPT.FT :
 AM16.OHMM :
 AO10.OHMM :
 AO19.OHMM :
 LTHE. :
 MCRV. :
 MM. :
 PHES. :
 PHMX. :
 PHTS. :
 PHZC. :
 RD.OHMM :
 RM.OHMM :
 ROS. :
 RS.OHMM :
 SBL.MV :
 SCLN. :
 SP.MV :
 SPN.MV :
 VCDS. :
 VCLY. :
 VCWS. :
 VSHS. :
~P
~A
# ...
   5961.5000      2.0352      2.0821      2.1720      1.3557      2.9432      2.9108      0.0000   -999.2500      0.2115      0.2266      2.1720      2.0822   -999.2500      2.0350    -11.8134    -29.6536    -13.8134    -11.8134      0.1952      0.4067      0.4067      1.3557
   5962.0000      2.0072      2.0571      2.1500      1.3858      2.9454      2.9150      0.0000   -999.2500      0.2162      0.2257      2.1500      2.0572   -999.2500      2.0070    -11.5614    -29.6622    -13.5614    -11.5614      0.1996      0.4157      0.4157      1.3858
   5962.5000      1.9782      2.0421      2.1430      1.4284      2.9486      2.9209      0.0000   -999.2500      0.2228      0.2244      2.1430      2.0422   -999.2500      1.9780    -11.2034    -29.6709    -13.2034    -11.2034      0.2057      0.4285      0.4285      1.4284
   5963.0000      1.9632      2.0281      2.1350      1.4797      2.9524      2.9280      0.0000   -999.2500      0.2308      0.2229      2.1350      2.0282   -999.2500      1.9630    -10.7724    -29.6796    -12.7724    -10.7724      0.2131      0.4439      0.4439      1.4797
   5963.5000      1.9522      2.0171      2.1350      1.5121      2.9553      2.9325      0.0000   -999.2500      0.2359      0.2219      2.1350      2.0172   -999.2500      1.9520    -10.4494    -29.6882    -12.4494    -10.4494      0.2177      0.4536      0.4536      1.5121
   5964.0000      1.9422      2.0061      2.1350      1.5235      2.9566      2.9342      0.0000   -999.2500      0.2377      0.2216      2.1350      2.0062   -999.2500      1.9420    -10.3064    -29.6969    -12.3064    -10.3064      0.2194      0.4571      0.4571      1.5235
   5964.5000      1.9422      1.9921      2.1350      1.5265      2.9569      2.9346      0.0000   -999.2500      0.2381      0.2215      2.1350      1.9922   -999.2500      1.9420    -10.2714    -29.7055    -12.2714    -10.2714      0.2198      0.4580      0.4580      1.5265
   5965.0000      1.9342      1.9851      2.1350      1.5126      2.9554      2.9327      0.0000   -999.2500      0.2360      0.2219      2.1350      1.9852   -999.2500      1.9340    -10.4524    -29.7142    -12.4524    -10.4524      0.2178      0.4538      0.4538      1.5126
   5965.5000      1.9272      1.9811      2.1420      1.4894      2.9533      2.9295      0.0000   -999.2500      0.2323      0.2226      2.1420      1.9812   -999.2500      1.9270    -10.7054    -29.7228    -12.7054    -10.7054      0.2145      0.4468      0.4468      1.4894
   5966.0000      1.9272      1.9771      2.1490      1.4685      2.9518      2.9266      0.0000   -999.2500      0.2291      0.2232      2.1490      1.9772   -999.2500      1.9270    -10.8864    -29.7315    -12.8864    -10.8864      0.2115      0.4405      0.4405      1.4685
   5966.5000      1.9272      1.9701      2.1560      1.4306      2.9490      2.9214      0.0000   -999.2500      0.2232      0.2243      2.1560      1.9702   -999.2500      1.9270    -11.2114    -29.7402    -13.2114    -11.2114      0.2060      0.4292      0.4292      1.4306
   5967.0000      1.9202      1.9631      2.1640      1.3970      2.9465      2.9168      0.0000   -999.2500      0.2179      0.2253      2.1640      1.9632   -999.2500      1.9200    -11.5004    -29.7488    -13.5004    -11.5004      0.2012      0.4191      0.4191      1.3970
   5967.5000      1.9162      1.9481      2.1710      1.3676      2.9444      2.9128      0.0000   -999.2500      0.2133      0.2262      2.1710      1.9482   -999.2500      1.9160    -11.7534    -29.7575    -13.7534    -11.7534      0.1969      0.4103      0.4103      1.3676
   5968.0000      1.9122      1.9451      2.1780      1.3339      2.9419      2.9081      0.0000   -999.2500      0.2081      0.2272      2.1780      1.9452   -999.2500      1.9120    -12.0434    -29.7661    -14.0434    -12.0434      0.1921      0.4002      0.4002      1.3339
   5968.5000      1.9122      1.9411      2.1810      1.3215      2.9410      2.9064      0.0000   -999.2500      0.2062      0.2275      2.1810      1.9412   -999.2500      1.9120    -12.1524    -29.7748    -14.1524    -12.1524      0.1903      0.3964      0.3964      1.3215
   5969.0000      1.9052      1.9411      2.1850      1.3177      2.9408      2.9059      0.0000   -999.2500      0.2056      0.2277      2.1850      1.9412   -999.2500      1.9050    -12.1884    -29.7835    -14.1884    -12.1884      0.1897      0.3953      0.3953      1.3177
   5969.5000      1.9052      1.9411      2.1920      1.3221      2.9411      2.9066      0.0000   -999.2500      0.2062      0.2275      2.1920      1.9412   -999.2500      1.9050    -12.1544    -29.7921    -14.1544    -12.1544      0.1904      0.3966      0.3966      1.3221
   5970.0000      1.9052      1.9441      2.1990      1.3308      2.9418      2.9078      0.0000   -999.2500      0.2076      0.2272      2.1990      1.9442   -999.2500      1.9050    -12.0834    -29.8008    -14.0834    -12.0834      0.1916      0.3993      0.3993      1.3308
   5970.5000      1.8982      1.9481      2.2060      1.3396      2.9425      2.9090      0.0000   -999.2500      0.2090      0.2270      2.2060      1.9482   -999.2500      1.8980    -12.0124    -29.8094    -14.0124    -12.0124      0.1929      0.4019      0.4019      1.3396
   5971.0000      1.8942      1.9511      2.2130      1.3483      2.9432      2.9103      0.0000   -999.2500      0.2103      0.2267      2.2130      1.9512   -999.2500      1.8940    -11.9414    -29.8181    -13.9414    -11.9414      0.1942      0.4045      0.4045      1.3483
   5971.5000      1.8902      1.9551      2.2200      1.3548      2.9437      2.9112      0.0000   -999.2500      0.2114      0.2265      2.2200      1.9552   -999.2500      1.8900    -11.8894    -29.8268    -13.8894    -11.8894      0.1951      0.4065      0.4065      1.3548
   5972.0000      1.8902      1.9551      2.2420      1.3615      2.9442      2.9121      0.0000   -999.2500      0.2124      0.2263      2.2420      1.9552   -999.2500      1.8900    -11.8364    -29.8354    -13.8364    -11.8364      0.1961      0.4084      0.4084      1.3615
   5972.5000      1.8872      1.9551      2.2490      1.3786      2.9455      2.9146      0.0000   -999.2500      0.2151      0.2258      2.2490      1.9552   -999.2500      1.8870    -11.6934    -29.8441    -13.6934    -11.6934      0.1985      0.4136      0.4136      1.3786
   5973.0000      1.8832      1.9511      2.2560      1.3959      2.9468      2.9170      0.0000   -999.2500      0.2178      0.2252      2.2560      1.9512   -999.2500      1.8830    -11.5494    -29.8527    -13.5494    -11.5494      0.2010      0.4188      0.4188      1.3959
   5973.5000      1.8762      1.9471      2.2600      1.4046      2.9474      2.9182      0.0000   -999.2500      0.2191      0.2250      2.2600      1.9472   -999.2500      1.8760    -11.4784    -29.8614    -13.4784    -11.4784      0.2023      0.4214      0.4214      1.4046
   5974.0000      1.8762      1.9401      2.2630      1.4090      2.9478      2.9188      0.0000   -999.2500      0.2198      0.2248      2.2630      1.9402   -999.2500      1.8760    -11.4444    -29.8701    -13.4444    -11.4444      0.2029      0.4227      0.4227      1.4090
   5974.5000      1.8762      1.9371      2.2590      1.4135      2.9481      2.9195      0.0000   -999.2500      0.2205      0.2247      2.2590      1.9372   -999.2500      1.8760    -11.4094    -29.8787    -13.4094    -11.4094      0.2035      0.4240      0.4240      1.4135
   5975.0000      1.8752      1.9331      2.2560      1.4180      2.9485      2.9201      0.0000   -999.2500      0.2212      0.2245      2.2560      1.9332   -999.2500      1.8750    -11.3744    -29.8874    -13.3744    -11.3744      0.2042      0.4254      0.4254      1.4180
   5975.5000      1.8682      1.9291      2.2520      1.4140      2.9482      2.9196      0.0000   -999.2500      0.2206      0.2247      2.2520      1.9292   -999.2500      1.8680    -11.4114    -29.8960    -13.4114    -11.4114      0.2036      0.4242      0.4242      1.4140
