~V
VERS. 2.00: Ver 2.00
WRAP.   NO:        
~W
 STRT.FT 350:
 STOP.FT 6660:
 STEP.FT 0.5:
 NULL. -999.250000:
 COMP. Richfield (ARCO):Company
 WELL. SAN EMIDIO A 27-20 REDRILL:Well
 FLD. Los Lobos:Field
 LOC. S20 T11N R22W:Location
 STAT. CA:State
 SRVC. :Service Company
 SON. :Service Order #
 DATE. :Log Date
 UWI. 0143701:Unique Well ID
~C
 DEPT.FT :
 AM16.OHMM :
 AO10.OHMM :
 AO19.OHMM :
 LTHE. :
 MCRV. :
 MM. :
 PHES. :
 PHMX. :
 PHTS. :
 PHZC. :
 RD.OHMM :
 RM.OHMM :
 ROS. :
 RS.OHMM :
 SBL.MV :
 SCLN. :
 SP.MV :
 SPN.MV :
 VCDS. :
 VCLY. :
 VCWS. :
 VSHS. :
~P
~A
# ...
   5584.5000      1.7452      1.7951      1.9390      1.6172      2.9467      2.9269      0.0000   -999.2500      0.2460      0.2251      1.9390      1.7952   -999.2500      1.7450     -7.0969    -23.1244     -8.6903     -7.0969      0.2329      0.4852      0.4789      1.6172
   5585.0000      1.7522      1.7881      1.9390      1.6253      2.9476      2.9280      0.0000   -999.2500      0.2459      0.2248      1.9390      1.7882   -999.2500      1.7520     -7.0193    -23.1331     -8.6193     -7.0193      0.2340      0.4876      0.4799      1.6253
   5585.5000      1.7742      1.7841      1.9310      1.6390      2.9492      2.9300      0.0000   -999.2500      0.2456      0.2244      1.9310      1.7842   -999.2500      1.7740     -6.8866    -23.1417     -8.4933     -6.8866      0.2360      0.4917      0.4816      1.6390
   5586.0000      1.7742      1.7811      1.9390      1.6525      2.9507      2.9319      0.0000   -999.2500      0.2454      0.2240      1.9390      1.7812   -999.2500      1.7740     -6.7549    -23.1504     -8.3682     -6.7549      0.2380      0.4958      0.4834      1.6525
   5586.5000      1.7742      1.7841      1.9310      1.6606      2.9516      2.9330      0.0000   -999.2500      0.2453      0.2237      1.9310      1.7842   -999.2500      1.7740     -6.6773    -23.1590     -8.2973     -6.6773      0.2391      0.4982      0.4844      1.6606
   5587.0000      1.7732      1.7881      1.9530      1.6687      2.9526      2.9341      0.0000   -999.2500      0.2451      0.2235      1.9530      1.7882   -999.2500      1.7730     -6.5996    -23.1677     -8.2262     -6.5996      0.2403      0.5006      0.4854      1.6687
   5587.5000      1.7592      1.7881      1.9530      1.6805      2.9539      2.9358      0.0000   -999.2500      0.2449      0.2231      1.9530      1.7882   -999.2500      1.7590     -6.4849    -23.1764     -8.1182     -6.4849      0.2420      0.5041      0.4869      1.6805
   5588.0000      1.7592      1.7881      1.9530      1.6921      2.9552      2.9375      0.0000   -999.2500      0.2447      0.2228      1.9530      1.7882   -999.2500      1.7590     -6.3712    -23.1850     -8.0112     -6.3712      0.2437      0.5076      0.4884      1.6921
   5588.5000      1.7522      1.7801      1.9530      1.6984      2.9559      2.9383      0.0000   -999.2500      0.2446      0.2226      1.9530      1.7802   -999.2500      1.7520     -6.3116    -23.1937     -7.9582     -6.3116      0.2446      0.5095      0.4891      1.6984
   5589.0000      1.7372      1.7771      1.9520      1.7046      2.9566      2.9392      0.0000   -999.2500      0.2445      0.2224      1.9520      1.7772   -999.2500      1.7370     -6.2519    -23.2023     -7.9052     -6.2519      0.2455      0.5114      0.4899      1.7046
   5589.5000      1.7232      1.7731      1.9450      1.7164      2.9580      2.9409      0.0000   -999.2500      0.2443      0.2220      1.9450      1.7732   -999.2500      1.7230     -6.1372    -23.2110     -7.7972     -6.1372      0.2472      0.5149      0.4914      1.7164
   5590.0000      1.7082      1.7801      1.9310      1.7280      2.9593      2.9425      0.0000   -999.2500      0.2440      0.2217      1.9310      1.7802   -999.2500      1.7080     -6.0236    -23.2197     -7.6902     -6.0236      0.2488      0.5184      0.4929      1.7280
   5590.5000      1.6942      1.7801      1.9090      1.7325      2.9598      2.9432      0.0000   -999.2500      0.2440      0.2215      1.9090      1.7802   -999.2500      1.6940     -5.9809    -23.2283     -7.6542     -5.9809      0.2495      0.5198      0.4934      1.7325
   5591.0000      1.6872      1.7801      1.8800      1.7369      2.9603      2.9438      0.0000   -999.2500      0.2439      0.2214      1.8800      1.7802   -999.2500      1.6870     -5.9392    -23.2370     -7.6192     -5.9392      0.2501      0.5211      0.4940      1.7369
   5591.5000      1.6802      1.7871      1.8660      1.7522      2.9620      2.9460      0.0000   -999.2500      0.2436      0.2209      1.8660      1.7872   -999.2500      1.6800     -5.7896    -23.2456     -7.4762     -5.7896      0.2523      0.5257      0.4959      1.7522
   5592.0000      1.6792      1.7731      1.8450      1.7675      2.9638      2.9481      0.0000   -999.2500      0.2433      0.2204      1.8450      1.7732   -999.2500      1.6790     -5.6389    -23.2543     -7.3322     -5.6389      0.2545      0.5303      0.4979      1.7675
   5592.5000      1.6762      1.7581      1.8230      1.7755      2.9647      2.9492      0.0000   -999.2500      0.2432      0.2202      1.8230      1.7582   -999.2500      1.6760     -5.5612    -23.2630     -7.2612     -5.5612      0.2557      0.5327      0.4989      1.7755
   5593.0000      1.6722      1.7581      1.8010      1.7835      2.9656      2.9504      0.0000   -999.2500      0.2430      0.2199      1.8010      1.7582   -999.2500      1.6720     -5.4836    -23.2716     -7.1902     -5.4836      0.2568      0.5351      0.4999      1.7835
   5593.5000      1.6762      1.7511      1.7940      1.7987      2.9673      2.9525      0.0000   -999.2500      0.2428      0.2195      1.7940      1.7512   -999.2500      1.6760     -5.3339    -23.2803     -7.0472     -5.3339      0.2590      0.5396      0.5018      1.7987
   5594.0000      1.6792      1.7511      1.7800      1.7491      2.9618      2.9457      0.0000   -999.2500      0.2436      0.2210      1.7800      1.7512   -999.2500      1.6790     -5.8312    -23.2889     -7.5512     -5.8312      0.2519      0.5247      0.4955      1.7491
   5594.5000      1.6792      1.7721      1.7650      1.7066      2.9572      2.9398      0.0000   -999.2500      0.2443      0.2222      1.7650      1.7722   -999.2500      1.6790     -6.2576    -23.2976     -7.9842     -6.2576      0.2458      0.5120      0.4901      1.7066
   5595.0000      1.6832      1.7941      1.7510      1.6876      2.9551      2.9372      0.0000   -999.2500      0.2447      0.2228      1.7510      1.7942   -999.2500      1.6830     -6.4499    -23.3063     -8.1833     -6.4499      0.2430      0.5063      0.4877      1.6876
   5595.5000      1.6862      1.8151      1.7510      1.6686      2.9530      2.9346      0.0000   -999.2500      0.2450      0.2234      1.7510      1.8152   -999.2500      1.6860     -6.6423    -23.3149     -8.3822     -6.6423      0.2403      0.5006      0.4852      1.6686
   5596.0000      1.6862      1.8301      1.7440      1.6335      2.9491      2.9298      0.0000   -999.2500      0.2456      0.2244      1.7440      1.8302   -999.2500      1.6860     -6.9956    -23.3236     -8.7423     -6.9956      0.2352      0.4900      0.4808      1.6335
   5596.5000      1.6862      1.8441      1.7360      1.6199      2.9477      2.9279      0.0000   -999.2500      0.2458      0.2248      1.7360      1.8442   -999.2500      1.6860     -7.1339    -23.3322     -8.8873     -7.1339      0.2333      0.4860      0.4790      1.6199
   5597.0000      1.6862      1.8511      1.7330      1.6027      2.9458      2.9256      0.0000   -999.2500      0.2461      0.2253      1.7330      1.8512   -999.2500      1.6860     -7.3083    -23.3409     -9.0683     -7.3083      0.2308      0.4808      0.4769      1.6027
   5597.5000      1.6862      1.8511      1.7290      1.5965      2.9451      2.9247      0.0000   -999.2500      0.2462      0.2255      1.7290      1.8512   -999.2500      1.6860     -7.3736    -23.3496     -9.1403     -7.3736      0.2299      0.4789      0.4761      1.5965
   5598.0000      1.6932      1.8441      1.7290      1.5901      2.9444      2.9239      0.0000   -999.2500      0.2463      0.2257      1.7290      1.8442   -999.2500      1.6930     -7.4399    -23.3582     -9.2133     -7.4399      0.2290      0.4770      0.4752      1.5901
   5598.5000      1.6932      1.8511      1.7220      1.5803      2.9434      2.9225      0.0000   -999.2500      0.2464      0.2259      1.7220      1.8512   -999.2500      1.6930     -7.5413    -23.3669     -9.3213     -7.5413      0.2276      0.4741      0.4740      1.5803
