~V
VERS. 2.00: Ver 2.00
WRAP.   NO:        
~W
 STRT.FT 350:
 STOP.FT 6660:
 STEP.FT 0.5:
 NULL. -999.250000:
 COMP. Richfield (ARCO):Company
 WELL. SAN EMIDIO A 27-20 REDRILL:Well
 FLD. Los Lobos:Field
 LOC. S20 T11N R22W:Location
 STAT. CA:State
 SRVC. :Service Company
 SON. :Service Order #
 DATE. :Log Date
 UWI. 0143701:Unique Well ID
~C
 DEPT.FT :
 AM16.OHMM :
 AO10.OHMM :
 AO19.OHMM :
 LTHE. :
 MCRV. :
 MM. :
 PHES. :
 PHMX. :
 PHTS. :
 PHZC. :
 RD.OHMM :
 RM.OHMM :
 ROS. :
 RS.OHMM :
 SBL.MV :
 SCLN. :
 SP.MV :
 SPN.MV :
 VCDS. :
 VCLY. :
 VCWS. :
 VSHS. :
~P
~A
# ...
   6063.0000      2.0382      1.8661      1.7650      0.4368      2.5607      2.1894      0.1900   -999.2500      0.2582      0.2525      1.7650      1.8662   -999.2500      2.0380    -21.6107    -31.4114    -23.6107    -21.6107      0.0629      0.1310      0.1310      0.4368
   6063.5000      2.0242      2.0031      1.7660      0.4582      2.6018      2.2099      0.1863   -999.2500      0.2578      0.2519      1.7660      2.0032   -999.2500      2.0240    -21.1367    -31.4201    -23.1367    -21.1367      0.0660      0.1375      0.1375      0.4582
   6064.0000      2.0182      2.0831      1.7810      0.4700      2.6244      2.2212      0.1843   -999.2500      0.2576      0.2515      1.7810      2.0832   -999.2500      2.0180    -20.8787    -31.4287    -22.8787    -20.8787      0.0677      0.1410      0.1410      0.4700
   6064.5000      2.0152      2.2201      1.8000      0.4784      2.6407      2.2294      0.1828   -999.2500      0.2574      0.2512      1.8000      2.2202   -999.2500      2.0150    -20.6937    -31.4374    -22.6937    -20.6937      0.0689      0.1435      0.1435      0.4784
   6065.0000      2.0122      2.3571      1.8190      0.4822      2.6479      2.2330      0.1821   -999.2500      0.2574      0.2511      1.8190      2.3572   -999.2500      2.0120    -20.6157    -31.4461    -22.6157    -20.6157      0.0694      0.1447      0.1447      0.4822
   6065.5000      2.0132      2.4581      1.8490      0.4843      2.6520      2.2351      0.1818   -999.2500      0.2573      0.2510      1.8490      2.4582   -999.2500      2.0130    -20.5737    -31.4547    -22.5737    -20.5737      0.0697      0.1453      0.1453      0.4843
   6066.0000      2.0142      2.5241      1.8640      0.4848      2.6529      2.2356      0.1817   -999.2500      0.2573      0.2510      1.8640      2.5243   -999.2500      2.0140    -20.5687    -31.4634    -22.5687    -20.5687      0.0698      0.1454      0.1454      0.4848
   6066.5000      2.0222      2.5461      1.8790      0.4709      2.6263      2.2223      0.1841   -999.2500      0.2575      0.2514      1.8790      2.5463   -999.2500      2.0220    -20.8867    -31.4720    -22.8867    -20.8867      0.0678      0.1413      0.1413      0.4709
   6067.0000      2.0302      2.5471      1.8870      0.4426      2.5720      2.1951      0.1890   -999.2500      0.2580      0.2523      1.8870      2.5473   -999.2500      2.0300    -21.5287    -31.4807    -23.5287    -21.5287      0.0637      0.1328      0.1328      0.4426
   6067.5000      2.0312      2.4901      1.8880      0.4543      2.5946      2.2064      0.1869   -999.2500      0.2578      0.2519      1.8880      2.4902   -999.2500      2.0310    -21.2707    -31.4894    -23.2707    -21.2707      0.0654      0.1363      0.1363      0.4543
   6068.0000      2.0322      2.4271      1.8960      0.4644      2.6140      2.2162      0.1852   -999.2500      0.2576      0.2516      1.8960      2.4272   -999.2500      2.0320    -21.0487    -31.4980    -23.0487    -21.0487      0.0669      0.1393      0.1393      0.4644
   6068.5000      2.0292      2.3561      1.9040      0.4713      2.6273      2.2228      0.1840   -999.2500      0.2575      0.2514      1.9040      2.3562   -999.2500      2.0290    -20.8997    -31.5067    -22.8997    -20.8997      0.0679      0.1414      0.1414      0.4713
   6069.0000      2.0272      2.3061      1.9190      0.4782      2.6406      2.2295      0.1828   -999.2500      0.2574      0.2512      1.9190      2.3062   -999.2500      2.0270    -20.7497    -31.5153    -22.7497    -20.7497      0.0689      0.1435      0.1435      0.4782
   6069.5000      2.0202      2.2501      1.9270      0.4740      2.6324      2.2254      0.1835   -999.2500      0.2574      0.2513      1.9270      2.2502   -999.2500      2.0200    -20.8517    -31.5240    -22.8517    -20.8517      0.0683      0.1422      0.1422      0.4740
   6070.0000      2.0072      2.2221      1.9350      0.4393      2.5659      2.1921      0.1895   -999.2500      0.2580      0.2523      1.9350      2.2222   -999.2500      2.0070    -21.6377    -31.5327    -23.6377    -21.6377      0.0633      0.1318      0.1318      0.4393
   6070.5000      2.0082      2.1661      1.9430      0.4318      2.5515      2.1850      0.1908   -999.2500      0.2581      0.2525      1.9430      2.1662   -999.2500      2.0080    -21.8127    -31.5413    -23.8127    -21.8127      0.0622      0.1295      0.1295      0.4318
   6071.0000      1.9732      2.1451      1.9440      0.4483      2.5832      2.2008      0.1879   -999.2500      0.2578      0.2520      1.9440      2.1452   -999.2500      1.9730    -21.4467    -31.5500    -23.4467    -21.4467      0.0646      0.1345      0.1345      0.4483
   6071.5000      1.9382      2.1241      1.9520      0.4712      2.6272      2.2228      0.1839   -999.2500      0.2574      0.2513      1.9520      2.1242   -999.2500      1.9380    -20.9367    -31.5586    -22.9367    -20.9367      0.0679      0.1414      0.1414      0.4712
   6072.0000      1.9172      2.1071      1.9600      0.4957      2.6742      2.2464      0.1797   -999.2500      0.2570      0.2506      1.9600      2.1072   -999.2500      1.9170    -20.3907    -31.5673    -22.3907    -20.3907      0.0714      0.1487      0.1487      0.4957
   6072.5000      1.9112      2.0901      1.9680      0.4993      2.6813      2.2499      0.1791   -999.2500      0.2569      0.2505      1.9680      2.0902   -999.2500      1.9110    -20.3137    -31.5760    -22.3137    -20.3137      0.0719      0.1498      0.1498      0.4993
   6073.0000      1.9042      2.0771      1.9760      0.4823      2.6486      2.2336      0.1820   -999.2500      0.2572      0.2510      1.9760      2.0772   -999.2500      1.9040    -20.7037    -31.5846    -22.7037    -20.7037      0.0695      0.1447      0.1447      0.4823
   6073.5000      1.9092      2.0631      1.9910      0.4748      2.6343      2.2264      0.1833   -999.2500      0.2574      0.2512      1.9910      2.0632   -999.2500      1.9090    -20.8777    -31.5933    -22.8777    -20.8777      0.0684      0.1425      0.1425      0.4748
   6074.0000      1.9132      2.0421      2.0070      0.4674      2.6200      2.2193      0.1846   -999.2500      0.2575      0.2514      2.0070      2.0422   -999.2500      1.9130    -21.0517    -31.6019    -23.0517    -21.0517      0.0673      0.1402      0.1402      0.4674
   6074.5000      1.9142      2.0291      2.0500      0.4823      2.6486      2.2336      0.1820   -999.2500      0.2572      0.2510      2.0500      2.0292   -999.2500      1.9140    -20.7217    -31.6106    -22.7217    -20.7217      0.0694      0.1447      0.1447      0.4823
   6075.0000      1.9152      2.0161      2.0940      0.4891      2.6618      2.2402      0.1808   -999.2500      0.2571      0.2507      2.0940      2.0162   -999.2500      1.9150    -20.5727    -31.6192    -22.5727    -20.5727      0.0704      0.1467      0.1467      0.4891
   6075.5000      1.9192      2.0161      2.1880      0.4960      2.6749      2.2468      0.1796   -999.2500      0.2570      0.2505      2.1880      2.0162   -999.2500      1.9190    -20.4237    -31.6279    -22.4237    -20.4237      0.0714      0.1488      0.1488      0.4960
   6076.0000      1.9242      2.0031      2.2750      0.5431      2.7158      2.2920      0.1714   -999.2500      0.2561      0.2491      2.2750      2.0032   -999.2500      1.9240    -19.9487    -31.6366    -21.9487    -19.9487      0.0782      0.1629      0.1629      0.5431
   6076.5000      1.9212      1.9891      2.3620      0.5761      2.7412      2.3238      0.1657   -999.2500      0.2556      0.2481      2.3620      1.9892   -999.2500      1.9210    -19.6556    -31.6452    -21.6556    -19.6556      0.0830      0.1728      0.1728      0.5761
   6077.0000      1.9182      1.9941      2.4350      0.5853      2.7483      2.3326      0.1641   -999.2500      0.2554      0.2478      2.4350      1.9942   -999.2500      1.9180    -19.5776    -31.6539    -21.5776    -19.5776      0.0843      0.1756      0.1756      0.5853
