~V
VERS. 2.00: Ver 2.00
WRAP.   NO:        
~W
 STRT.FT 350:
 STOP.FT 6660:
 STEP.FT 0.5:
 NULL. -999.250000:
 COMP. Richfield (ARCO):Company
 WELL. SAN EMIDIO A 27-20 REDRILL:Well
 FLD. Los Lobos:Field
 LOC. S20 T11N R22W:Location
 STAT. CA:State
 SRVC. :Service Company
 SON. :Service Order #
 DATE. :Log Date
 UWI. 0143701:Unique Well ID
~C
 DEPT.FT :
 AM16.OHMM :
 AO10.OHMM :
 AO19.OHMM :
 LTHE. :
 MCRV. :
 MM. :
 PHES. :
 PHMX. :
 PHTS. :
 PHZC. :
 RD.OHMM :
 RM.OHMM :
 ROS. :
 RS.OHMM :
 SBL.MV :
 SCLN. :
 SP.MV :
 SPN.MV :
 VCDS. :
 VCLY. :
 VCWS. :
 VSHS. :
~P
~A
# ...
   5773.0000      2.0002      2.0431      2.1650      1.5506      2.9494      2.9277      0.0000   -999.2500      0.2419      0.2239      2.1650      2.0432   -999.2500      2.0000     -8.8523    -26.3890    -10.8523     -8.8523      0.2233      0.4652      0.4652      1.5506
   5773.5000      1.9642      2.0501      2.1510      1.5603      2.9505      2.9291      0.0000   -999.2500      0.2434      0.2236      2.1510      2.0502   -999.2500      1.9640     -8.7453    -26.3977    -10.7453     -8.7453      0.2247      0.4681      0.4681      1.5603
   5774.0000      1.9432      2.0721      2.1230      1.5701      2.9516      2.9305      0.0000   -999.2500      0.2437      0.2233      2.1230      2.0722   -999.2500      1.9430     -8.6373    -26.4063    -10.6373     -8.6373      0.2261      0.4710      0.4698      1.5701
   5774.5000      1.9512      2.0761      2.1080      1.5799      2.9527      2.9319      0.0000   -999.2500      0.2435      0.2230      2.1080      2.0762   -999.2500      1.9510     -8.5293    -26.4150    -10.5293     -8.5293      0.2275      0.4740      0.4710      1.5799
   5775.0000      1.9722      2.0801      2.0800      1.5832      2.9531      2.9323      0.0000   -999.2500      0.2434      0.2229      2.0800      2.0802   -999.2500      1.9720     -8.4943    -26.4236    -10.4943     -8.4943      0.2280      0.4750      0.4714      1.5832
   5775.5000      1.9802      2.1091      2.0590      1.5803      2.9528      2.9320      0.0000   -999.2500      0.2435      0.2230      2.0590      2.1092   -999.2500      1.9800     -8.5303    -26.4323    -10.5303     -8.5303      0.2276      0.4741      0.4710      1.5803
   5776.0000      2.0092      2.1241      2.0520      1.5709      2.9518      2.9307      0.0000   -999.2500      0.2436      0.2233      2.0520      2.1242   -999.2500      2.0090     -8.6393    -26.4409    -10.6393     -8.6393      0.2262      0.4713      0.4698      1.5709
   5776.5000      2.0162      2.1311      2.0520      1.5553      2.9501      2.9286      0.0000   -999.2500      0.2426      0.2237      2.0520      2.1312   -999.2500      2.0160     -8.8193    -26.4496    -10.8193     -8.8193      0.2240      0.4666      0.4666      1.5553
   5777.0000      2.0242      2.1351      2.0520      1.5365      2.9480      2.9260      0.0000   -999.2500      0.2397      0.2243      2.0520      2.1352   -999.2500      2.0240     -9.0353    -26.4583    -11.0353     -9.0353      0.2213      0.4610      0.4610      1.5365
   5777.5000      2.0312      2.1391      2.0600      1.4933      2.9435      2.9200      0.0000   -999.2500      0.2330      0.2256      2.0600      2.1392   -999.2500      2.0310     -9.5033    -26.4669    -11.5033     -9.5033      0.2150      0.4480      0.4480      1.4933
   5778.0000      2.0602      2.1611      2.0670      1.4317      2.9390      2.9115      0.0000   -999.2500      0.2233      0.2274      2.0670      2.1612   -999.2500      2.0600     -9.9724    -26.4756    -11.9724     -9.9724      0.2062      0.4295      0.4295      1.4317
   5778.5000      2.0682      2.1681      2.0890      1.2989      2.9292      2.8932      0.0000   -999.2500      0.2026      0.2314      2.0890      2.1682   -999.2500      2.0680    -10.9804    -26.4842    -12.9804    -10.9804      0.1870      0.3897      0.3897      1.2989
   5779.0000      2.0892      2.1761      2.1040      1.1946      2.9216      2.8787      0.0000   -999.2500      0.1864      0.2345      2.1040      2.1762   -999.2500      2.0890    -11.7734    -26.4929    -13.7734    -11.7734      0.1720      0.3584      0.3584      1.1946
   5779.5000      2.1042      2.1831      2.0900      0.9093      2.9045      2.7516      0.0907   -999.2500      0.2527      0.2392      2.0900      2.1832   -999.2500      2.1040    -12.9614    -26.5016    -14.9614    -12.9614      0.1495      0.3115      0.3115      0.9093
   5780.0000      2.1122      2.1831      2.0830      0.8905      2.8925      2.6472      0.1095   -999.2500      0.2545      0.2424      2.0830      2.1832   -999.2500      2.1120    -13.7895    -26.5102    -15.7895    -13.7895      0.1338      0.2788      0.2788      0.8905
   5780.5000      2.0972      2.1911      2.0620      0.8444      2.8831      2.5656      0.1242   -999.2500      0.2559      0.2450      2.0620      2.1912   -999.2500      2.0970    -14.4385    -26.5189    -16.4385    -14.4385      0.1216      0.2533      0.2533      0.8444
   5781.0000      2.0692      2.1981      2.0400      0.8403      2.8827      2.5616      0.1249   -999.2500      0.2560      0.2451      2.0400      2.1982   -999.2500      2.0690    -14.4745    -26.5275    -16.4745    -14.4745      0.1210      0.2521      0.2521      0.8403
   5781.5000      2.0262      2.1991      2.0120      0.8599      2.8849      2.5805      0.1215   -999.2500      0.2557      0.2445      2.0120      2.1992   -999.2500      2.0260    -14.3305    -26.5362    -16.3305    -14.3305      0.1238      0.2580      0.2580      0.8599
   5782.0000      2.0052      2.1851      2.0050      0.8835      2.8881      2.6083      0.1165   -999.2500      0.2552      0.2436      2.0050      2.1852   -999.2500      2.0050    -14.1155    -26.5449    -16.1155    -14.1155      0.1280      0.2667      0.2667      0.8835
   5782.5000      1.9772      2.1701      1.9980      0.8902      2.8924      2.6454      0.1098   -999.2500      0.2545      0.2425      1.9980      2.1702   -999.2500      1.9770    -13.8275    -26.5535    -15.8275    -13.8275      0.1335      0.2782      0.2782      0.8902
   5783.0000      1.9702      2.1561      1.9950      0.8977      2.8972      2.6870      0.1023   -999.2500      0.2537      0.2412      1.9950      2.1562   -999.2500      1.9700    -13.5035    -26.5622    -15.5035    -13.5035      0.1398      0.2912      0.2912      0.8977
   5783.5000      1.9562      2.1461      1.9920      0.9035      2.9010      2.7193      0.0965   -999.2500      0.2532      0.2401      1.9920      2.1462   -999.2500      1.9560    -13.2525    -26.5708    -15.2525    -13.2525      0.1446      0.3013      0.3013      0.9035
   5784.0000      1.9632      2.1351      2.0060      0.9073      2.9034      2.7403      0.0927   -999.2500      0.2528      0.2395      2.0060      2.1352   -999.2500      1.9630    -13.0905    -26.5795    -15.0905    -13.0905      0.1478      0.3079      0.3079      0.9073
   5784.5000      1.9922      2.1001      2.0140      0.9111      2.9059      2.7613      0.0889   -999.2500      0.2524      0.2388      2.0140      2.1002   -999.2500      1.9920    -12.9295    -26.5882    -14.9295    -12.9295      0.1509      0.3144      0.3144      0.9111
   5785.0000      2.0072      2.0931      2.0210      0.9194      2.9112      2.8073      0.0806   -999.2500      0.2516      0.2374      2.0210      2.0932   -999.2500      2.0070    -12.5694    -26.5968    -14.5694    -12.5694      0.1578      0.3288      0.3288      0.9194
   5785.5000      2.0212      2.0901      2.0360      0.9252      2.9150      2.8397      0.0748   -999.2500      0.2510      0.2364      2.0360      2.0902   -999.2500      2.0210    -12.3174    -26.6055    -14.3174    -12.3174      0.1627      0.3389      0.3389      0.9252
   5786.0000      2.0432      2.0861      2.0430      0.9237      2.9140      2.8310      0.0763   -999.2500      0.2511      0.2366      2.0430      2.0862   -999.2500      2.0430    -12.3904    -26.6141    -14.3904    -12.3904      0.1614      0.3362      0.3362      0.9237
   5786.5000      2.0442      2.1081      2.0510      0.9205      2.9120      2.8133      0.0795   -999.2500      0.2514      0.2372      2.0510      2.1082   -999.2500      2.0440    -12.5344    -26.6228    -14.5344    -12.5344      0.1587      0.3306      0.3306      0.9205
   5787.0000      2.0652      2.1161      2.0580      0.9116      2.9063      2.7639      0.0884   -999.2500      0.2523      0.2387      2.0580      2.1162   -999.2500      2.0650    -12.9304    -26.6315    -14.9304    -12.9304      0.1513      0.3152      0.3152      0.9116
