~V
VERS. 2.00: Ver 2.00
WRAP.   NO:        
~W
 STRT.FT 350:
 STOP.FT 6660:
 STEP.FT 0.5:
 NULL. -999.250000:
 COMP. Richfield (ARCO):Company
 WELL. SAN EMIDIO A 27-20 REDRILL:Well
 FLD. Los Lobos:Field
 LOC. S20 T11N R22W:Location
 STAT. CA:State
 SRVC. :Service Company
 SON. :Service Order #
 DATE. :Log Date
 UWI. 0143701:Unique Well ID
~C
 DEPT.FT :
 AM16.OHMM :
 AO10.OHMM :
 AO19.OHMM :
 LTHE. :
 MCRV. :
 MM. :
 PHES. :
 PHMX. :
 PHTS. :
 PHZC. :
 RD.OHMM :
 RM.OHMM :
 ROS. :
 RS.OHMM :
 SBL.MV :
 SCLN. :
 SP.MV :
 SPN.MV :
 VCDS. :
 VCLY. :
 VCWS. :
 VSHS. :
~P
~A
# ...
   6251.5000      2.4175      2.4132      2.5210      1.2376      2.9499      2.9099      0.0000   -999.2500      0.1931      0.2253      2.5210      2.3702   -999.2500      2.3700    -14.9835    -34.6760    -16.9835    -14.9835      0.1782      0.3713      0.3713      1.2376
   6252.0000      2.4042      2.3916      2.5430      1.2311      2.9495      2.9090      0.0000   -999.2500      0.1920      0.2255      2.5430      2.3782   -999.2500      2.3780    -15.0525    -34.6847    -17.0525    -15.0525      0.1773      0.3693      0.3693      1.2311
   6252.5000      2.3857      2.3756      2.5660      1.2281      2.9493      2.9086      0.0000   -999.2500      0.1916      0.2256      2.5660      2.3932   -999.2500      2.3790    -15.0855    -34.6933    -17.0855    -15.0855      0.1768      0.3684      0.3684      1.2281
   6253.0000      2.3597      2.3663      2.6020      1.2396      2.9502      2.9103      0.0000   -999.2500      0.1934      0.2253      2.6020      2.4092   -999.2500      2.3940    -14.9755    -34.7020    -16.9755    -14.9755      0.1785      0.3719      0.3719      1.2396
   6253.5000      2.3475      2.3744      2.6180      1.2475      2.9508      2.9114      0.0000   -999.2500      0.1946      0.2250      2.6180      2.4672   -999.2500      2.4390    -14.9005    -34.7106    -16.9005    -14.9005      0.1796      0.3743      0.3743      1.2475
   6254.0000      2.3786      2.3876      2.6690      1.2664      2.9522      2.9140      0.0000   -999.2500      0.1976      0.2244      2.6690      2.4902   -999.2500      2.4680    -14.7175    -34.7193    -16.7175    -14.7175      0.1824      0.3799      0.3799      1.2664
   6254.5000      2.4532      2.4097      2.7200      1.2815      2.9533      2.9161      0.0000   -999.2500      0.1999      0.2240      2.7200      2.5303   -999.2500      2.5340    -14.5705    -34.7280    -16.5705    -14.5705      0.1845      0.3845      0.3845      1.2815
   6255.0000      2.5422      2.4353      2.7360      1.3040      2.9550      2.9193      0.0000   -999.2500      0.2034      0.2233      2.7360      2.5703   -999.2500      2.6060    -14.3515    -34.7366    -16.3515    -14.3515      0.1878      0.3912      0.3912      1.3040
   6255.5000      2.6255      2.4827      2.8080      1.3155      2.9559      2.9209      0.0000   -999.2500      0.2052      0.2229      2.8080      2.6723   -999.2500      2.6580    -14.2405    -34.7453    -16.2405    -14.2405      0.1894      0.3947      0.3947      1.3155
   6256.0000      2.6744      2.5445      2.8670      1.3089      2.9554      2.9200      0.0000   -999.2500      0.2042      0.2231      2.8670      2.7023   -999.2500      2.7020    -14.3095    -34.7539    -16.3095    -14.3095      0.1885      0.3927      0.3927      1.3089
   6256.5000      2.7160      2.6235      2.9000      1.2806      2.9534      2.9161      0.0000   -999.2500      0.1998      0.2240      2.9000      2.7173   -999.2500      2.7460    -14.5945    -34.7626    -16.5945    -14.5945      0.1844      0.3842      0.3842      1.2806
   6257.0000      2.7468      2.6838      2.9330      1.2522      2.9513      2.9122      0.0000   -999.2500      0.1953      0.2248      2.9330      2.7183   -999.2500      2.7540    -14.8805    -34.7713    -16.8805    -14.8805      0.1803      0.3756      0.3756      1.2522
   6257.5000      2.7883      2.7395      3.0130      1.1912      2.9468      2.9038      0.0000   -999.2500      0.1858      0.2266      3.0130      2.7053   -999.2500      2.7480    -15.4895    -34.7799    -17.4895    -15.4895      0.1715      0.3574      0.3574      1.1912
   6258.0000      2.8073      2.7765      3.0430      0.9295      2.9378      2.8447      0.0705   -999.2500      0.2435      0.2291      3.0430      2.6703   -999.2500      2.7490    -16.3145    -34.7886    -18.3145    -16.3145      0.1596      0.3326      0.3326      0.9295
   6258.5000      2.8117      2.7995      3.0580      0.9202      2.9319      2.7933      0.0798   -999.2500      0.2444      0.2307      3.0580      2.6353   -999.2500      2.6280    -16.8516    -34.7972    -18.8516    -16.8516      0.1519      0.3165      0.3165      0.9202
   6259.0000      2.8121      2.8076      3.0590      0.9072      2.9236      2.7210      0.0928   -999.2500      0.2457      0.2330      3.0590      2.4712   -999.2500      2.4500    -17.6046    -34.8059    -19.6046    -17.6046      0.1411      0.2939      0.2939      0.9072
   6259.5000      2.7243      2.7607      3.0320      0.8960      2.9165      2.6592      0.1040   -999.2500      0.2467      0.2349      3.0320      2.3362   -999.2500      2.3070    -18.2496    -34.8146    -20.2496    -18.2496      0.1318      0.2746      0.2746      0.8960
   6260.0000      2.5800      2.6743      3.0040      0.8937      2.9150      2.6461      0.1063   -999.2500      0.2470      0.2353      3.0040      2.2652   -999.2500      2.2440    -18.3906    -34.8232    -20.3906    -18.3906      0.1298      0.2705      0.2705      0.8937
   6260.5000      2.4354      2.5682      2.9190      0.8976      2.9175      2.6677      0.1024   -999.2500      0.2466      0.2346      2.9190      2.2162   -999.2500      2.2010    -18.1716    -34.8319    -20.1716    -18.1716      0.1331      0.2772      0.2772      0.8976
   6261.0000      2.3223      2.4395      2.6470      0.9059      2.9229      2.7136      0.0941   -999.2500      0.2458      0.2332      2.6470      2.2032   -999.2500      2.1740    -17.7006    -34.8405    -19.7006    -17.7006      0.1399      0.2916      0.2916      0.9059
   6261.5000      2.2450      2.2987      2.5050      0.9116      2.9266      2.7454      0.0884   -999.2500      0.2452      0.2322      2.5050      2.1962   -999.2500      2.1710    -17.3746    -34.8492    -19.3746    -17.3746      0.1447      0.3015      0.3015      0.9116
   6262.0000      2.1863      2.2240      2.4560      0.9161      2.9295      2.7705      0.0839   -999.2500      0.2447      0.2314      2.4560      2.1902   -999.2500      2.1690    -17.1196    -34.8578    -19.1196    -17.1196      0.1485      0.3093      0.3093      0.9161
   6262.5000      2.1606      2.1874      2.4280      0.9206      2.9324      2.7954      0.0794   -999.2500      0.2443      0.2306      2.4280      2.1842   -999.2500      2.1700    -16.8656    -34.8665    -18.8656    -16.8656      0.1522      0.3171      0.3171      0.9206
   6263.0000      2.1553      2.1622      2.4150      0.9295      2.9381      2.8447      0.0705   -999.2500      0.2434      0.2290      2.4150      2.1922   -999.2500      2.1780    -16.3576    -34.8752    -18.3576    -16.3576      0.1596      0.3325      0.3325      0.9295
   6263.5000      2.1583      2.1399      2.4160      0.9328      2.9402      2.8628      0.0672   -999.2500      0.2431      0.2285      2.4160      2.1932   -999.2500      2.1860    -16.1745    -34.8838    -18.1745    -16.1745      0.1623      0.3381      0.3381      0.9328
   6264.0000      2.1613      2.1308      2.4200      0.9354      2.9419      2.8774      0.0646   -999.2500      0.2428      0.2280      2.4200      2.1942   -999.2500      2.2010    -16.0275    -34.8925    -18.0275    -16.0275      0.1645      0.3427      0.3427      0.9354
   6264.5000      2.1654      2.1335      2.4250      0.9355      2.9420      2.8781      0.0645   -999.2500      0.2428      0.2280      2.4250      2.2172   -999.2500      2.2170    -16.0245    -34.9011    -18.0245    -16.0245      0.1646      0.3429      0.3429      0.9355
   6265.0000      2.1745      2.1399      2.4400      0.9350      2.9417      2.8752      0.0650   -999.2500      0.2428      0.2281      2.4400      2.2252   -999.2500      2.2280    -16.0585    -34.9098    -18.0585    -16.0585      0.1642      0.3420      0.3420      0.9350
   6265.5000      2.1856      2.1626      2.4480      0.9327      2.9402      2.8621      0.0673   -999.2500      0.2430      0.2285      2.4480      2.2262   -999.2500      2.2400    -16.1985    -34.9185    -18.1985    -16.1985      0.1622      0.3379      0.3379      0.9327
