~V
VERS. 2.00: Ver 2.00
WRAP.   NO:        
~W
 STRT.FT 350:
 STOP.FT 6660:
 STEP.FT 0.5:
 NULL. -999.250000:
 COMP. Richfield (ARCO):Company
 WELL. SAN EMIDIO A 27-20 REDRILL:Well
 FLD. Los Lobos:Field
 LOC. S20 T11N R22W:Location
 STAT. CA:State
 SRVC. :Service Company
 SON. :Service Order #
 DATE. :Log Date
 UWI. 0143701:Unique Well ID
~C
 DEPT.FT :
 AM16.OHMM :
 AO10.OHMM :
 AO19.OHMM :
 LTHE. :
 MCRV. :
 MM. :
 PHES. :
 PHMX. :
 PHTS. :
 PHZC. :
 RD.OHMM :
 RM.OHMM :
 ROS. :
 RS.OHMM :
 SBL.MV :
 SCLN. :
 SP.MV :
 SPN.MV :
 VCDS. :
 VCLY. :
 VCWS. :
 VSHS. :
~P
~A
# ...
   5671.5000      1.8112      2.0201      1.9690      0.9053      2.8973      2.7334      0.0947   -999.2500      0.2547      0.2414      1.9690      2.0202   -999.2500      1.8110    -12.1374    -24.6311    -14.1374    -12.1374      0.1476      0.3076      0.3076      0.9053
   5672.0000      1.8262      2.0201      1.9770      0.9045      2.8969      2.7293      0.0955   -999.2500      0.2547      0.2415      1.9770      2.0202   -999.2500      1.8260    -12.1724    -24.6398    -14.1724    -12.1724      0.1470      0.3063      0.3063      0.9045
   5672.5000      1.8562      2.0131      1.9850      0.9038      2.8964      2.7251      0.0962   -999.2500      0.2548      0.2416      1.9850      2.0132   -999.2500      1.8560    -12.2074    -24.6485    -14.2074    -12.2074      0.1464      0.3050      0.3050      0.9038
   5673.0000      1.8632      2.0061      1.9960      0.9039      2.8965      2.7259      0.0961   -999.2500      0.2548      0.2416      1.9960      2.0062   -999.2500      1.8630    -12.2064    -24.6571    -14.2064    -12.2064      0.1465      0.3052      0.3052      0.9039
   5673.5000      1.8742      2.0001      2.0070      0.9032      2.8961      2.7217      0.0968   -999.2500      0.2548      0.2417      2.0070      2.0002   -999.2500      1.8740    -12.2414    -24.6658    -14.2414    -12.2414      0.1459      0.3039      0.3039      0.9032
   5674.0000      1.8852      1.9861      2.0180      0.9015      2.8951      2.7127      0.0985   -999.2500      0.2550      0.2420      2.0180      1.9862   -999.2500      1.8850    -12.3124    -24.6744    -14.3124    -12.3124      0.1445      0.3011      0.3011      0.9015
   5674.5000      1.9002      1.9721      2.0290      0.8990      2.8935      2.6987      0.1010   -999.2500      0.2552      0.2424      2.0290      1.9722   -999.2500      1.9000    -12.4194    -24.6831    -14.4194    -12.4194      0.1424      0.2967      0.2967      0.8990
   5675.0000      1.9152      1.9691      2.0370      0.9001      2.8941      2.7044      0.0999   -999.2500      0.2551      0.2422      2.0370      1.9692   -999.2500      1.9150    -12.3824    -24.6918    -14.3824    -12.3824      0.1433      0.2984      0.2984      0.9001
   5675.5000      1.9302      1.9661      2.0520      0.9055      2.8976      2.7345      0.0945   -999.2500      0.2546      0.2413      2.0520      1.9662   -999.2500      1.9300    -12.1654    -24.7004    -14.1654    -12.1654      0.1478      0.3079      0.3079      0.9055
   5676.0000      1.9372      1.9661      2.0590      0.9100      2.9006      2.7597      0.0900   -999.2500      0.2541      0.2405      2.0590      1.9662   -999.2500      1.9370    -11.9844    -24.7091    -13.9844    -11.9844      0.1515      0.3157      0.3157      0.9100
   5676.5000      1.9452      1.9661      2.0670      0.9155      2.9041      2.7898      0.0845   -999.2500      0.2536      0.2395      2.0670      1.9662   -999.2500      1.9450    -11.7674    -24.7177    -13.7674    -11.7674      0.1561      0.3251      0.3251      0.9155
   5677.0000      1.9452      1.9671      2.0820      0.9174      2.9053      2.8003      0.0826   -999.2500      0.2534      0.2392      2.0820      1.9672   -999.2500      1.9450    -11.6944    -24.7264    -13.6944    -11.6944      0.1576      0.3284      0.3284      0.9174
   5677.5000      1.9462      1.9671      2.0960      0.9184      2.9060      2.8059      0.0816   -999.2500      0.2533      0.2390      2.0960      1.9672   -999.2500      1.9460    -11.6574    -24.7351    -13.6574    -11.6574      0.1585      0.3301      0.3301      0.9184
   5678.0000      1.9542      1.9681      2.1110      0.9124      2.9022      2.7726      0.0876   -999.2500      0.2539      0.2401      2.1110      1.9682   -999.2500      1.9540    -11.9074    -24.7437    -13.9074    -11.9074      0.1535      0.3197      0.3197      0.9124
   5678.5000      1.9542      1.9541      2.1260      0.9107      2.9011      2.7635      0.0893   -999.2500      0.2540      0.2403      2.1260      1.9542   -999.2500      1.9540    -11.9784    -24.7524    -13.9784    -11.9784      0.1521      0.3169      0.3169      0.9107
   5679.0000      1.9542      1.9401      2.1340      0.9109      2.9012      2.7642      0.0891   -999.2500      0.2540      0.2403      2.1340      1.9402   -999.2500      1.9540    -11.9774    -24.7610    -13.9774    -11.9774      0.1522      0.3171      0.3171      0.9109
   5679.5000      1.9552      1.9331      2.1410      0.9119      2.9019      2.7699      0.0881   -999.2500      0.2539      0.2401      2.1410      1.9332   -999.2500      1.9550    -11.9404    -24.7697    -13.9404    -11.9404      0.1530      0.3188      0.3188      0.9119
   5680.0000      1.9552      1.9271      2.1560      0.9156      2.9043      2.7901      0.0844   -999.2500      0.2535      0.2395      2.1560      1.9272   -999.2500      1.9550    -11.7954    -24.7784    -13.7954    -11.7954      0.1561      0.3252      0.3252      0.9156
   5680.5000      1.9632      1.9201      2.1420      0.9218      2.9083      2.8250      0.0782   -999.2500      0.2529      0.2384      2.1420      1.9202   -999.2500      1.9630    -11.5424    -24.7870    -13.5424    -11.5424      0.1613      0.3361      0.3361      0.9218
   5681.0000      1.9702      1.9131      2.1350      0.9281      2.9124      2.8599      0.0719   -999.2500      0.2523      0.2373      2.1350      1.9132   -999.2500      1.9700    -11.2894    -24.7957    -13.2894    -11.2894      0.1665      0.3469      0.3469      0.9281
   5681.5000      1.9852      1.9101      2.1220      0.9283      2.9125      2.8606      0.0717   -999.2500      0.2523      0.2373      2.1220      1.9102   -999.2500      1.9850    -11.2884    -24.8043    -13.2884    -11.2884      0.1666      0.3471      0.3471      0.9283
   5682.0000      1.9932      1.9071      2.1080      0.9253      2.9106      2.8442      0.0747   -999.2500      0.2525      0.2378      2.1080      1.9072   -999.2500      1.9930    -11.4134    -24.8130    -13.4134    -11.4134      0.1642      0.3420      0.3420      0.9253
   5682.5000      1.9932      1.9001      2.1010      0.9224      2.9087      2.8278      0.0776   -999.2500      0.2528      0.2383      2.1010      1.9002   -999.2500      1.9930    -11.5384    -24.8216    -13.5384    -11.5384      0.1617      0.3369      0.3369      0.9224
   5683.0000      1.9942      1.8931      2.0940      0.9216      2.9083      2.8237      0.0784   -999.2500      0.2529      0.2384      2.0940      1.8932   -999.2500      1.9940    -11.5734    -24.8303    -13.5734    -11.5734      0.1611      0.3356      0.3356      0.9216
   5683.5000      1.9942      1.8901      2.0800      0.9235      2.9095      2.8341      0.0765   -999.2500      0.2527      0.2381      2.0800      1.8902   -999.2500      1.9940    -11.5004    -24.8390    -13.5004    -11.5004      0.1626      0.3389      0.3389      0.9235
   5684.0000      1.9872      1.8871      2.0730      0.9263      2.9113      2.8496      0.0737   -999.2500      0.2524      0.2376      2.0730      1.8872   -999.2500      1.9870    -11.3904    -24.8476    -13.3904    -11.3904      0.1650      0.3437      0.3437      0.9263
   5684.5000      1.9522      1.8941      2.0590      1.1919      2.9163      2.8733      0.0000   -999.2500      0.1859      0.2362      2.0590      1.8942   -999.2500      1.9520    -11.0654    -24.8563    -13.0654    -11.0654      0.1716      0.3576      0.3576      1.1919
   5685.0000      1.9382      1.9021      2.0460      1.2128      2.9179      2.8763      0.0000   -999.2500      0.1892      0.2355      2.0460      1.9022   -999.2500      1.9380    -10.9204    -24.8649    -12.9204    -10.9204      0.1746      0.3639      0.3639      1.2128
   5685.5000      1.9242      1.9101      2.0390      1.2591      2.9213      2.8827      0.0000   -999.2500      0.1964      0.2341      2.0390      1.9102   -999.2500      1.9240    -10.5954    -24.8736    -12.5954    -10.5954      0.1813      0.3777      0.3777      1.2591
