~V
VERS. 2.00: Ver 2.00
WRAP.   NO:        
~W
 STRT.FT 350:
 STOP.FT 6660:
 STEP.FT 0.5:
 NULL. -999.250000:
 COMP. Richfield (ARCO):Company
 WELL. SAN EMIDIO A 27-20 REDRILL:Well
 FLD. Los Lobos:Field
 LOC. S20 T11N R22W:Location
 STAT. CA:State
 SRVC. :Service Company
 SON. :Service Order #
 DATE. :Log Date
 UWI. 0143701:Unique Well ID
~C
 DEPT.FT :
 AM16.OHMM :
 AO10.OHMM :
 AO19.OHMM :
 LTHE. :
 MCRV. :
 MM. :
 PHES. :
 PHMX. :
 PHTS. :
 PHZC. :
 RD.OHMM :
 RM.OHMM :
 ROS. :
 RS.OHMM :
 SBL.MV :
 SCLN. :
 SP.MV :
 SPN.MV :
 VCDS. :
 VCLY. :
 VCWS. :
 VSHS. :
~P
~A
# ...
   5381.5000      1.8912      2.1021      2.1450      1.6001      2.9340      2.9137      0.0000   -999.2500      0.2496      0.2290      2.1450      2.1022   -999.2500      1.8910     -6.1615    -19.6087     -5.0482     -6.1615      0.2304      0.4800      0.4800      1.6001
   5382.0000      1.9012      2.1021      2.1450      1.5972      2.9337      2.9133      0.0000   -999.2500      0.2492      0.2291      2.1450      2.1022   -999.2500      1.9010     -6.1888    -19.6174     -5.0822     -6.1888      0.2300      0.4792      0.4792      1.5972
   5382.5000      1.9052      2.1021      2.1450      1.5943      2.9334      2.9129      0.0000   -999.2500      0.2487      0.2291      2.1450      2.1022   -999.2500      1.9050     -6.2162    -19.6260     -5.1162     -6.2162      0.2296      0.4783      0.4783      1.5943
   5383.0000      1.9082      2.1021      2.1450      1.5914      2.9331      2.9126      0.0000   -999.2500      0.2483      0.2292      2.1450      2.1022   -999.2500      1.9080     -6.2435    -19.6347     -5.1502     -6.2435      0.2292      0.4774      0.4774      1.5914
   5383.5000      1.9082      2.1011      2.1440      1.5800      2.9319      2.9110      0.0000   -999.2500      0.2465      0.2295      2.1440      2.1012   -999.2500      1.9080     -6.3418    -19.6433     -5.2552     -6.3418      0.2275      0.4740      0.4740      1.5800
   5384.0000      1.9082      2.1011      2.1440      1.5728      2.9311      2.9101      0.0000   -999.2500      0.2454      0.2297      2.1440      2.1012   -999.2500      1.9080     -6.4052    -19.6520     -5.3252     -6.4052      0.2265      0.4718      0.4718      1.5728
   5384.5000      1.9142      2.1011      2.1480      1.5614      2.9299      2.9085      0.0000   -999.2500      0.2436      0.2301      2.1480      2.1012   -999.2500      1.9140     -6.5045    -19.6607     -5.4312     -6.5045      0.2248      0.4684      0.4684      1.5614
   5385.0000      1.9212      2.1011      2.1510      1.5542      2.9291      2.9075      0.0000   -999.2500      0.2425      0.2303      2.1510      2.1012   -999.2500      1.9210     -6.5678    -19.6693     -5.5012     -6.5678      0.2238      0.4663      0.4663      1.5542
   5385.5000      1.9362      2.1011      2.1470      1.5470      2.9283      2.9066      0.0000   -999.2500      0.2413      0.2305      2.1470      2.1012   -999.2500      1.9360     -6.6312    -19.6780     -5.5712     -6.6312      0.2228      0.4641      0.4641      1.5470
   5386.0000      1.9502      2.1001      2.1430      1.5357      2.9271      2.9050      0.0000   -999.2500      0.2396      0.2308      2.1430      2.1002   -999.2500      1.9500     -6.7295    -19.6866     -5.6762     -6.7295      0.2211      0.4607      0.4607      1.5357
   5386.5000      1.9642      2.1001      2.1470      1.5243      2.9259      2.9035      0.0000   -999.2500      0.2378      0.2312      2.1470      2.1002   -999.2500      1.9640     -6.8288    -19.6953     -5.7822     -6.8288      0.2195      0.4573      0.4573      1.5243
   5387.0000      1.9782      2.1001      2.1500      1.5129      2.9246      2.9019      0.0000   -999.2500      0.2360      0.2315      2.1500      2.1002   -999.2500      1.9780     -6.9282    -19.7040     -5.8882     -6.9282      0.2179      0.4539      0.4539      1.5129
   5387.5000      1.9882      2.1001      2.1460      1.5015      2.9234      2.9004      0.0000   -999.2500      0.2342      0.2318      2.1460      2.1002   -999.2500      1.9880     -7.0275    -19.7126     -5.9942     -7.0275      0.2162      0.4505      0.4505      1.5015
   5388.0000      1.9992      2.0921      2.1420      1.4596      2.9203      2.8946      0.0000   -999.2500      0.2277      0.2331      2.1420      2.0922   -999.2500      1.9990     -7.2708    -19.7213     -6.2442     -7.2708      0.2102      0.4379      0.4379      1.4596
   5388.5000      2.0172      2.0851      2.1350      1.4042      2.9162      2.8869      0.0000   -999.2500      0.2191      0.2347      2.1350      2.0852   -999.2500      2.0170     -7.5862    -19.7299     -6.5662     -7.5862      0.2022      0.4213      0.4213      1.4042
   5389.0000      2.0342      2.0851      2.1280      1.3108      2.9093      2.8740      0.0000   -999.2500      0.2045      0.2375      2.1280      2.0852   -999.2500      2.0340     -8.1166    -19.7386     -7.1032     -8.1166      0.1888      0.3932      0.3932      1.3108
   5389.5000      2.0562      2.0841      2.1200      1.2236      2.9029      2.8620      0.0000   -999.2500      0.1909      0.2401      2.1200      2.0842   -999.2500      2.0560     -8.6119    -19.7473     -7.6052     -8.6119      0.1762      0.3671      0.3671      1.2236
   5390.0000      2.0772      2.0841      2.1130      0.9088      2.8876      2.7640      0.0912   -999.2500      0.2586      0.2447      2.1130      2.0842   -999.2500      2.0770     -9.4673    -19.7559     -8.4673     -9.4673      0.1545      0.3218      0.3218      0.9088
   5390.5000      2.0882      2.0801      2.1020      0.8893      2.8751      2.6560      0.1107   -999.2500      0.2605      0.2480      2.1020      2.0802   -999.2500      2.0880    -10.1066    -19.7646     -9.1133    -10.1066      0.1383      0.2881      0.2881      0.8893
   5391.0000      2.0982      2.0771      2.0910      0.8351      2.8613      2.5359      0.1323   -999.2500      0.2626      0.2518      2.0910      2.0772   -999.2500      2.0980    -10.8180    -19.7732     -9.8313    -10.8180      0.1203      0.2505      0.2505      0.8351
   5391.5000      2.1122      2.0731      2.0910      0.7547      2.8418      2.4587      0.1462   -999.2500      0.2639      0.2542      2.0910      2.0732   -999.2500      2.1120    -11.2773    -19.7819    -10.2973    -11.2773      0.1087      0.2264      0.2264      0.7547
   5392.0000      2.1192      2.0691      2.0760      0.7255      2.8194      2.4307      0.1513   -999.2500      0.2644      0.2550      2.0760      2.0692   -999.2500      2.1190    -11.4477    -19.7906    -10.4743    -11.4477      0.1045      0.2176      0.2176      0.7255
   5392.5000      2.1262      2.0551      2.0720      0.7024      2.8017      2.4086      0.1552   -999.2500      0.2648      0.2557      2.0720      2.0552   -999.2500      2.1260    -11.5830    -19.7992    -10.6163    -11.5830      0.1011      0.2107      0.2107      0.7024
   5393.0000      2.1332      2.0471      2.0690      0.7875      2.8561      2.4903      0.1405   -999.2500      0.2634      0.2532      2.0690      2.0472   -999.2500      2.1330    -11.1063    -19.8079    -10.1463    -11.1063      0.1134      0.2363      0.2363      0.7875
   5393.5000      2.1372      2.0331      2.0610      0.8764      2.8670      2.5842      0.1236   -999.2500      0.2617      0.2502      2.0610      2.0332   -999.2500      2.1370    -10.5576    -19.8165     -9.6043    -10.5576      0.1275      0.2656      0.2656      0.8764
   5394.0000      2.1402      2.0291      2.0610      0.8912      2.8765      2.6660      0.1088   -999.2500      0.2602      0.2477      2.0610      2.0292   -999.2500      2.1400    -10.0799    -19.8252     -9.1333    -10.0799      0.1397      0.2911      0.2911      0.8912
   5394.5000      2.1472      2.0251      2.0680      0.8992      2.8816      2.7107      0.1008   -999.2500      0.2594      0.2462      2.0680      2.0252   -999.2500      2.1470     -9.8203    -19.8339     -8.8803     -9.8203      0.1465      0.3051      0.3051      0.8992
   5395.0000      2.1472      2.0171      2.0750      0.9030      2.8841      2.7314      0.0970   -999.2500      0.2591      0.2456      2.0750      2.0172   -999.2500      2.1470     -9.7026    -19.8425     -8.7693     -9.7026      0.1496      0.3116      0.3116      0.9030
   5395.5000      2.1542      2.0101      2.0820      0.9045      2.8850      2.7397      0.0955   -999.2500      0.2589      0.2453      2.0820      2.0102   -999.2500      2.1540     -9.6579    -19.8512     -8.7313     -9.6579      0.1508      0.3142      0.3142      0.9045
