~V
VERS. 2.00: Ver 2.00
WRAP.   NO:        
~W
 STRT.FT 365:
 STOP.FT 6820:
 STEP.FT 0.5:
 NULL. -999.250000:
 COMP. Richfield (ARCO):Company
 WELL. San Emidio A 45-19 Redrill:Well
 FLD. Los Lobos:Field
 LOC. S19 T11N R22W:Location
 STAT. CA:State
 SRVC. :Service Company
 SON. :Service Order #
 DATE. :Log Date
 UWI. 0143101:Unique Well ID
~C
 DEPT.FT :
 AM16.OHMM :
 AO10.OHMM :
 AO19.OHMM :
 LTHE. :
 MCRV. :
 MM. :
 PHES. :
 PHMX. :
 PHTS. :
 PHZC. :
 RD.OHMM :
 RM.OHMM :
 ROS. :
 RS.OHMM :
 SBL.MV :
 SCLN. :
 SP.MV :
 SPN. :
 VCDS. :
 VCLY. :
 VCWS. :
 VSHS. :
~P
~A
# ...
   5179.0000      1.6060      2.0590      1.9890      1.9306      2.9487      2.9487      0.0000   -999.2500      0.2474      0.2224      1.9890      2.0590   -999.2500      1.6060     -5.2295    -25.2512     -5.4891     -4.3579      0.2780      0.5792      0.5255      1.9306
   5179.5000      1.5820      2.0630      1.9960      1.9328      2.9490      2.9490      0.0000   -999.2500      0.2474      0.2224      1.9960      2.0630   -999.2500      1.5820     -5.2022    -25.2552     -5.4522     -4.3352      0.2783      0.5798      0.5257      1.9328
   5180.0000      1.5430      2.0530      1.9890      1.9100      2.9459      2.9459      0.0000   -999.2500      0.2478      0.2230      1.9890      2.0530   -999.2500      1.5430     -5.4998    -25.2592     -5.7402     -4.5832      0.2750      0.5730      0.5228      1.9100
   5180.5000      1.5350      2.0520      2.0150      1.8425      2.9365      2.9365      0.0000   -999.2500      0.2489      0.2250      2.0150      2.0520   -999.2500      1.5350     -6.3770    -25.2632     -6.6078     -5.3142      0.2653      0.5528      0.5142      1.8425
   5181.0000      1.5270      2.0510      2.0340      1.7693      2.9264      2.9264      0.0000   -999.2500      0.2502      0.2272      2.0340      2.0510   -999.2500      1.5270     -7.3298    -25.2672     -7.5510     -6.1082      0.2548      0.5308      0.5049      1.7693
   5181.5000      1.5260      2.0500      2.0540      1.7352      2.9217      2.9217      0.0000   -999.2500      0.2507      0.2283      2.0540      2.0500   -999.2500      1.5260     -7.7742    -25.2712     -7.9857     -6.4785      0.2499      0.5205      0.5006      1.7352
   5182.0000      1.5250      2.0560      2.0730      1.6899      2.9155      2.9155      0.0000   -999.2500      0.2515      0.2296      2.0730      2.0560   -999.2500      1.5250     -8.3643    -25.2752     -8.5662     -6.9702      0.2433      0.5070      0.4948      1.6899
   5182.5000      1.5280      2.0550      1.9920      1.6224      2.9062      2.9062      0.0000   -999.2500      0.2526      0.2316      1.9920      2.0550   -999.2500      1.5280     -9.2433    -25.2792     -9.4356     -7.7027      0.2336      0.4867      0.4863      1.6224
   5183.0000      1.5300      2.0540      1.9320      1.5826      2.9007      2.9007      0.0000   -999.2500      0.2469      0.2328      1.9320      2.0540   -999.2500      1.5300     -9.7614    -25.2832     -9.9441     -8.1345      0.2279      0.4748      0.4748      1.5826
   5183.5000      1.5290      2.0530      1.9230      1.6118      2.9047      2.9047      0.0000   -999.2500      0.2514      0.2319      1.9230      2.0530   -999.2500      1.5290     -9.3840    -25.2872     -9.5571     -7.8200      0.2321      0.4835      0.4835      1.6118
   5184.0000      1.5350      2.0510      1.9500      1.6299      2.9073      2.9073      0.0000   -999.2500      0.2525      0.2314      1.9500      2.0510   -999.2500      1.5350     -9.1488    -25.2912     -9.3123     -7.6240      0.2347      0.4890      0.4872      1.6299
   5184.5000      1.5410      2.0500      1.9970      1.6385      2.9085      2.9085      0.0000   -999.2500      0.2523      0.2311      1.9970      2.0500   -999.2500      1.5410     -9.0388    -25.2952     -9.1926     -7.5323      0.2359      0.4916      0.4883      1.6385
   5185.0000      1.5180      2.0490      2.0170      1.6472      2.9097      2.9097      0.0000   -999.2500      0.2522      0.2308      2.0170      2.0490   -999.2500      1.5180     -8.9278    -25.2992     -9.0720     -7.4398      0.2372      0.4941      0.4894      1.6472
   5185.5000      1.5090      2.0480      2.0370      1.6319      2.9076      2.9076      0.0000   -999.2500      0.2524      0.2313      2.0370      2.0480   -999.2500      1.5090     -9.1282    -25.3032     -9.2628     -7.6068      0.2350      0.4896      0.4874      1.6319
   5186.0000      1.5090      2.0540      2.0770      1.6003      2.9033      2.9033      0.0000   -999.2500      0.2496      0.2322      2.0770      2.0540   -999.2500      1.5090     -9.5410    -25.3072     -9.6660     -7.9508      0.2304      0.4801      0.4801      1.6003
   5186.5000      1.4930      2.0530      2.0750      1.5716      2.8993      2.8993      0.0000   -999.2500      0.2452      0.2331      2.0750      2.0530   -999.2500      1.4930     -9.9160    -25.3112    -10.0314     -8.2633      0.2263      0.4715      0.4715      1.5716
   5187.0000      1.4920      2.0590      2.0080      1.5539      2.8969      2.8969      0.0000   -999.2500      0.2424      0.2336      2.0080      2.0590   -999.2500      1.4920    -10.1470    -25.3152    -10.2528     -8.4559      0.2238      0.4662      0.4662      1.5539
   5187.5000      1.4920      2.0580      2.0130      1.5528      2.8968      2.8968      0.0000   -999.2500      0.2422      0.2336      2.0130      2.0580   -999.2500      1.4920    -10.1629    -25.3192    -10.2591     -8.4691      0.2236      0.4659      0.4659      1.5528
   5188.0000      1.4910      2.0570      2.0470      1.6012      2.9035      2.9035      0.0000   -999.2500      0.2498      0.2322      2.0470      2.0570   -999.2500      1.4910     -9.5345    -25.3232     -9.6210     -7.9454      0.2306      0.4804      0.4804      1.6012
   5188.5000      1.4750      2.0420      2.0520      1.6387      2.9087      2.9087      0.0000   -999.2500      0.2523      0.2310      2.0520      2.0420   -999.2500      1.4750     -9.0482    -25.3272     -9.1251     -7.5401      0.2360      0.4916      0.4882      1.6387
   5189.0000      1.4660      2.0410      2.0640      1.6733      2.9136      2.9136      0.0000   -999.2500      0.2517      0.2300      2.0640      2.0410   -999.2500      1.4660     -8.5988    -25.3311     -8.6661     -7.1657      0.2410      0.5020      0.4926      1.6733
   5189.5000      1.4650      2.0110      2.0760      1.6970      2.9169      2.9169      0.0000   -999.2500      0.2512      0.2293      2.0760      2.0110   -999.2500      1.4650     -8.2916    -25.3351     -8.3493     -6.9097      0.2444      0.5091      0.4956      1.6970
   5190.0000      1.4640      1.9880      2.0740      1.7206      2.9202      2.9202      0.0000   -999.2500      0.2508      0.2285      2.0740      1.9880   -999.2500      1.4640     -7.9844    -25.3391     -8.0325     -6.6537      0.2478      0.5162      0.4986      1.7206
   5190.5000      1.4600      1.9340      2.0680      1.7460      2.9237      2.9237      0.0000   -999.2500      0.2504      0.2278      2.0680      1.9340   -999.2500      1.4600     -7.6556    -25.3431     -7.6941     -6.3797      0.2514      0.5238      0.5018      1.7460
   5191.0000      1.4710      1.9050      2.0030      1.7274      2.9212      2.9212      0.0000   -999.2500      0.2507      0.2283      2.0030      1.9050   -999.2500      1.4710     -7.8993    -25.3471     -7.9281     -6.5827      0.2487      0.5182      0.4994      1.7274
   5191.5000      1.4880      1.8770      1.9750      1.7116      2.9190      2.9190      0.0000   -999.2500      0.2510      0.2288      1.9750      1.8770   -999.2500      1.4880     -8.1060    -25.3511     -8.1252     -6.7550      0.2465      0.5135      0.4974      1.7116
   5192.0000      1.4990      1.8430      1.9470      1.6902      2.9161      2.9161      0.0000   -999.2500      0.2513      0.2294      1.9470      1.8430   -999.2500      1.4990     -8.3865    -25.3551     -8.3961     -6.9887      0.2434      0.5071      0.4947      1.6902
   5192.5000      1.5240      1.8320      1.8900      1.7267      2.9211      2.9211      0.0000   -999.2500      0.2507      0.2283      1.8900      1.8320   -999.2500      1.5240     -7.9119    -25.3591     -7.9119     -6.5932      0.2486      0.5180      0.4993      1.7267
   5193.0000      1.5410      1.8350      1.9400      1.7585      2.9256      2.9256      0.0000   -999.2500      0.2501      0.2274      1.9400      1.8350   -999.2500      1.5410     -7.4980    -25.3631     -7.4997     -6.2483      0.2532      0.5276      0.5034      1.7585
