~V
VERS. 2.00: Ver 2.00
WRAP.   NO:        
~W
 STRT.FT 365:
 STOP.FT 6820:
 STEP.FT 0.5:
 NULL. -999.250000:
 COMP. Richfield (ARCO):Company
 WELL. San Emidio A 45-19 Redrill:Well
 FLD. Los Lobos:Field
 LOC. S19 T11N R22W:Location
 STAT. CA:State
 SRVC. :Service Company
 SON. :Service Order #
 DATE. :Log Date
 UWI. 0143101:Unique Well ID
~C
 DEPT.FT :
 AM16.OHMM :
 AO10.OHMM :
 AO19.OHMM :
 LTHE. :
 MCRV. :
 MM. :
 PHES. :
 PHMX. :
 PHTS. :
 PHZC. :
 RD.OHMM :
 RM.OHMM :
 ROS. :
 RS.OHMM :
 SBL.MV :
 SCLN. :
 SP.MV :
 SPN. :
 VCDS. :
 VCLY. :
 VCWS. :
 VSHS. :
~P
~A
# ...
   5991.0000      2.2590      2.2560      2.1490      0.9282      2.8479      2.8479      0.0718   -999.2500      0.2476      0.2330      2.1490      2.2560   -999.2500      2.2590    -15.5916    -28.0158    -18.2619    -12.9930      0.1623      0.3380      0.3380      0.9282
   5991.5000      2.2690      2.2690      2.1770      0.9333      2.8766      2.8766      0.0667   -999.2500      0.2471      0.2321      2.1770      2.2690   -999.2500      2.2690    -15.3047    -28.0152    -17.9766    -12.7539      0.1666      0.3470      0.3470      0.9333
   5992.0000      2.2750      2.2680      2.1760      1.2051      2.8916      2.8916      0.0000   -999.2500      0.1880      0.2306      2.1760      2.2680   -999.2500      2.2750    -14.8387    -28.0146    -17.5122    -12.3656      0.1735      0.3615      0.3615      1.2051
   5992.5000      2.2810      2.2670      2.1610      1.2611      2.8993      2.8993      0.0000   -999.2500      0.1967      0.2290      2.1610      2.2670   -999.2500      2.2810    -14.3008    -28.0140    -16.9758    -11.9173      0.1816      0.3783      0.3783      1.2611
   5993.0000      2.2870      2.2660      2.1530      1.3021      2.9050      2.9050      0.0000   -999.2500      0.2031      0.2277      2.1530      2.2660   -999.2500      2.2870    -13.9068    -28.0134    -16.5834    -11.5890      0.1875      0.3906      0.3906      1.3021
   5993.5000      2.2860      2.2640      2.1450      1.3357      2.9097      2.9097      0.0000   -999.2500      0.2084      0.2267      2.1450      2.2640   -999.2500      2.2860    -13.5839    -28.0128    -16.2621    -11.3199      0.1923      0.4007      0.4007      1.3357
   5994.0000      2.2850      2.2630      2.1370      1.3281      2.9087      2.9087      0.0000   -999.2500      0.2072      0.2269      2.1370      2.2630   -999.2500      2.2850    -13.6561    -28.0123    -16.3359    -11.3801      0.1912      0.3984      0.3984      1.3281
   5994.5000      2.2840      2.2620      2.1360      1.2982      2.9046      2.9046      0.0000   -999.2500      0.2025      0.2278      2.1360      2.2620   -999.2500      2.2840    -13.9435    -28.0117    -16.6248    -11.6196      0.1869      0.3894      0.3894      1.2982
   5995.0000      2.2830      2.2540      2.1430      1.2757      2.9015      2.9015      0.0000   -999.2500      0.1990      0.2285      2.1430      2.2540   -999.2500      2.2830    -14.1588    -28.0111    -16.8417    -11.7990      0.1837      0.3827      0.3827      1.2757
   5995.5000      2.2820      2.2240      2.1640      1.2607      2.8995      2.8995      0.0000   -999.2500      0.1967      0.2289      2.1640      2.2240   -999.2500      2.2820    -14.3021    -28.0105    -16.9866    -11.9185      0.1815      0.3782      0.3782      1.2607
   5996.0000      2.2810      2.2090      2.1630      1.2719      2.9010      2.9010      0.0000   -999.2500      0.1984      0.2286      2.1630      2.2090   -999.2500      2.2810    -14.1944    -28.0099    -16.8804    -11.8286      0.1832      0.3816      0.3816      1.2719
   5996.5000      2.2650      2.1860      2.1620      1.3950      2.9181      2.9181      0.0000   -999.2500      0.2176      0.2249      2.1620      2.1860   -999.2500      2.2650    -13.0120    -28.0093    -15.6996    -10.8433      0.2009      0.4185      0.4185      1.3950
   5997.0000      2.2140      2.1640      2.1540      1.5072      2.9337      2.9337      0.0000   -999.2500      0.2351      0.2215      2.1540      2.1640   -999.2500      2.2140    -11.8998    -28.0087    -14.5890     -9.9165      0.2170      0.4522      0.4522      1.5072
   5997.5000      2.1910      2.1480      2.1470      1.5695      2.9423      2.9423      0.0000   -999.2500      0.2400      0.2196      2.1470      2.1480   -999.2500      2.1910    -11.0028    -28.0081    -13.6935     -9.1690      0.2260      0.4708      0.4660      1.5695
   5998.0000      2.1620      2.1260      2.1460      1.6267      2.9503      2.9503      0.0000   -999.2500      0.2390      0.2179      2.1460      2.1260   -999.2500      2.1620    -10.1786    -28.0075    -12.8709     -8.4822      0.2342      0.4880      0.4732      1.6267
   5998.5000      2.1320      2.1100      2.1490      1.6839      2.9582      2.9582      0.0000   -999.2500      0.2380      0.2162      2.1490      2.1100   -999.2500      2.1320     -9.3535    -28.0069    -12.0474     -7.7946      0.2425      0.5052      0.4805      1.6839
   5999.0000      2.1020      2.1060      2.1520      1.7436      2.9665      2.9665      0.0000   -999.2500      0.2370      0.2144      2.1520      2.1060   -999.2500      2.1020     -8.4934    -28.0063    -11.1888     -7.0778      0.2511      0.5231      0.4880      1.7436
   5999.5000      2.0940      2.1010      2.2150      1.7835      2.9720      2.9720      0.0000   -999.2500      0.2363      0.2132      2.2150      2.1010   -999.2500      2.0940     -7.9194    -28.0057    -10.6164     -6.5995      0.2568      0.5350      0.4931      1.7835
   6000.0000      2.0930      2.1210      2.2500      1.8183      2.9769      2.9769      0.0000   -999.2500      0.2357      0.2121      2.2500      2.1210   -999.2500      2.0930     -7.4174    -28.0051    -10.1160     -6.1812      0.2618      0.5455      0.4975      1.8183
   6000.5000      2.0930      2.1470      2.2510      1.8357      2.9793      2.9793      0.0000   -999.2500      0.2354      0.2116      2.2510      2.1470   -999.2500      2.0930     -7.1665    -28.0045     -9.8667     -5.9721      0.2643      0.5507      0.4997      1.8357
   6001.0000      2.1220      2.1720      2.2730      1.8158      2.9766      2.9766      0.0000   -999.2500      0.2357      0.2122      2.2730      2.1720   -999.2500      2.1220     -7.4539    -28.0039    -10.1556     -6.2116      0.2615      0.5447      0.4972      1.8158
   6001.5000      2.1500      2.2000      2.2940      1.7909      2.9732      2.9732      0.0000   -999.2500      0.2361      0.2129      2.2940      2.2000   -999.2500      2.1500     -7.8123    -28.0033    -10.5156     -6.5103      0.2579      0.5373      0.4940      1.7909
   6002.0000      2.2290      2.2220      2.2880      1.7684      2.9701      2.9701      0.0000   -999.2500      0.2365      0.2136      2.2880      2.2220   -999.2500      2.2290     -8.1356    -28.0027    -10.8405     -6.7797      0.2547      0.5305      0.4911      1.7684
   6002.5000      2.2580      2.2220      2.2770      1.6588      2.9549      2.9549      0.0000   -999.2500      0.2383      0.2169      2.2770      2.2220   -999.2500      2.2580     -9.7145    -28.0021    -12.4209     -8.0954      0.2389      0.4976      0.4772      1.6588
   6003.0000      2.2720      2.2360      2.2670      1.6264      2.9505      2.9505      0.0000   -999.2500      0.2389      0.2178      2.2670      2.2360   -999.2500      2.2720    -10.1809    -28.0015    -12.8889     -8.4841      0.2342      0.4879      0.4731      1.6264
   6003.5000      2.2720      2.2360      2.2460      1.5965      2.9464      2.9464      0.0000   -999.2500      0.2394      0.2187      2.2460      2.2360   -999.2500      2.2720    -10.6113    -28.0009    -13.3209     -8.8428      0.2299      0.4789      0.4693      1.5965
   6004.0000      2.2720      2.2360      2.2390      1.5616      2.9416      2.9416      0.0000   -999.2500      0.2400      0.2198      2.2390      2.2360   -999.2500      2.2720    -11.1138    -28.0003    -13.8249     -9.2615      0.2249      0.4685      0.4648      1.5616
   6004.5000      2.3080      2.2360      2.2250      1.5391      2.9385      2.9385      0.0000   -999.2500      0.2401      0.2204      2.2250      2.2360   -999.2500      2.3080    -11.4371    -27.9997    -14.1498     -9.5309      0.2216      0.4617      0.4617      1.5391
   6005.0000      2.3290      2.2360      2.2110      1.5191      2.9357      2.9357      0.0000   -999.2500      0.2370      0.2210      2.2110      2.2360   -999.2500      2.3290    -11.7244    -27.9991    -14.4387     -9.7703      0.2188      0.4557      0.4557      1.5191
