~V
VERS. 2.00: Ver 2.00
WRAP.   NO:        
~W
 STRT.FT 365:
 STOP.FT 6820:
 STEP.FT 0.5:
 NULL. -999.250000:
 COMP. Richfield (ARCO):Company
 WELL. San Emidio A 45-19 Redrill:Well
 FLD. Los Lobos:Field
 LOC. S19 T11N R22W:Location
 STAT. CA:State
 SRVC. :Service Company
 SON. :Service Order #
 DATE. :Log Date
 UWI. 0143101:Unique Well ID
~C
 DEPT.FT :
 AM16.OHMM :
 AO10.OHMM :
 AO19.OHMM :
 LTHE. :
 MCRV. :
 MM. :
 PHES. :
 PHMX. :
 PHTS. :
 PHZC. :
 RD.OHMM :
 RM.OHMM :
 ROS. :
 RS.OHMM :
 SBL.MV :
 SCLN. :
 SP.MV :
 SPN. :
 VCDS. :
 VCLY. :
 VCWS. :
 VSHS. :
~P
~A
# ...
   5527.0000      2.0080      2.0330      1.8720      1.7401      2.9408      2.9408      0.0000   -999.2500      0.2449      0.2223      1.8720      2.0330   -999.2500      2.0080     -8.5521    -28.0324     -9.6957     -7.1268      0.2506      0.5220      0.4955      1.7401
   5527.5000      2.0100      2.0320      1.9550      1.7454      2.9416      2.9416      0.0000   -999.2500      0.2448      0.2222      1.9550      2.0320   -999.2500      2.0100     -8.4766    -28.0364     -9.6219     -7.0638      0.2513      0.5236      0.4961      1.7454
   5528.0000      2.0130      2.0200      1.9810      1.7508      2.9424      2.9424      0.0000   -999.2500      0.2447      0.2220      1.9810      2.0200   -999.2500      2.0130     -8.4011    -28.0404     -9.5481     -7.0009      0.2521      0.5252      0.4968      1.7508
   5528.5000      2.0150      2.0150      2.0040      1.7609      2.9438      2.9438      0.0000   -999.2500      0.2445      0.2217      2.0040      2.0150   -999.2500      2.0150     -8.2554    -28.0444     -9.4041     -6.8795      0.2536      0.5283      0.4981      1.7609
   5529.0000      2.0170      2.0100      2.0260      1.7663      2.9446      2.9446      0.0000   -999.2500      0.2444      0.2215      2.0260      2.0100   -999.2500      2.0170     -8.1799    -28.0484     -9.3303     -6.8166      0.2543      0.5299      0.4988      1.7663
   5529.5000      2.0190      2.0120      2.0520      1.7791      2.9464      2.9464      0.0000   -999.2500      0.2442      0.2211      2.0520      2.0120   -999.2500      2.0190     -7.9964    -28.0524     -9.1485     -6.6636      0.2562      0.5337      0.5004      1.7791
   5530.0000      2.0280      2.0140      2.0640      1.7917      2.9481      2.9481      0.0000   -999.2500      0.2440      0.2207      2.0640      2.0140   -999.2500      2.0280     -7.8147    -28.0563     -8.9685     -6.5122      0.2580      0.5375      0.5020      1.7917
   5530.5000      2.0260      2.0260      2.0790      1.7993      2.9492      2.9492      0.0000   -999.2500      0.2438      0.2205      2.0790      2.0260   -999.2500      2.0260     -7.7067    -28.0603     -8.8623     -6.4223      0.2591      0.5398      0.5029      1.7993
   5531.0000      2.0250      2.0280      2.0730      1.8019      2.9496      2.9496      0.0000   -999.2500      0.2438      0.2204      2.0730      2.0280   -999.2500      2.0250     -7.6708    -28.0643     -8.8281     -6.3924      0.2595      0.5406      0.5032      1.8019
   5531.5000      2.0370      2.0300      2.0850      1.7845      2.9472      2.9472      0.0000   -999.2500      0.2441      0.2209      2.0850      2.0300   -999.2500      2.0370     -7.9229    -28.0683     -9.0819     -6.6024      0.2570      0.5353      0.5010      1.7845
   5532.0000      2.0350      2.0280      2.0970      1.7722      2.9455      2.9455      0.0000   -999.2500      0.2443      0.2213      2.0970      2.0280   -999.2500      2.0350     -8.1012    -28.0723     -9.2619     -6.7510      0.2552      0.5317      0.4995      1.7722
   5532.5000      2.0340      2.0260      2.0980      1.7499      2.9425      2.9425      0.0000   -999.2500      0.2446      0.2220      2.0980      2.0260   -999.2500      2.0340     -8.4244    -28.0763     -9.5868     -7.0203      0.2520      0.5250      0.4966      1.7499
   5533.0000      2.0320      2.0250      2.0780      1.7251      2.9391      2.9391      0.0000   -999.2500      0.2450      0.2227      2.0780      2.0250   -999.2500      2.0320     -8.7836    -28.0803     -9.9477     -7.3197      0.2484      0.5175      0.4935      1.7251
   5533.5000      2.0300      2.0230      2.0790      1.7103      2.9371      2.9371      0.0000   -999.2500      0.2453      0.2231      2.0790      2.0230   -999.2500      2.0300     -8.9988    -28.0843    -10.1646     -7.4990      0.2463      0.5131      0.4916      1.7103
   5534.0000      2.0280      2.0210      2.0730      1.6930      2.9347      2.9347      0.0000   -999.2500      0.2456      0.2236      2.0730      2.0210   -999.2500      2.0280     -9.2500    -28.0883    -10.4175     -7.7083      0.2438      0.5079      0.4894      1.6930
   5534.5000      2.0260      2.0190      2.0670      1.6559      2.9296      2.9296      0.0000   -999.2500      0.2462      0.2247      2.0670      2.0190   -999.2500      2.0260     -9.7874    -28.0923    -10.9566     -8.1561      0.2384      0.4968      0.4846      1.6559
   5535.0000      2.0250      2.0100      2.0320      1.6410      2.9275      2.9275      0.0000   -999.2500      0.2464      0.2252      2.0320      2.0100   -999.2500      2.0250    -10.0035    -28.0963    -11.1744     -8.3362      0.2363      0.4923      0.4828      1.6410
   5535.5000      2.0230      2.0090      2.0260      1.6263      2.9255      2.9255      0.0000   -999.2500      0.2467      0.2256      2.0260      2.0090   -999.2500      2.0230    -10.2177    -28.1003    -11.3904     -8.5148      0.2342      0.4879      0.4809      1.6263
   5536.0000      2.0210      2.0070      2.0200      1.6090      2.9232      2.9232      0.0000   -999.2500      0.2470      0.2261      2.0200      2.0070   -999.2500      2.0210    -10.4698    -28.1043    -11.6442     -8.7249      0.2317      0.4827      0.4787      1.6090
   5536.5000      2.0190      1.9980      2.0060      1.5842      2.9198      2.9198      0.0000   -999.2500      0.2471      0.2269      2.0060      1.9980   -999.2500      2.0190    -10.8290    -28.1083    -12.0051     -9.0242      0.2281      0.4753      0.4753      1.5842
   5537.0000      2.0170      1.9960      2.0000      1.5620      2.9167      2.9167      0.0000   -999.2500      0.2437      0.2275      2.0000      1.9960   -999.2500      2.0170    -11.1513    -28.1123    -12.3291     -9.2928      0.2249      0.4686      0.4686      1.5620
   5537.5000      2.0090      1.9940      2.0010      1.5224      2.9113      2.9113      0.0000   -999.2500      0.2375      0.2287      2.0010      1.9940   -999.2500      2.0090    -11.7256    -28.1163    -12.9051     -9.7713      0.2192      0.4567      0.4567      1.5224
   5538.0000      2.0070      1.9850      2.0100      1.4854      2.9062      2.9062      0.0000   -999.2500      0.2317      0.2298      2.0100      1.9850   -999.2500      2.0070    -12.1919    -28.1203    -13.3731    -10.1599      0.2139      0.4456      0.4456      1.4854
   5538.5000      2.0050      1.9830      2.0250      1.4485      2.9011      2.9011      0.0000   -999.2500      0.2260      0.2309      2.0250      1.9830   -999.2500      2.0050    -12.5502    -28.1243    -13.7331    -10.4585      0.2086      0.4345      0.4345      1.4485
   5539.0000      2.0030      1.9820      2.0480      1.3890      2.8929      2.8929      0.0000   -999.2500      0.2167      0.2327      2.0480      1.9820   -999.2500      2.0030    -13.1254    -28.1283    -14.3100    -10.9378      0.2000      0.4167      0.4167      1.3890
   5539.5000      2.0080      1.9800      2.0560      1.3744      2.8909      2.8909      0.0000   -999.2500      0.2144      0.2331      2.0560      1.9800   -999.2500      2.0080    -13.2677    -28.1323    -14.4540    -11.0564      0.1979      0.4123      0.4123      1.3744
   5540.0000      2.0070      1.9820      2.0640      1.3522      2.8878      2.8878      0.0000   -999.2500      0.2109      0.2338      2.0640      1.9820   -999.2500      2.0070    -13.4838    -28.1363    -14.6718    -11.2365      0.1947      0.4057      0.4057      1.3522
   5540.5000      2.0100      1.9850      2.0770      1.3378      2.8859      2.8859      0.0000   -999.2500      0.2087      0.2342      2.0770      1.9850   -999.2500      2.0100    -13.6252    -28.1403    -14.8149    -11.3543      0.1926      0.4013      0.4013      1.3378
   5541.0000      2.0130      1.9850      2.0690      1.3494      2.8875      2.8875      0.0000   -999.2500      0.2105      0.2338      2.0690      1.9850   -999.2500      2.0130    -13.5154    -28.1443    -14.7069    -11.2629      0.1943      0.4048      0.4048      1.3494
