~V
VERS. 2.00: Ver 2.00
WRAP.   NO:        
~W
 STRT.FT 365:
 STOP.FT 6820:
 STEP.FT 0.5:
 NULL. -999.250000:
 COMP. Richfield (ARCO):Company
 WELL. San Emidio A 45-19 Redrill:Well
 FLD. Los Lobos:Field
 LOC. S19 T11N R22W:Location
 STAT. CA:State
 SRVC. :Service Company
 SON. :Service Order #
 DATE. :Log Date
 UWI. 0143101:Unique Well ID
~C
 DEPT.FT :
 AM16.OHMM :
 AO10.OHMM :
 AO19.OHMM :
 LTHE. :
 MCRV. :
 MM. :
 PHES. :
 PHMX. :
 PHTS. :
 PHZC. :
 RD.OHMM :
 RM.OHMM :
 ROS. :
 RS.OHMM :
 SBL.MV :
 SCLN. :
 SP.MV :
 SPN. :
 VCDS. :
 VCLY. :
 VCWS. :
 VSHS. :
~P
~A
# ...
   6687.0000     62.4470     87.1530     95.8570      0.2545      3.0848      2.0997      0.2112   -999.2500      0.2509      0.2476     95.8570     87.1530   -999.2500     62.4470    -88.3679    -90.0000    -92.3679    -73.6399      0.0366      0.0763      0.0763      0.2545
   6687.5000     61.3500     85.4830     94.9780      0.2602      3.0849      2.1014      0.2102   -999.2500      0.2508      0.2474     94.9780     85.4830   -999.2500     61.3500    -87.9260    -90.0000    -91.9260    -73.2717      0.0375      0.0781      0.0781      0.2602
   6688.0000     61.2540     84.0380     92.3520      0.2655      3.0849      2.1030      0.2093   -999.2500      0.2507      0.2472     92.3520     84.0380   -999.2500     61.2540    -87.5210    -90.0000    -91.5210    -72.9342      0.0382      0.0796      0.0796      0.2655
   6688.5000     62.3080     81.8650     91.6190      0.2684      3.0849      2.1039      0.2087   -999.2500      0.2506      0.2471     91.6190     81.8650   -999.2500     62.3080    -87.2924    -90.0000    -91.2924    -72.7437      0.0387      0.0805      0.0805      0.2684
   6689.0000     63.4360     79.8370     91.3070      0.2714      3.0850      2.1048      0.2082   -999.2500      0.2506      0.2470     91.3070     79.8370   -999.2500     63.4360    -87.0656    -90.0000    -91.0656    -72.5547      0.0391      0.0814      0.0814      0.2714
   6689.5000     64.4130     78.3130     92.3470      0.2752      3.0850      2.1060      0.2075   -999.2500      0.2505      0.2469     92.3470     78.3130   -999.2500     64.4130    -86.7668    -90.0000    -90.7668    -72.3057      0.0396      0.0826      0.0826      0.2752
   6690.0000     65.0410     78.0770     92.6490      0.2772      3.0850      2.1066      0.2072   -999.2500      0.2504      0.2468     92.6490     78.0770   -999.2500     65.0410    -86.6129    -90.0000    -90.6129    -72.1774      0.0399      0.0832      0.0832      0.2772
   6690.5000     65.5900     78.1950     92.9500      0.2763      3.0850      2.1064      0.2074   -999.2500      0.2505      0.2469     92.9500     78.1950   -999.2500     65.5900    -86.6876    -90.0000    -90.6876    -72.2397      0.0398      0.0829      0.0829      0.2763
   6691.0000     65.5010     78.2180     93.4720      0.2678      3.0851      2.1039      0.2088   -999.2500      0.2506      0.2471     93.4720     78.2180   -999.2500     65.5010    -87.3383    -90.0000    -91.3383    -72.7819      0.0386      0.0804      0.0804      0.2678
   6691.5000     65.1180     78.2410     93.5050      0.2617      3.0851      2.1021      0.2099   -999.2500      0.2507      0.2473     93.5050     78.2410   -999.2500     65.1180    -87.8099    -90.0000    -91.8099    -73.1749      0.0377      0.0785      0.0785      0.2617
   6692.0000     64.8780     78.4200     92.9710      0.2603      3.0851      2.1017      0.2101   -999.2500      0.2507      0.2473     92.9710     78.4200   -999.2500     64.8780    -87.9215    -90.0000    -91.9215    -73.2679      0.0375      0.0781      0.0781      0.2603
   6692.5000     64.9270     78.5410     92.4370      0.2612      3.0851      2.1020      0.2099   -999.2500      0.2507      0.2473     92.4370     78.5410   -999.2500     64.9270    -87.8522    -90.0000    -91.8522    -73.2102      0.0376      0.0784      0.0784      0.2612
   6693.0000     65.1950     78.6610     90.9480      0.2630      3.0852      2.1025      0.2096   -999.2500      0.2506      0.2472     90.9480     78.6610   -999.2500     65.1950    -87.7118    -90.0000    -91.7118    -73.0932      0.0379      0.0789      0.0789      0.2630
   6693.5000     65.6050     78.6450     90.4800      0.2648      3.0852      2.1031      0.2093   -999.2500      0.2506      0.2472     90.4800     78.6450   -999.2500     65.6050    -87.5750    -90.0000    -91.5750    -72.9792      0.0381      0.0794      0.0794      0.2648
   6694.0000     65.9840     78.6280     90.2990      0.2652      3.0852      2.1032      0.2092   -999.2500      0.2506      0.2471     90.2990     78.6280   -999.2500     65.9840    -87.5417    -90.0000    -91.5417    -72.9514      0.0382      0.0796      0.0796      0.2652
   6694.5000     66.3640     78.6670     90.4040      0.2652      3.0852      2.1033      0.2092   -999.2500      0.2506      0.2471     90.4040     78.6670   -999.2500     66.3640    -87.5453    -90.0000    -91.5453    -72.9544      0.0382      0.0795      0.0795      0.2652
   6695.0000     67.0440     78.6520     90.5780      0.2663      3.0853      2.1036      0.2090   -999.2500      0.2505      0.2471     90.5780     78.6520   -999.2500     67.0440    -87.4589    -90.0000    -91.4589    -72.8824      0.0383      0.0799      0.0799      0.2663
   6695.5000     67.0980     78.4140     90.6090      0.2674      3.0853      2.1040      0.2088   -999.2500      0.2505      0.2471     90.6090     78.4140   -999.2500     67.0980    -87.3725    -90.0000    -91.3725    -72.8104      0.0385      0.0802      0.0802      0.2674
   6696.0000     65.4980     77.5310     90.7130      0.2683      3.0853      2.1043      0.2086   -999.2500      0.2505      0.2470     90.7130     77.5310   -999.2500     65.4980    -87.3023    -90.0000    -91.3023    -72.7519      0.0386      0.0805      0.0805      0.2683
   6696.5000     64.5430     75.8620     90.4610      0.2688      3.0854      2.1044      0.2086   -999.2500      0.2505      0.2470     90.4610     75.8620   -999.2500     64.5430    -87.2672    -90.0000    -91.2672    -72.7227      0.0387      0.0806      0.0806      0.2688
   6697.0000     63.4500     73.9080     89.2040      0.2692      3.0854      2.1046      0.2085   -999.2500      0.2505      0.2470     89.2040     73.9080   -999.2500     63.4500    -87.2330    -90.0000    -91.2330    -72.6942      0.0388      0.0808      0.0808      0.2692
   6697.5000     62.1290     72.1660     86.3700      0.2696      3.0854      2.1047      0.2084   -999.2500      0.2504      0.2470     86.3700     72.1660   -999.2500     62.1290    -87.2060    -90.0000    -91.2060    -72.6717      0.0388      0.0809      0.0809      0.2696
   6698.0000     61.0410     70.2850     84.1110      0.2695      3.0854      2.1047      0.2084   -999.2500      0.2504      0.2469     84.1110     70.2850   -999.2500     61.0410    -87.2123    -90.0000    -91.2123    -72.6769      0.0388      0.0808      0.0808      0.2695
   6698.5000     60.0880     68.6860     81.0610      0.2694      3.0855      2.1048      0.2084   -999.2500      0.2504      0.2469     81.0610     68.6860   -999.2500     60.0880    -87.2150    -90.0000    -91.2150    -72.6792      0.0388      0.0808      0.0808      0.2694
   6699.0000     59.4950     67.0890     78.6570      0.2694      3.0855      2.1048      0.2084   -999.2500      0.2504      0.2469     78.6570     67.0890   -999.2500     59.4950    -87.2177    -90.0000    -91.2177    -72.6814      0.0388      0.0808      0.0808      0.2694
   6699.5000     59.8020     66.0620     77.4740      0.2689      3.0855      2.1046      0.2085   -999.2500      0.2504      0.2469     77.4740     66.0620   -999.2500     59.8020    -87.2555    -90.0000    -91.2555    -72.7129      0.0387      0.0807      0.0807      0.2689
   6700.0000     60.1090     65.4700     76.2860      0.2665      3.0855      2.1040      0.2089   -999.2500      0.2505      0.2470     76.2860     65.4700   -999.2500     60.1090    -87.4391    -90.0000    -91.4391    -72.8659      0.0384      0.0800      0.0800      0.2665
   6700.5000     60.8490     65.0250     76.0010      0.2627      3.0856      2.1028      0.2095   -999.2500      0.2505      0.2471     76.0010     65.0250   -999.2500     60.8490    -87.7343    -90.0000    -91.7343    -73.1119      0.0378      0.0788      0.0788      0.2627
   6701.0000     61.5890     64.9390     76.5050      0.2570      3.0856      2.1012      0.2105   -999.2500      0.2506      0.2473     76.5050     64.9390   -999.2500     61.5890    -88.1726    -90.0000    -92.1726    -73.4772      0.0370      0.0771      0.0771      0.2570
