~V
VERS. 2.00: Ver 2.00
WRAP.   NO:        
~W
 STRT.FT 365:
 STOP.FT 6820:
 STEP.FT 0.5:
 NULL. -999.250000:
 COMP. Richfield (ARCO):Company
 WELL. San Emidio A 45-19 Redrill:Well
 FLD. Los Lobos:Field
 LOC. S19 T11N R22W:Location
 STAT. CA:State
 SRVC. :Service Company
 SON. :Service Order #
 DATE. :Log Date
 UWI. 0143101:Unique Well ID
~C
 DEPT.FT :
 AM16.OHMM :
 AO10.OHMM :
 AO19.OHMM :
 LTHE. :
 MCRV. :
 MM. :
 PHES. :
 PHMX. :
 PHTS. :
 PHZC. :
 RD.OHMM :
 RM.OHMM :
 ROS. :
 RS.OHMM :
 SBL.MV :
 SCLN. :
 SP.MV :
 SPN. :
 VCDS. :
 VCLY. :
 VCWS. :
 VSHS. :
~P
~A
# ...
   6455.0000      3.4800      3.3110      3.1570      0.8255      2.5834      2.5834      0.1162   -999.2500      0.2450      0.2343      3.1570      3.3110   -999.2500      3.4800    -23.9144    -36.2436    -27.9144    -19.9287      0.1189      0.2477      0.2477      0.8255
   6455.5000      3.4990      3.2980      3.2640      0.8305      2.5883      2.5883      0.1154   -999.2500      0.2449      0.2342      3.2640      3.2980   -999.2500      3.4990    -23.9450    -36.3846    -27.9450    -19.9542      0.1196      0.2492      0.2492      0.8305
   6456.0000      3.5030      3.3460      3.3420      0.9079      2.7170      2.7170      0.0921   -999.2500      0.2426      0.2301      3.3420      3.3460   -999.2500      3.5030    -22.3583    -36.5256    -26.3583    -18.6319      0.1389      0.2894      0.2894      0.9079
   6456.5000      3.4790      3.3640      3.3710      0.9319      2.8503      2.8503      0.0681   -999.2500      0.2403      0.2260      3.3710      3.3640   -999.2500      3.4790    -20.6996    -36.6667    -24.6996    -17.2497      0.1589      0.3310      0.3310      0.9319
   6457.0000      3.3550      3.3910      3.4060      1.2070      2.9166      2.9166      0.0000   -999.2500      0.1883      0.2228      3.4060      3.3910   -999.2500      3.3550    -19.4720    -36.8077    -23.4720    -16.2267      0.1738      0.3621      0.3621      1.2070
   6457.5000      3.2090      3.4060      3.4350      1.3665      2.9387      2.9387      0.0000   -999.2500      0.2132      0.2180      3.4350      3.4060   -999.2500      3.2090    -17.5262    -36.9487    -21.5262    -14.6052      0.1968      0.4100      0.4100      1.3665
   6458.0000      3.1200      3.4220      3.4560      1.4401      2.9490      2.9490      0.0000   -999.2500      0.2247      0.2158      3.4560      3.4220   -999.2500      3.1200    -16.6568    -37.0897    -20.6568    -13.8807      0.2074      0.4320      0.4320      1.4401
   6458.5000      2.9890      3.4550      3.4630      1.5219      2.9603      2.9603      0.0000   -999.2500      0.2331      0.2134      3.4630      3.4550   -999.2500      2.9890    -15.5372    -37.2308    -19.5372    -12.9477      0.2191      0.4566      0.4522      1.5219
   6459.0000      2.9080      3.4520      3.4620      1.5682      2.9667      2.9667      0.0000   -999.2500      0.2323      0.2120      3.4620      3.4520   -999.2500      2.9080    -14.7056    -37.3718    -18.7056    -12.2547      0.2258      0.4705      0.4581      1.5682
   6459.5000      2.7980      3.3780      3.4480      1.6049      2.9718      2.9718      0.0000   -999.2500      0.2317      0.2109      3.4480      3.3780   -999.2500      2.7980    -14.0540    -37.5128    -18.0540    -11.7117      0.2311      0.4815      0.4628      1.6049
   6460.0000      2.7310      3.2900      3.2820      1.6393      2.9766      2.9766      0.0000   -999.2500      0.2311      0.2098      3.2820      3.2900   -999.2500      2.7310    -13.4393    -37.6538    -17.4393    -11.1994      0.2361      0.4918      0.4671      1.6393
   6460.5000      2.6070      3.2160      3.2800      1.6583      2.9793      2.9793      0.0000   -999.2500      0.2307      0.2092      3.2800      3.2160   -999.2500      2.6070    -13.1207    -37.7949    -17.1207    -10.9339      0.2388      0.4975      0.4695      1.6583
   6461.0000      2.5120      3.1210      3.2920      1.6753      2.9817      2.9817      0.0000   -999.2500      0.2304      0.2087      3.2920      3.1210   -999.2500      2.5120    -12.8381    -37.9359    -16.8381    -10.6984      0.2412      0.5026      0.4717      1.6753
   6461.5000      2.4820      3.0400      3.2830      1.6904      2.9838      2.9838      0.0000   -999.2500      0.2302      0.2083      3.2830      3.0400   -999.2500      2.4820    -12.5906    -38.0769    -16.5906    -10.4922      0.2434      0.5071      0.4736      1.6904
   6462.0000      2.4580      3.0740      3.1310      1.7034      2.9856      2.9856      0.0000   -999.2500      0.2299      0.2079      3.1310      3.0740   -999.2500      2.4580    -12.3818    -38.2179    -16.3818    -10.3182      0.2453      0.5110      0.4752      1.7034
   6462.5000      2.4780      3.0870      3.1470      1.7091      2.9864      2.9864      0.0000   -999.2500      0.2298      0.2077      3.1470      3.0870   -999.2500      2.4780    -12.3143    -38.3590    -16.3143    -10.2619      0.2461      0.5127      0.4759      1.7091
   6463.0000      2.4940      3.1210      3.1630      1.6893      2.9837      2.9837      0.0000   -999.2500      0.2302      0.2083      3.1630      3.1210   -999.2500      2.4940    -12.7517    -38.5000    -16.7517    -10.6264      0.2433      0.5068      0.4734      1.6893
   6463.5000      2.5110      3.1340      3.2320      1.6606      2.9798      2.9798      0.0000   -999.2500      0.2306      0.2091      3.2320      3.1340   -999.2500      2.5110    -13.3682    -38.6410    -17.3682    -11.1402      0.2391      0.4982      0.4698      1.6606
   6464.0000      2.5240      3.1320      3.2290      1.6284      2.9753      2.9753      0.0000   -999.2500      0.2312      0.2101      3.2290      3.1320   -999.2500      2.5240    -14.0594    -38.7820    -18.0594    -11.7162      0.2345      0.4885      0.4657      1.6284
   6464.5000      2.5360      3.1300      3.1130      1.6182      2.9740      2.9740      0.0000   -999.2500      0.2313      0.2104      3.1130      3.1300   -999.2500      2.5360    -14.3150    -38.9231    -18.3150    -11.9292      0.2330      0.4855      0.4644      1.6182
   6465.0000      2.5560      3.0780      2.9670      1.6313      2.9758      2.9758      0.0000   -999.2500      0.2311      0.2100      2.9670      3.0780   -999.2500      2.5560    -14.1044    -39.0641    -18.1044    -11.7537      0.2349      0.4894      0.4660      1.6313
   6465.5000      2.5750      3.0190      2.9290      1.6638      2.9803      2.9803      0.0000   -999.2500      0.2305      0.2090      2.9290      3.0190   -999.2500      2.5750    -13.4987    -39.2051    -17.4987    -11.2489      0.2396      0.4992      0.4701      1.6638
   6466.0000      2.6090      2.9810      2.9270      1.6820      2.9829      2.9829      0.0000   -999.2500      0.2302      0.2084      2.9270      2.9810   -999.2500      2.6090    -13.1801    -39.3461    -17.1801    -10.9834      0.2422      0.5046      0.4724      1.6820
   6466.5000      2.6350      2.9510      2.9250      1.6982      2.9851      2.9851      0.0000   -999.2500      0.2299      0.2079      2.9250      2.9510   -999.2500      2.6350    -12.8975    -39.4872    -16.8975    -10.7479      0.2445      0.5095      0.4745      1.6982
   6467.0000      2.6550      2.9130      2.9150      1.7126      2.9872      2.9872      0.0000   -999.2500      0.2297      0.2075      2.9150      2.9130   -999.2500      2.6550    -12.6509    -39.6282    -16.6509    -10.5424      0.2466      0.5138      0.4763      1.7126
   6467.5000      2.6680      2.9040      2.8990      1.7057      2.9862      2.9862      0.0000   -999.2500      0.2298      0.2077      2.8990      2.9040   -999.2500      2.6680    -12.8363    -39.7692    -16.8363    -10.6969      0.2456      0.5117      0.4754      1.7057
   6468.0000      2.6870      2.8670      2.8830      1.6515      2.9788      2.9788      0.0000   -999.2500      0.2307      0.2093      2.8830      2.8670   -999.2500      2.6870    -13.9946    -39.9102    -17.9946    -11.6622      0.2378      0.4955      0.4685      1.6515
   6468.5000      2.7070      2.8510      2.7940      1.6310      2.9759      2.9759      0.0000   -999.2500      0.2311      0.2099      2.7940      2.8510   -999.2500      2.7070    -14.4662    -40.0513    -18.4662    -12.0552      0.2349      0.4893      0.4659      1.6310
   6469.0000      2.7200      2.8270      2.7780      1.5879      2.9700      2.9700      0.0000   -999.2500      0.2318      0.2112      2.7780      2.8270   -999.2500      2.7200    -15.4085    -40.1923    -19.4085    -12.8404      0.2287      0.4764      0.4604      1.5879
