~V
VERS. 2.00: Ver 2.00
WRAP.   NO:        
~W
 STRT.FT 365:
 STOP.FT 6820:
 STEP.FT 0.5:
 NULL. -999.250000:
 COMP. Richfield (ARCO):Company
 WELL. San Emidio A 45-19 Redrill:Well
 FLD. Los Lobos:Field
 LOC. S19 T11N R22W:Location
 STAT. CA:State
 SRVC. :Service Company
 SON. :Service Order #
 DATE. :Log Date
 UWI. 0143101:Unique Well ID
~C
 DEPT.FT :
 AM16.OHMM :
 AO10.OHMM :
 AO19.OHMM :
 LTHE. :
 MCRV. :
 MM. :
 PHES. :
 PHMX. :
 PHTS. :
 PHZC. :
 RD.OHMM :
 RM.OHMM :
 ROS. :
 RS.OHMM :
 SBL.MV :
 SCLN. :
 SP.MV :
 SPN. :
 VCDS. :
 VCLY. :
 VCWS. :
 VSHS. :
~P
~A
# ...
   6107.0000      2.2300      2.1520      2.1390      1.3864      2.9228      2.9228      0.0000   -999.2500      0.2163      0.2233      2.1390      2.1520   -999.2500      2.2300    -13.0332    -27.8773    -16.0677    -10.8610      0.1996      0.4159      0.4159      1.3864
   6107.5000      2.2430      2.1710      2.1390      1.4125      2.9264      2.9264      0.0000   -999.2500      0.2204      0.2225      2.1390      2.1710   -999.2500      2.2430    -12.7832    -27.8767    -15.8193    -10.6527      0.2034      0.4238      0.4238      1.4125
   6108.0000      2.2460      2.1770      2.1470      1.4503      2.9317      2.9317      0.0000   -999.2500      0.2263      0.2214      2.1470      2.1770   -999.2500      2.2460    -12.4216    -27.8761    -15.4593    -10.3514      0.2088      0.4351      0.4351      1.4503
   6108.5000      2.2480      2.1830      2.1550      1.4844      2.9364      2.9364      0.0000   -999.2500      0.2316      0.2203      2.1550      2.1830   -999.2500      2.2480    -12.0961    -27.8755    -15.1353    -10.0800      0.2137      0.4453      0.4453      1.4844
   6109.0000      2.2530      2.2030      2.1910      1.5222      2.9417      2.9417      0.0000   -999.2500      0.2375      0.2192      2.1910      2.2030   -999.2500      2.2530    -11.6283    -27.8749    -14.6691     -9.6902      0.2192      0.4567      0.4567      1.5222
   6109.5000      2.2520      2.2050      2.1990      1.5374      2.9438      2.9438      0.0000   -999.2500      0.2386      0.2187      2.1990      2.2050   -999.2500      2.2520    -11.4098    -27.8743    -14.4522     -9.5082      0.2214      0.4612      0.4600      1.5374
   6110.0000      2.2580      2.2080      2.1570      1.5551      2.9463      2.9463      0.0000   -999.2500      0.2383      0.2182      2.1570      2.2080   -999.2500      2.2580    -11.1553    -27.8737    -14.1993     -9.2961      0.2239      0.4665      0.4623      1.5551
   6110.5000      2.2630      2.2050      2.0980      1.5591      2.9469      2.9469      0.0000   -999.2500      0.2382      0.2181      2.0980      2.2050   -999.2500      2.2630    -11.0989    -27.8731    -14.1444     -9.2491      0.2245      0.4677      0.4628      1.5591
   6111.0000      2.2820      2.2040      2.0670      1.5279      2.9426      2.9426      0.0000   -999.2500      0.2384      0.2190      2.0670      2.2040   -999.2500      2.2820    -11.5455    -27.8726    -14.5926     -9.6213      0.2200      0.4584      0.4584      1.5279
   6111.5000      2.2880      2.2020      2.0860      1.5068      2.9397      2.9397      0.0000   -999.2500      0.2351      0.2196      2.0860      2.2020   -999.2500      2.2880    -11.8472    -27.8720    -14.8959     -9.8727      0.2170      0.4520      0.4520      1.5068
   6112.0000      2.2900      2.1900      2.1380      1.4521      2.9322      2.9322      0.0000   -999.2500      0.2265      0.2212      2.1380      2.1900   -999.2500      2.2900    -12.4028    -27.8714    -15.4530    -10.3356      0.2091      0.4356      0.4356      1.4521
   6112.5000      2.2920      2.1770      2.1900      1.3902      2.9236      2.9236      0.0000   -999.2500      0.2169      0.2231      2.1900      2.1770   -999.2500      2.2920    -12.9934    -27.8708    -16.0452    -10.8278      0.2002      0.4171      0.4171      1.3902
   6113.0000      2.2980      2.1610      2.2590      1.3473      2.9177      2.9177      0.0000   -999.2500      0.2102      0.2244      2.2590      2.1610   -999.2500      2.2980    -13.4031    -27.8702    -16.4565    -11.1693      0.1940      0.4042      0.4042      1.3473
   6113.5000      2.3030      2.1520      2.1920      1.3043      2.9118      2.9118      0.0000   -999.2500      0.2035      0.2256      2.1920      2.1520   -999.2500      2.3030    -13.8138    -27.8696    -16.8687    -11.5115      0.1878      0.3913      0.3913      1.3043
   6114.0000      2.3070      2.1440      2.1540      1.2765      2.9080      2.9080      0.0000   -999.2500      0.1991      0.2265      2.1540      2.1440   -999.2500      2.3070    -14.0795    -27.8690    -17.1360    -11.7329      0.1838      0.3829      0.3829      1.2765
   6114.5000      2.3060      2.1410      2.1020      1.2485      2.9041      2.9041      0.0000   -999.2500      0.1948      0.2273      2.1020      2.1410   -999.2500      2.3060    -14.3470    -27.8684    -17.4051    -11.9558      0.1798      0.3745      0.3745      1.2485
   6115.0000      2.3040      2.1500      2.1070      1.2470      2.9039      2.9039      0.0000   -999.2500      0.1945      0.2273      2.1070      2.1500   -999.2500      2.3040    -14.3607    -27.8678    -17.4204    -11.9673      0.1796      0.3741      0.3741      1.2470
   6115.5000      2.2990      2.1600      2.1480      1.2641      2.9063      2.9063      0.0000   -999.2500      0.1972      0.2268      2.1480      2.1600   -999.2500      2.2990    -14.1972    -27.8672    -17.2584    -11.8310      0.1820      0.3792      0.3792      1.2641
   6116.0000      2.2940      2.1710      2.1960      1.2739      2.9077      2.9077      0.0000   -999.2500      0.1987      0.2265      2.1960      2.1710   -999.2500      2.2940    -14.1029    -27.8666    -17.1657    -11.7524      0.1834      0.3822      0.3822      1.2739
   6116.5000      2.2840      2.1770      2.1790      1.2912      2.9101      2.9101      0.0000   -999.2500      0.2014      0.2260      2.1790      2.1770   -999.2500      2.2840    -13.9375    -27.8660    -17.0019    -11.6146      0.1859      0.3874      0.3874      1.2912
   6117.0000      2.2720      2.1830      2.1130      1.3010      2.9115      2.9115      0.0000   -999.2500      0.2030      0.2257      2.1130      2.1830   -999.2500      2.2720    -13.8433    -27.8654    -16.9092    -11.5361      0.1873      0.3903      0.3903      1.3010
   6117.5000      2.2600      2.1810      2.1460      1.3144      2.9134      2.9134      0.0000   -999.2500      0.2051      0.2253      2.1460      2.1810   -999.2500      2.2600    -13.7148    -27.8648    -16.7823    -11.4290      0.1893      0.3943      0.3943      1.3144
   6118.0000      2.2570      2.1790      2.1370      1.3281      2.9153      2.9153      0.0000   -999.2500      0.2072      0.2249      2.1370      2.1790   -999.2500      2.2570    -13.5836    -27.8642    -16.6527    -11.3197      0.1913      0.3984      0.3984      1.3281
   6118.5000      2.2550      2.1910      2.1280      1.3418      2.9172      2.9172      0.0000   -999.2500      0.2093      0.2244      2.1280      2.1910   -999.2500      2.2550    -13.4525    -27.8636    -16.5231    -11.2104      0.1932      0.4026      0.4026      1.3418
   6119.0000      2.2460      2.1890      2.1680      1.3510      2.9185      2.9185      0.0000   -999.2500      0.2108      0.2242      2.1680      2.1890   -999.2500      2.2460    -13.3645    -27.8630    -16.4367    -11.1371      0.1945      0.4053      0.4053      1.3510
   6119.5000      2.2450      2.1880      2.1590      1.3515      2.9186      2.9186      0.0000   -999.2500      0.2108      0.2241      2.1590      2.1880   -999.2500      2.2450    -13.3593    -27.8624    -16.4331    -11.1328      0.1946      0.4055      0.4055      1.3515
   6120.0000      2.2440      2.1930      2.1500      1.3521      2.9187      2.9187      0.0000   -999.2500      0.2109      0.2241      2.1500      2.1930   -999.2500      2.2440    -13.3532    -27.8618    -16.4286    -11.1277      0.1947      0.4056      0.4056      1.3521
   6120.5000      2.2400      2.1970      2.1420      1.3516      2.9187      2.9187      0.0000   -999.2500      0.2109      0.2241      2.1420      2.1970   -999.2500      2.2400    -13.3580    -27.8612    -16.4349    -11.1316      0.1946      0.4055      0.4055      1.3516
   6121.0000      2.2380      2.2230      2.1410      1.3594      2.9198      2.9198      0.0000   -999.2500      0.2121      0.2239      2.1410      2.2230   -999.2500      2.2380    -13.2835    -27.8606    -16.3620    -11.0696      0.1958      0.4078      0.4078      1.3594
