~V
VERS. 2.00: Ver 2.00
WRAP.   NO:        
~W
 STRT.FT 365:
 STOP.FT 6820:
 STEP.FT 0.5:
 NULL. -999.250000:
 COMP. Richfield (ARCO):Company
 WELL. San Emidio A 45-19 Redrill:Well
 FLD. Los Lobos:Field
 LOC. S19 T11N R22W:Location
 STAT. CA:State
 SRVC. :Service Company
 SON. :Service Order #
 DATE. :Log Date
 UWI. 0143101:Unique Well ID
~C
 DEPT.FT :
 AM16.OHMM :
 AO10.OHMM :
 AO19.OHMM :
 LTHE. :
 MCRV. :
 MM. :
 PHES. :
 PHMX. :
 PHTS. :
 PHZC. :
 RD.OHMM :
 RM.OHMM :
 ROS. :
 RS.OHMM :
 SBL.MV :
 SCLN. :
 SP.MV :
 SPN. :
 VCDS. :
 VCLY. :
 VCWS. :
 VSHS. :
~P
~A
# ...
   5875.0000      2.0640      2.1210      2.0070      1.2349      2.8894      2.8894      0.0000   -999.2500      0.1926      0.2317      2.0070      2.1210   -999.2500      2.0640    -14.6256    -28.1543    -16.9317    -12.1880      0.1778      0.3705      0.3705      1.2349
   5875.5000      2.0630      2.1210      2.0420      1.2342      2.8894      2.8894      0.0000   -999.2500      0.1925      0.2317      2.0420      2.1210   -999.2500      2.0630    -14.6312    -28.1537    -16.9389    -12.1927      0.1777      0.3703      0.3703      1.2342
   5876.0000      2.0700      2.1340      1.9700      1.3042      2.8991      2.8991      0.0000   -999.2500      0.2035      0.2296      1.9700      2.1340   -999.2500      2.0700    -13.9555    -28.1531    -16.2648    -11.6296      0.1878      0.3913      0.3913      1.3042
   5876.5000      2.0910      2.1340      1.8830      1.3316      2.9029      2.9029      0.0000   -999.2500      0.2077      0.2288      1.8830      2.1340   -999.2500      2.0910    -13.6912    -28.1525    -16.0020    -11.4093      0.1917      0.3995      0.3995      1.3316
   5877.0000      2.1190      2.1470      1.8390      1.3589      2.9067      2.9067      0.0000   -999.2500      0.2120      0.2279      1.8390      2.1470   -999.2500      2.1190    -13.4268    -28.1520    -15.7392    -11.1890      0.1957      0.4077      0.4077      1.3589
   5877.5000      2.1460      2.1680      1.8460      1.4139      2.9144      2.9144      0.0000   -999.2500      0.2206      0.2263      1.8460      2.1680   -999.2500      2.1460    -12.8960    -28.1514    -15.2100    -10.7467      0.2036      0.4242      0.4242      1.4139
   5878.0000      2.1600      2.1890      1.9380      1.4319      2.9169      2.9169      0.0000   -999.2500      0.2234      0.2257      1.9380      2.1890   -999.2500      2.1600    -12.7217    -28.1508    -15.0372    -10.6014      0.2062      0.4296      0.4296      1.4319
   5878.5000      2.1740      2.2020      2.0090      1.4499      2.9194      2.9194      0.0000   -999.2500      0.2262      0.2252      2.0090      2.2020   -999.2500      2.1740    -12.5482    -28.1502    -14.8653    -10.4568      0.2088      0.4350      0.4350      1.4499
   5879.0000      2.2020      2.2160      2.0150      1.4530      2.9199      2.9199      0.0000   -999.2500      0.2267      0.2251      2.0150      2.2160   -999.2500      2.2020    -12.5178    -28.1496    -14.8365    -10.4315      0.2092      0.4359      0.4359      1.4530
   5879.5000      2.2300      2.2300      2.0290      1.4486      2.9193      2.9193      0.0000   -999.2500      0.2260      0.2252      2.0290      2.2300   -999.2500      2.2300    -12.5594    -28.1490    -14.8797    -10.4662      0.2086      0.4346      0.4346      1.4486
   5880.0000      2.2430      2.2430      2.0710      1.4183      2.9151      2.9151      0.0000   -999.2500      0.2213      0.2261      2.0710      2.2430   -999.2500      2.2430    -12.8522    -28.1484    -15.1740    -10.7101      0.2042      0.4255      0.4255      1.4183
   5880.5000      2.2510      2.2510      2.0860      1.4002      2.9126      2.9126      0.0000   -999.2500      0.2184      0.2267      2.0860      2.2510   -999.2500      2.2510    -13.0261    -28.1478    -15.3495    -10.8551      0.2016      0.4201      0.4201      1.4002
   5881.0000      2.2450      2.2450      2.0780      1.3970      2.9122      2.9122      0.0000   -999.2500      0.2179      0.2267      2.0780      2.2450   -999.2500      2.2450    -13.0569    -28.1472    -15.3819    -10.8808      0.2012      0.4191      0.4191      1.3970
   5881.5000      2.2170      2.2380      2.0430      1.4458      2.9190      2.9190      0.0000   -999.2500      0.2255      0.2253      2.0430      2.2380   -999.2500      2.2170    -12.5856    -28.1466    -14.9121    -10.4880      0.2082      0.4337      0.4337      1.4458
   5882.0000      2.2100      2.2320      2.0070      1.4686      2.9222      2.9222      0.0000   -999.2500      0.2291      0.2246      2.0070      2.2320   -999.2500      2.2100    -12.3653    -28.1460    -14.6934    -10.3044      0.2115      0.4406      0.4406      1.4686
   5882.5000      2.2110      2.2250      2.0210      1.4803      2.9238      2.9238      0.0000   -999.2500      0.2309      0.2242      2.0210      2.2250   -999.2500      2.2110    -12.2521    -28.1454    -14.5818    -10.2101      0.2132      0.4441      0.4441      1.4803
   5883.0000      2.2050      2.2190      2.0280      1.4920      2.9255      2.9255      0.0000   -999.2500      0.2328      0.2239      2.0280      2.2190   -999.2500      2.2050    -12.1390    -28.1448    -14.4702    -10.1158      0.2149      0.4476      0.4476      1.4920
   5883.5000      2.1910      2.2200      2.0000      1.4924      2.9256      2.9256      0.0000   -999.2500      0.2328      0.2238      2.0000      2.2200   -999.2500      2.1910    -12.1347    -28.1442    -14.4675    -10.1122      0.2149      0.4477      0.4477      1.4924
   5884.0000      2.1840      2.2200      2.0000      1.4930      2.9257      2.9257      0.0000   -999.2500      0.2329      0.2238      2.0000      2.2200   -999.2500      2.1840    -12.1295    -28.1436    -14.4639    -10.1079      0.2150      0.4479      0.4479      1.4930
   5884.5000      2.1850      2.2210      2.0280      1.5081      2.9278      2.9278      0.0000   -999.2500      0.2353      0.2233      2.0280      2.2210   -999.2500      2.1850    -11.9444    -28.1430    -14.2803     -9.9536      0.2172      0.4524      0.4524      1.5081
   5885.0000      2.1640      2.2220      2.0280      1.5232      2.9299      2.9299      0.0000   -999.2500      0.2376      0.2229      2.0280      2.2220   -999.2500      2.1640    -11.7250    -28.1424    -14.0625     -9.7708      0.2193      0.4570      0.4570      1.5232
   5885.5000      2.1510      2.2220      2.0000      1.5261      2.9303      2.9303      0.0000   -999.2500      0.2381      0.2228      2.0000      2.2220   -999.2500      2.1510    -11.6829    -28.1418    -14.0220     -9.7358      0.2198      0.4578      0.4578      1.5261
   5886.0000      2.1520      2.2230      1.9850      1.5264      2.9304      2.9304      0.0000   -999.2500      0.2381      0.2228      1.9850      2.2230   -999.2500      2.1520    -11.6777    -28.1412    -14.0184     -9.7315      0.2198      0.4579      0.4579      1.5264
   5886.5000      2.1520      2.2100      1.9570      1.5293      2.9308      2.9308      0.0000   -999.2500      0.2386      0.2227      1.9570      2.2100   -999.2500      2.1520    -11.6366    -28.1406    -13.9788     -9.6971      0.2202      0.4588      0.4588      1.5293
   5887.0000      2.1500      2.2030      1.9420      1.5123      2.9285      2.9285      0.0000   -999.2500      0.2359      0.2232      1.9420      2.2030   -999.2500      2.1500    -11.8825    -28.1400    -14.2263     -9.9021      0.2178      0.4537      0.4537      1.5123
   5887.5000      2.1470      2.2040      1.9920      1.5002      2.9269      2.9269      0.0000   -999.2500      0.2340      0.2235      1.9920      2.2040   -999.2500      2.1470    -12.0564    -28.1394    -14.4018    -10.0470      0.2160      0.4501      0.4501      1.5002
   5888.0000      2.1540      2.2050      2.0460      1.4822      2.9244      2.9244      0.0000   -999.2500      0.2312      0.2241      2.0460      2.2050   -999.2500      2.1540    -12.2313    -28.1388    -14.5782    -10.1927      0.2134      0.4447      0.4447      1.4822
   5888.5000      2.1550      2.1980      2.1000      1.4678      2.9224      2.9224      0.0000   -999.2500      0.2290      0.2245      2.1000      2.1980   -999.2500      2.1550    -12.3701    -28.1382    -14.7186    -10.3084      0.2114      0.4403      0.4403      1.4678
   5889.0000      2.1560      2.1990      2.1860      1.4758      2.9235      2.9235      0.0000   -999.2500      0.2302      0.2242      2.1860      2.1990   -999.2500      2.1560    -12.2929    -28.1376    -14.6430    -10.2441      0.2125      0.4427      0.4427      1.4758
