~V
VERS. 2.00: Ver 2.00
WRAP.   NO:        
~W
 STRT.FT 365:
 STOP.FT 6820:
 STEP.FT 0.5:
 NULL. -999.250000:
 COMP. Richfield (ARCO):Company
 WELL. San Emidio A 45-19 Redrill:Well
 FLD. Los Lobos:Field
 LOC. S19 T11N R22W:Location
 STAT. CA:State
 SRVC. :Service Company
 SON. :Service Order #
 DATE. :Log Date
 UWI. 0143101:Unique Well ID
~C
 DEPT.FT :
 AM16.OHMM :
 AO10.OHMM :
 AO19.OHMM :
 LTHE. :
 MCRV. :
 MM. :
 PHES. :
 PHMX. :
 PHTS. :
 PHZC. :
 RD.OHMM :
 RM.OHMM :
 ROS. :
 RS.OHMM :
 SBL.MV :
 SCLN. :
 SP.MV :
 SPN. :
 VCDS. :
 VCLY. :
 VCWS. :
 VSHS. :
~P
~A
# ...
   5411.0000      1.6360      1.9730      1.9640      1.4421      2.8934      2.8934      0.0000   -999.2500      0.2250      0.2332      1.9640      1.9730   -999.2500      1.6360    -12.1545    -27.1053    -12.9015    -10.1287      0.2077      0.4326      0.4326      1.4421
   5411.5000      1.6370      1.9820      1.9780      1.4699      2.8973      2.8973      0.0000   -999.2500      0.2293      0.2324      1.9780      1.9820   -999.2500      1.6370    -11.8981    -27.1093    -12.6468     -9.9151      0.2117      0.4410      0.4410      1.4699
   5412.0000      1.6600      1.9830      1.9850      1.4825      2.8990      2.8990      0.0000   -999.2500      0.2313      0.2320      1.9850      1.9830   -999.2500      1.6600    -11.7830    -27.1133    -12.5334     -9.8191      0.2135      0.4447      0.4447      1.4825
   5412.5000      1.6820      1.9840      2.0000      1.4951      2.9008      2.9008      0.0000   -999.2500      0.2332      0.2316      2.0000      1.9840   -999.2500      1.6820    -11.6670    -27.1173    -12.4191     -9.7225      0.2153      0.4485      0.4485      1.4951
   5413.0000      1.6980      1.9920      2.0070      1.5255      2.9050      2.9050      0.0000   -999.2500      0.2380      0.2307      2.0070      1.9920   -999.2500      1.6980    -11.2675    -27.1213    -12.0213     -9.3895      0.2197      0.4577      0.4577      1.5255
   5413.5000      1.7130      2.0000      2.0070      1.5314      2.9059      2.9059      0.0000   -999.2500      0.2389      0.2305      2.0070      2.0000   -999.2500      1.7130    -11.1874    -27.1253    -11.9430     -9.3229      0.2205      0.4594      0.4594      1.5314
   5414.0000      1.7360      2.0010      2.0000      1.5397      2.9071      2.9071      0.0000   -999.2500      0.2402      0.2302      2.0000      2.0010   -999.2500      1.7360    -11.0732    -27.1293    -11.8305     -9.2277      0.2217      0.4619      0.4619      1.5397
   5414.5000      1.7510      2.0020      1.9920      1.5249      2.9050      2.9050      0.0000   -999.2500      0.2379      0.2307      1.9920      2.0020   -999.2500      1.7510    -11.2812    -27.1333    -12.0402     -9.4010      0.2196      0.4575      0.4575      1.5249
   5415.0000      1.7670      2.0030      1.9920      1.5050      2.9023      2.9023      0.0000   -999.2500      0.2348      0.2313      1.9920      2.0030   -999.2500      1.7670    -11.5603    -27.1373    -12.3210     -9.6336      0.2167      0.4515      0.4515      1.5050
   5415.5000      1.7930      2.0040      2.0000      1.4776      2.8985      2.8985      0.0000   -999.2500      0.2305      0.2321      2.0000      2.0040   -999.2500      1.7930    -11.8403    -27.1413    -12.6027     -9.8669      0.2128      0.4433      0.4433      1.4776
   5416.0000      1.8190      2.0050      2.0030      1.3783      2.8848      2.8848      0.0000   -999.2500      0.2150      0.2351      2.0030      2.0050   -999.2500      1.8190    -12.7665    -27.1453    -13.5306    -10.6387      0.1985      0.4135      0.4135      1.3783
   5416.5000      1.8420      2.0060      2.0070      1.2867      2.8722      2.8722      0.0000   -999.2500      0.2007      0.2378      2.0070      2.0060   -999.2500      1.8420    -13.6207    -27.1493    -14.3865    -11.3506      0.1853      0.3860      0.3860      1.2867
   5417.0000      1.8640      2.0080      2.0070      1.2415      2.8659      2.8659      0.0000   -999.2500      0.1937      0.2391      2.0070      2.0080   -999.2500      1.8640    -14.0438    -27.1533    -14.8113    -11.7032      0.1788      0.3724      0.3724      1.2415
   5417.5000      1.8800      2.0090      1.9920      1.2270      2.8640      2.8640      0.0000   -999.2500      0.1914      0.2396      1.9920      2.0090   -999.2500      1.8800    -14.1807    -27.1573    -14.9499    -11.8172      0.1767      0.3681      0.3681      1.2270
   5418.0000      1.8950      2.0100      1.9850      1.2704      2.8700      2.8700      0.0000   -999.2500      0.1982      0.2383      1.9850      2.0100   -999.2500      1.8950    -13.7785    -27.1613    -14.5494    -11.4821      0.1829      0.3811      0.3811      1.2704
   5418.5000      1.9180      2.0110      1.9780      1.3407      2.8797      2.8797      0.0000   -999.2500      0.2091      0.2361      1.9780      2.0110   -999.2500      1.9180    -13.1260    -27.1653    -13.8987    -10.9384      0.1931      0.4022      0.4022      1.3407
   5419.0000      1.9290      2.0120      1.9710      1.3571      2.8821      2.8821      0.0000   -999.2500      0.2117      0.2356      1.9710      2.0120   -999.2500      1.9290    -12.9749    -27.1693    -13.7493    -10.8125      0.1954      0.4071      0.4071      1.3571
   5419.5000      1.9410      2.0130      1.9780      1.3273      2.8779      2.8779      0.0000   -999.2500      0.2071      0.2365      1.9780      2.0130   -999.2500      1.9410    -13.2549    -27.1733    -14.0310    -11.0458      0.1911      0.3982      0.3982      1.3273
   5420.0000      1.9550      2.0140      1.9920      1.2551      2.8680      2.8680      0.0000   -999.2500      0.1958      0.2387      1.9920      2.0140   -999.2500      1.9550    -13.9291    -27.1772    -14.7069    -11.6076      0.1807      0.3765      0.3765      1.2551
   5420.5000      1.9690      2.0120      2.0060      0.9195      2.8220      2.8220      0.0805   -999.2500      0.2570      0.2424      2.0060      2.0120   -999.2500      1.9690    -15.0830    -27.1812    -15.8625    -12.5692      0.1629      0.3395      0.3395      0.9195
   5421.0000      1.9820      2.0100      2.0400      0.9054      2.7441      2.7441      0.0946   -999.2500      0.2584      0.2448      2.0400      2.0100   -999.2500      1.9820    -15.8418    -27.1852    -16.6230    -13.2015      0.1513      0.3151      0.3151      0.9054
   5421.5000      2.0090      2.0160      2.0820      0.9007      2.7180      2.7180      0.0993   -999.2500      0.2589      0.2456      2.0820      2.0160   -999.2500      2.0090    -16.0984    -27.1892    -16.8813    -13.4153      0.1473      0.3069      0.3069      0.9007
   5422.0000      2.0070      2.0140      2.1240      0.9040      2.7362      2.7362      0.0960   -999.2500      0.2585      0.2450      2.1240      2.0140   -999.2500      2.0070    -15.9239    -27.1932    -16.7085    -13.2699      0.1501      0.3126      0.3126      0.9040
   5422.5000      2.0050      2.0120      2.0800      0.9080      2.7581      2.7581      0.0920   -999.2500      0.2581      0.2443      2.0800      2.0120   -999.2500      2.0050    -15.7143    -27.1972    -16.5006    -13.0952      0.1533      0.3194      0.3194      0.9080
   5423.0000      2.0030      2.0100      2.0220      0.9086      2.7615      2.7615      0.0914   -999.2500      0.2581      0.2442      2.0220      2.0100   -999.2500      2.0030    -15.6838    -27.2012    -16.4718    -13.0698      0.1538      0.3205      0.3205      0.9086
   5423.5000      2.0010      2.0090      2.0060      0.9039      2.7353      2.7353      0.0961   -999.2500      0.2585      0.2450      2.0060      2.0090   -999.2500      2.0010    -15.9404    -27.2052    -16.7301    -13.2836      0.1499      0.3123      0.3123      0.9039
   5424.0000      2.0000      2.0070      2.0050      0.8912      2.6648      2.6648      0.1088   -999.2500      0.2598      0.2472      2.0050      2.0070   -999.2500      2.0000    -16.6280    -27.2092    -17.4195    -13.8567      0.1393      0.2903      0.2903      0.8912
   5424.5000      1.9830      2.0050      2.0040      0.8878      2.6461      2.6461      0.1122   -999.2500      0.2601      0.2478      2.0040      2.0050   -999.2500      1.9830    -16.8126    -27.2132    -17.6058    -14.0105      0.1365      0.2844      0.2844      0.8878
   5425.0000      1.9820      2.0030      2.0250      0.8991      2.7086      2.7086      0.1009   -999.2500      0.2590      0.2459      2.0250      2.0030   -999.2500      1.9820    -16.2079    -27.2172    -17.0028    -13.5066      0.1459      0.3039      0.3039      0.8991
