~V
VERS. 2.00: Ver 2.00
WRAP.   NO:        
~W
 STRT.FT 365:
 STOP.FT 6820:
 STEP.FT 0.5:
 NULL. -999.250000:
 COMP. Richfield (ARCO):Company
 WELL. San Emidio A 45-19 Redrill:Well
 FLD. Los Lobos:Field
 LOC. S19 T11N R22W:Location
 STAT. CA:State
 SRVC. :Service Company
 SON. :Service Order #
 DATE. :Log Date
 UWI. 0143101:Unique Well ID
~C
 DEPT.FT :
 AM16.OHMM :
 AO10.OHMM :
 AO19.OHMM :
 LTHE. :
 MCRV. :
 MM. :
 PHES. :
 PHMX. :
 PHTS. :
 PHZC. :
 RD.OHMM :
 RM.OHMM :
 ROS. :
 RS.OHMM :
 SBL.MV :
 SCLN. :
 SP.MV :
 SPN. :
 VCDS. :
 VCLY. :
 VCWS. :
 VSHS. :
~P
~A
# ...
   5295.0000      1.9780      1.9890      1.9140      0.8968      2.7011      2.7011      0.1032   -999.2500      0.2612      0.2480      1.9140      1.9890   -999.2500      1.9780    -15.5949    -26.1783    -15.9453    -12.9957      0.1458      0.3037      0.3037      0.8968
   5295.5000      1.9810      1.9880      1.9010      0.8816      2.6170      2.6170      0.1184   -999.2500      0.2626      0.2507      1.9010      1.9880   -999.2500      1.9810    -16.3834    -26.1823    -16.7355    -13.6528      0.1332      0.2775      0.2775      0.8816
   5296.0000      1.9870      1.9870      1.8710      0.8093      2.5061      2.5061      0.1384   -999.2500      0.2646      0.2541      1.8710      1.9870   -999.2500      1.9870    -17.4239    -26.1863    -17.7777    -14.5199      0.1165      0.2428      0.2428      0.8093
   5296.5000      1.9930      1.9860      1.8690      0.7217      2.4220      2.4220      0.1535   -999.2500      0.2661      0.2567      1.8690      1.9860   -999.2500      1.9930    -18.2132    -26.1903    -18.5688    -15.1777      0.1039      0.2165      0.2165      0.7217
   5297.0000      1.9990      1.9840      1.8670      0.7459      2.4453      2.4453      0.1493   -999.2500      0.2657      0.2560      1.8670      1.9840   -999.2500      1.9990    -17.9982    -26.1943    -18.3555    -14.9985      0.1074      0.2238      0.2238      0.7459
   5297.5000      1.9980      1.9830      1.8650      0.7922      2.4897      2.4897      0.1413   -999.2500      0.2649      0.2546      1.8650      1.9830   -999.2500      1.9980    -17.5852    -26.1983    -17.9442    -14.6544      0.1141      0.2377      0.2377      0.7922
   5298.0000      1.9970      1.9820      1.8850      0.8385      2.5342      2.5342      0.1333   -999.2500      0.2641      0.2532      1.8850      1.9820   -999.2500      1.9970    -17.1722    -26.2023    -17.5329    -14.3102      0.1207      0.2515      0.2515      0.8385
   5298.5000      1.9960      1.9810      1.9260      0.8813      2.6149      2.6149      0.1187   -999.2500      0.2626      0.2507      1.9260      1.9810   -999.2500      1.9960    -16.4199    -26.2062    -16.7823    -13.6833      0.1328      0.2768      0.2768      0.8813
   5299.0000      1.9950      1.9800      1.9600      0.8869      2.6458      2.6458      0.1131   -999.2500      0.2621      0.2497      1.9600      1.9800   -999.2500      1.9950    -16.1329    -26.2102    -16.4970    -13.4441      0.1375      0.2864      0.2864      0.8869
   5299.5000      1.9930      1.9790      1.9730      0.8800      2.6078      2.6078      0.1200   -999.2500      0.2627      0.2509      1.9730      1.9790   -999.2500      1.9930    -16.4921    -26.2142    -16.8579    -13.7434      0.1318      0.2745      0.2745      0.8800
   5300.0000      1.9960      1.9780      2.0000      0.8515      2.5468      2.5468      0.1310   -999.2500      0.2638      0.2528      2.0000      1.9780   -999.2500      1.9960    -17.0655    -26.2182    -17.4330    -14.2212      0.1226      0.2555      0.2555      0.8515
   5300.5000      1.9990      1.9780      2.0190      0.8849      2.6347      2.6347      0.1151   -999.2500      0.2623      0.2500      2.0190      1.9780   -999.2500      1.9990    -16.2457    -26.2222    -16.6149    -13.5381      0.1358      0.2829      0.2829      0.8849
   5301.0000      1.9990      1.9780      2.0250      0.8973      2.7035      2.7035      0.1027   -999.2500      0.2610      0.2479      2.0250      1.9780   -999.2500      1.9990    -15.6032    -26.2262    -15.9741    -13.0026      0.1461      0.3044      0.3044      0.8973
   5301.5000      1.9990      1.9770      2.0230      0.9111      2.7801      2.7801      0.0889   -999.2500      0.2597      0.2455      2.0230      1.9770   -999.2500      1.9990    -14.8887    -26.2302    -15.2613    -12.4072      0.1576      0.3283      0.3283      0.9111
   5302.0000      2.0120      1.9770      2.0210      1.1779      2.8510      2.8510      0.0000   -999.2500      0.1838      0.2430      2.0210      1.9770   -999.2500      2.0120    -14.1399    -26.2342    -14.5143    -11.7833      0.1696      0.3534      0.3534      1.1779
   5302.5000      2.0120      1.9760      1.9980      1.2217      2.8571      2.8571      0.0000   -999.2500      0.1906      0.2416      1.9980      1.9760   -999.2500      2.0120    -13.7485    -26.2382    -14.1246    -11.4571      0.1759      0.3665      0.3665      1.2217
   5303.0000      2.0150      1.9760      1.9750      1.2693      2.8637      2.8637      0.0000   -999.2500      0.1980      0.2402      1.9750      1.9760   -999.2500      2.0150    -13.3220    -26.2422    -13.6998    -11.1017      0.1828      0.3808      0.3808      1.2693
   5303.5000      2.0190      1.9750      2.0230      1.3011      2.8681      2.8681      0.0000   -999.2500      0.2030      0.2392      2.0230      1.9750   -999.2500      2.0190    -13.0386    -26.2462    -13.4181    -10.8655      0.1874      0.3903      0.3903      1.3011
   5304.0000      2.0180      1.9750      2.0500      1.3289      2.8720      2.8720      0.0000   -999.2500      0.2073      0.2384      2.0500      1.9750   -999.2500      2.0180    -12.7903    -26.2502    -13.1715    -10.6586      0.1914      0.3987      0.3987      1.3289
   5304.5000      2.0180      1.9640      2.0690      1.3606      2.8764      2.8764      0.0000   -999.2500      0.2122      0.2374      2.0690      1.9640   -999.2500      2.0180    -12.5069    -26.2542    -12.8898    -10.4224      0.1959      0.4082      0.4082      1.3606
   5305.0000      2.0180      1.9530      2.0680      1.3763      2.8786      2.8786      0.0000   -999.2500      0.2147      0.2370      2.0680      1.9530   -999.2500      2.0180    -12.3675    -26.2582    -12.7521    -10.3062      0.1982      0.4129      0.4129      1.3763
   5305.5000      2.0030      1.9460      2.0660      1.3861      2.8800      2.8800      0.0000   -999.2500      0.2162      0.2367      2.0660      1.9460   -999.2500      2.0030    -12.2812    -26.2622    -12.6675    -10.2343      0.1996      0.4158      0.4158      1.3861
   5306.0000      2.0020      1.9380      2.0280      1.3958      2.8814      2.8814      0.0000   -999.2500      0.2178      0.2364      2.0280      1.9380   -999.2500      2.0020    -12.1949    -26.2662    -12.5829    -10.1624      0.2010      0.4188      0.4188      1.3958
   5306.5000      2.0020      1.9380      2.0190      1.4075      2.8830      2.8830      0.0000   -999.2500      0.2196      0.2360      2.0190      1.9380   -999.2500      2.0020    -12.0915    -26.2702    -12.4812    -10.0762      0.2027      0.4223      0.4223      1.4075
   5307.0000      2.0020      1.9230      2.0320      1.4152      2.8841      2.8841      0.0000   -999.2500      0.2208      0.2358      2.0320      1.9230   -999.2500      2.0020    -12.0240    -26.2742    -12.4155    -10.0200      0.2038      0.4246      0.4246      1.4152
   5307.5000      2.0010      1.9220      2.0730      1.4230      2.8852      2.8852      0.0000   -999.2500      0.2220      0.2355      2.0730      1.9220   -999.2500      2.0010    -11.9557    -26.2782    -12.3489     -9.9631      0.2049      0.4269      0.4269      1.4230
   5308.0000      2.0010      1.9220      2.0860      1.4308      2.8863      2.8863      0.0000   -999.2500      0.2232      0.2353      2.0860      1.9220   -999.2500      2.0010    -11.8874    -26.2822    -12.2823     -9.9062      0.2060      0.4292      0.4292      1.4308
   5308.5000      2.0010      1.9220      2.0980      1.4385      2.8874      2.8874      0.0000   -999.2500      0.2244      0.2350      2.0980      1.9220   -999.2500      2.0010    -11.8200    -26.2862    -12.2166     -9.8500      0.2071      0.4315      0.4315      1.4385
   5309.0000      2.0000      1.9220      2.0960      1.4383      2.8874      2.8874      0.0000   -999.2500      0.2244      0.2350      2.0960      1.9220   -999.2500      2.0000    -11.8237    -26.2902    -12.2220     -9.8531      0.2071      0.4315      0.4315      1.4383
