~V
VERS. 2.00: Ver 2.00
WRAP.   NO:        
~W
 STRT.FT 365:
 STOP.FT 6820:
 STEP.FT 0.5:
 NULL. -999.250000:
 COMP. Richfield (ARCO):Company
 WELL. San Emidio A 45-19 Redrill:Well
 FLD. Los Lobos:Field
 LOC. S19 T11N R22W:Location
 STAT. CA:State
 SRVC. :Service Company
 SON. :Service Order #
 DATE. :Log Date
 UWI. 0143101:Unique Well ID
~C
 DEPT.FT :
 AM16.OHMM :
 AO10.OHMM :
 AO19.OHMM :
 LTHE. :
 MCRV. :
 MM. :
 PHES. :
 PHMX. :
 PHTS. :
 PHZC. :
 RD.OHMM :
 RM.OHMM :
 ROS. :
 RS.OHMM :
 SBL.MV :
 SCLN. :
 SP.MV :
 SPN. :
 VCDS. :
 VCLY. :
 VCWS. :
 VSHS. :
~P
~A
# ...
   5643.0000      2.0760      2.0540      1.9840      1.1865      2.8704      2.8704      0.0000   -999.2500      0.1851      0.2370      1.9840      2.0540   -999.2500      2.0760    -15.2412    -28.4313    -16.7814    -12.7010      0.1708      0.3559      0.3559      1.1865
   5643.5000      2.0760      2.0550      1.8890      0.9274      2.8575      2.8575      0.0726   -999.2500      0.2529      0.2379      1.8890      2.0550   -999.2500      2.0760    -15.5365    -28.4307    -17.0784    -12.9471      0.1665      0.3468      0.3468      0.9274
   5644.0000      2.0770      2.0550      1.8300      0.9158      2.7931      2.7931      0.0842   -999.2500      0.2540      0.2399      1.8300      2.0550   -999.2500      2.0770    -16.1909    -28.4302    -17.7345    -13.4924      0.1568      0.3267      0.3267      0.9158
   5644.5000      2.0780      2.0530      1.8500      0.9061      2.7392      2.7392      0.0939   -999.2500      0.2550      0.2416      1.8500      2.0530   -999.2500      2.0780    -16.7382    -28.4296    -18.2835    -13.9485      0.1487      0.3098      0.3098      0.9061
   5645.0000      2.0790      2.0500      1.8990      0.9034      2.7242      2.7242      0.0966   -999.2500      0.2553      0.2421      1.8990      2.0500   -999.2500      2.0790    -16.8904    -28.4290    -18.4374    -14.0753      0.1465      0.3051      0.3051      0.9034
   5645.5000      2.0790      2.0430      1.9770      0.9032      2.7232      2.7232      0.0968   -999.2500      0.2553      0.2421      1.9770      2.0430   -999.2500      2.0790    -16.9004    -28.4284    -18.4491    -14.0837      0.1463      0.3048      0.3048      0.9032
   5646.0000      2.0800      2.0440      2.0250      0.9037      2.7258      2.7258      0.0963   -999.2500      0.2552      0.2420      2.0250      2.0440   -999.2500      2.0800    -16.8735    -28.4278    -18.4239    -14.0612      0.1467      0.3056      0.3056      0.9037
   5646.5000      2.0810      2.0480      2.0170      0.9048      2.7320      2.7320      0.0952   -999.2500      0.2551      0.2418      2.0170      2.0480   -999.2500      2.0810    -16.8106    -28.4272    -18.3627    -14.0088      0.1476      0.3076      0.3076      0.9048
   5647.0000      2.0810      2.0530      1.9080      0.9101      2.7612      2.7612      0.0899   -999.2500      0.2546      0.2409      1.9080      2.0530   -999.2500      2.0810    -16.5146    -28.4266    -18.0684    -13.7621      0.1520      0.3167      0.3167      0.9101
   5647.5000      2.0820      2.0530      1.7700      0.9154      2.7904      2.7904      0.0846   -999.2500      0.2540      0.2400      1.7700      2.0530   -999.2500      2.0820    -16.2176    -28.4260    -17.7732    -13.5147      0.1564      0.3258      0.3258      0.9154
   5648.0000      2.0830      2.0540      1.7400      0.9248      2.8425      2.8425      0.0752   -999.2500      0.2531      0.2383      1.7400      2.0540   -999.2500      2.0830    -15.6885    -28.4254    -17.2458    -13.0738      0.1642      0.3421      0.3421      0.9248
   5648.5000      2.0840      2.0550      1.8100      1.1945      2.8718      2.8718      0.0000   -999.2500      0.1863      0.2367      1.8100      2.0550   -999.2500      2.0840    -15.1594    -28.4248    -16.7184    -12.6329      0.1720      0.3583      0.3583      1.1945
   5649.0000      2.0840      2.0550      1.8450      1.2560      2.8803      2.8803      0.0000   -999.2500      0.1959      0.2348      1.8450      2.0550   -999.2500      2.0840    -14.5601    -28.4242    -16.1208    -12.1334      0.1809      0.3768      0.3768      1.2560
   5649.5000      2.0850      2.0560      1.8720      1.2844      2.8843      2.8843      0.0000   -999.2500      0.2004      0.2340      1.8720      2.0560   -999.2500      2.0850    -14.2830    -28.4236    -15.8454    -11.9025      0.1849      0.3853      0.3853      1.2844
   5650.0000      2.0850      2.0570      1.8960      1.2983      2.8862      2.8862      0.0000   -999.2500      0.2025      0.2336      1.8960      2.0570   -999.2500      2.0850    -14.1472    -28.4230    -15.7113    -11.7893      0.1870      0.3895      0.3895      1.2983
   5650.5000      2.0850      2.0560      1.9200      1.3186      2.8891      2.8891      0.0000   -999.2500      0.2057      0.2329      1.9200      2.0560   -999.2500      2.0850    -13.9484    -28.4224    -15.5142    -11.6237      0.1899      0.3956      0.3956      1.3186
   5651.0000      2.0840      2.0560      1.9120      1.3391      2.8919      2.8919      0.0000   -999.2500      0.2089      0.2323      1.9120      2.0560   -999.2500      2.0840    -13.7487    -28.4218    -15.3162    -11.4572      0.1928      0.4017      0.4017      1.3391
   5651.5000      2.0840      2.0550      1.8180      1.3648      2.8955      2.8955      0.0000   -999.2500      0.2129      0.2315      1.8180      2.0550   -999.2500      2.0840    -13.4977    -28.4212    -15.0669    -11.2481      0.1965      0.4094      0.4094      1.3648
   5652.0000      2.0830      2.0540      1.7390      1.3907      2.8991      2.8991      0.0000   -999.2500      0.2170      0.2307      1.7390      2.0540   -999.2500      2.0830    -13.2449    -28.4206    -14.8158    -11.0374      0.2003      0.4172      0.4172      1.3907
   5652.5000      2.0680      2.0530      1.7450      1.4057      2.9012      2.9012      0.0000   -999.2500      0.2193      0.2303      1.7450      2.0530   -999.2500      2.0680    -13.0992    -28.4200    -14.6718    -10.9160      0.2024      0.4217      0.4217      1.4057
   5653.0000      2.0670      2.0530      1.7520      1.4207      2.9033      2.9033      0.0000   -999.2500      0.2216      0.2298      1.7520      2.0530   -999.2500      2.0670    -12.9525    -28.4194    -14.5269    -10.7938      0.2046      0.4262      0.4262      1.4207
   5653.5000      2.0590      2.0590      1.8120      1.4356      2.9054      2.9054      0.0000   -999.2500      0.2240      0.2294      1.8120      2.0590   -999.2500      2.0590    -12.8068    -28.4188    -14.3829    -10.6724      0.2067      0.4307      0.4307      1.4356
   5654.0000      2.0580      2.0580      1.8720      1.4577      2.9085      2.9085      0.0000   -999.2500      0.2274      0.2287      1.8720      2.0580   -999.2500      2.0580    -12.5909    -28.4182    -14.1687    -10.4924      0.2099      0.4373      0.4373      1.4577
   5654.5000      2.0580      2.0580      1.9500      1.4726      2.9106      2.9106      0.0000   -999.2500      0.2297      0.2282      1.9500      2.0580   -999.2500      2.0580    -12.4461    -28.4176    -14.0256    -10.3718      0.2121      0.4418      0.4418      1.4726
   5655.0000      2.0570      2.0570      1.9420      1.4764      2.9112      2.9112      0.0000   -999.2500      0.2303      0.2281      1.9420      2.0570   -999.2500      2.0570    -12.4084    -28.4170    -13.9896    -10.3403      0.2126      0.4429      0.4429      1.4764
   5655.5000      2.0560      2.0560      1.9700      1.4840      2.9122      2.9122      0.0000   -999.2500      0.2315      0.2279      1.9700      2.0560   -999.2500      2.0560    -12.3347    -28.4164    -13.9176    -10.2789      0.2137      0.4452      0.4452      1.4840
   5656.0000      2.0560      2.0520      1.9840      1.4914      2.9133      2.9133      0.0000   -999.2500      0.2327      0.2277      1.9840      2.0520   -999.2500      2.0560    -12.2619    -28.4158    -13.8465    -10.2182      0.2148      0.4474      0.4474      1.4914
   5656.5000      2.0510      2.0480      1.9830      1.4952      2.9138      2.9138      0.0000   -999.2500      0.2332      0.2275      1.9830      2.0480   -999.2500      2.0510    -12.2251    -28.4152    -13.8114    -10.1876      0.2153      0.4485      0.4485      1.4952
   5657.0000      2.0470      2.0470      1.9820      1.4954      2.9139      2.9139      0.0000   -999.2500      0.2333      0.2275      1.9820      2.0470   -999.2500      2.0470    -12.2225    -28.4146    -13.8105    -10.1854      0.2153      0.4486      0.4486      1.4954
