~V
VERS. 2.00: Ver 2.00
WRAP.   NO:        
~W
 STRT.FT 365:
 STOP.FT 6820:
 STEP.FT 0.5:
 NULL. -999.250000:
 COMP. Richfield (ARCO):Company
 WELL. San Emidio A 45-19 Redrill:Well
 FLD. Los Lobos:Field
 LOC. S19 T11N R22W:Location
 STAT. CA:State
 SRVC. :Service Company
 SON. :Service Order #
 DATE. :Log Date
 UWI. 0143101:Unique Well ID
~C
 DEPT.FT :
 AM16.OHMM :
 AO10.OHMM :
 AO19.OHMM :
 LTHE. :
 MCRV. :
 MM. :
 PHES. :
 PHMX. :
 PHTS. :
 PHZC. :
 RD.OHMM :
 RM.OHMM :
 ROS. :
 RS.OHMM :
 SBL.MV :
 SCLN. :
 SP.MV :
 SPN. :
 VCDS. :
 VCLY. :
 VCWS. :
 VSHS. :
~P
~A
# ...
   6803.0000     12.5230      9.1560      6.8930      0.9498   -999.2500      3.0775      0.0502      0.1425      0.2612      0.3238      6.8930      9.1560      5.1051     12.5230    -14.8217    -90.0000    -18.8217    -12.3514      0.2110      0.4221      0.4221      0.9498
   6803.5000     12.9570      8.8880      8.3080      0.9508   -999.2500      3.0782      0.0492      0.1424      0.2610      0.3234      8.3080      8.8880      5.1160     12.9570    -14.6165    -90.0000    -18.6165    -12.1804      0.2117      0.4235      0.4235      0.9508
   6804.0000     13.1470      8.6840      9.1440      0.9479   -999.2500      3.0762      0.0521      0.1426      0.2617      0.3245      9.1440      8.6840      5.0862     13.1470    -15.2402    -90.0000    -19.2402    -12.7002      0.2096      0.4192      0.4192      0.9479
   6804.5000     13.3580     10.3650      9.5070      0.9464   -999.2500      3.0752      0.0536      0.1427      0.2620      0.3251      9.5070     10.3650      5.0708     13.3580    -15.5732    -90.0000    -19.5732    -12.9777      0.2084      0.4169      0.4169      0.9464
   6805.0000     13.5920     12.0800     10.0930      0.9445   -999.2500      3.0740      0.0555      0.1429      0.2625      0.3259     10.0930     12.0800      5.0520     13.5920    -15.9800    -90.0000    -19.9800    -13.3167      0.2070      0.4140      0.4140      0.9445
   6805.5000     13.7750     12.4280     10.5420      0.9442   -999.2500      3.0737      0.0558      0.1429      0.2626      0.3260     10.5420     12.4280      5.0488     13.7750    -16.0628    -90.0000    -20.0628    -13.3857      0.2067      0.4135      0.4135      0.9442
   6806.0000     13.9430     12.6110     10.7120      0.9445   -999.2500      3.0740      0.0555      0.1429      0.2625      0.3259     10.7120     12.6110      5.0525     13.9430    -16.0025    -90.0000    -20.0025    -13.3354      0.2069      0.4139      0.4139      0.9445
   6806.5000     13.8260     12.7090     10.8460      0.9451   -999.2500      3.0744      0.0549      0.1428      0.2623      0.3256     10.8460     12.7090      5.0597     13.8260    -15.8675    -90.0000    -19.8675    -13.2229      0.2074      0.4148      0.4148      0.9451
   6807.0000     13.5930     11.9680      9.9340      0.9476   -999.2500      3.0762      0.0524      0.1427      0.2617      0.3246      9.9340     11.9680      5.0862     13.5930    -15.3383    -90.0000    -19.3383    -12.7819      0.2092      0.4185      0.4185      0.9476
   6807.5000     13.4540     10.7390      7.9760      0.9505   -999.2500      3.0782      0.0495      0.1424      0.2609      0.3234      7.9760     10.7390      5.1181     13.4540    -14.7020    -90.0000    -18.7020    -12.2517      0.2115      0.4229      0.4229      0.9505
   6808.0000     13.3940      9.6110      8.2240      0.9536   -999.2500      3.0804      0.0464      0.1422      0.2601      0.3221      8.2240      9.6110      5.1523     13.3940    -14.0315    -90.0000    -18.0315    -11.6929      0.2138      0.4276      0.4276      0.9536
   6808.5000     14.2500      9.3000      8.4230      0.9546   -999.2500      3.0811      0.0454      0.1421      0.2599      0.3217      8.4230      9.3000      5.1635     14.2500    -13.8245    -90.0000    -17.8245    -11.5204      0.2145      0.4290      0.4290      0.9546
   6809.0000     14.6340      9.1250      8.6640      0.9556   -999.2500      3.0818      0.0444      0.1421      0.2596      0.3213      8.6640      9.1250      5.1745     14.6340    -13.6202    -90.0000    -17.6202    -11.3502      0.2152      0.4304      0.4304      0.9556
   6809.5000     15.1600     11.5930      8.7910      0.9562   -999.2500      3.0823      0.0438      0.1420      0.2595      0.3211      8.7910     11.5930      5.1821     15.1600    -13.4861    -90.0000    -17.4861    -11.2384      0.2157      0.4313      0.4313      0.9562
   6810.0000     15.3570     14.7630      8.9390      0.9570   -999.2500      3.0829      0.0430      0.1420      0.2593      0.3207      8.9390     14.7630      5.1915     15.3570    -13.3178    -90.0000    -17.3178    -11.0982      0.2163      0.4325      0.4325      0.9570
   6810.5000     15.4880     14.9080      8.7700      0.9572   -999.2500      3.0830      0.0428      0.1419      0.2592      0.3207      8.7700     14.9080      5.1940     15.4880    -13.2836    -90.0000    -17.2836    -11.0697      0.2164      0.4328      0.4328      0.9572
   6811.0000     15.5390     15.0940      8.4780      0.9572   -999.2500      3.0831      0.0428      0.1419      0.2592      0.3206      8.4780     15.0940      5.1946     15.5390    -13.2881    -90.0000    -17.2881    -11.0734      0.2164      0.4327      0.4327      0.9572
   6811.5000     15.3750     15.1880      8.3090      0.9565   -999.2500      3.0826      0.0435      0.1420      0.2593      0.3209      8.3090     15.1880      5.1878     15.3750    -13.4375    -90.0000    -17.4375    -11.1979      0.2158      0.4317      0.4317      0.9565
   6812.0000     14.7950     15.1890      9.9380      0.9554   -999.2500      3.0819      0.0446      0.1421      0.2596      0.3214      9.9380     15.1890      5.1760     14.7950    -13.6877    -90.0000    -17.6877    -11.4064      0.2150      0.4299      0.4299      0.9554
   6812.5000     14.3950     14.6020     10.6140      0.9562   -999.2500      3.0825      0.0438      0.1420      0.2594      0.3210     10.6140     14.6020      5.1857     14.3950    -13.5113    -90.0000    -17.5113    -11.2594      0.2156      0.4312      0.4312      0.9562
   6813.0000     13.7360     13.4280     11.0170      0.9577   -999.2500      3.0835      0.0423      0.1419      0.2590      0.3204     11.0170     13.4280      5.2028     13.7360    -13.1909    -90.0000    -17.1909    -10.9924      0.2167      0.4334      0.4334      0.9577
   6813.5000     13.0780     12.2400     11.2420      0.9588   -999.2500      3.0844      0.0412      0.1418      0.2587      0.3199     11.2420     12.2400      5.2164     13.0780    -12.9425    -90.0000    -16.9425    -10.7854      0.2176      0.4351      0.4351      0.9588
   6814.0000     12.8420     11.9040     11.3670      0.9595   -999.2500      3.0849      0.0405      0.1418      0.2585      0.3196     11.3670     11.9040      5.2244     12.8420    -12.8021    -90.0000    -16.8021    -10.6684      0.2180      0.4361      0.4361      0.9595
   6814.5000     12.6430     11.9900     11.4480      0.9597   -999.2500      3.0850      0.0403      0.1417      0.2585      0.3196     11.4480     11.9900      5.2270     12.6430    -12.7670    -90.0000    -16.7670    -10.6392      0.2182      0.4363      0.4363      0.9597
   6815.0000     12.6420     12.0420     11.4220      0.9599   -999.2500      3.0852      0.0401      0.1417      0.2584      0.3195     11.4220     12.0420      5.2295     12.6420    -12.7346    -90.0000    -16.7346    -10.6122      0.2183      0.4366      0.4366      0.9599
   6815.5000     12.6370     12.0560     11.5240      0.9599   -999.2500      3.0852      0.0401      0.1417      0.2584      0.3195     11.5240     12.0560      5.2301     12.6370    -12.7391    -90.0000    -16.7391    -10.6159      0.2183      0.4365      0.4365      0.9599
   6816.0000     12.6300     12.0500     11.6130      0.9597   -999.2500      3.0851      0.0403      0.1417      0.2584      0.3195     11.6130     12.0500      5.2291     12.6300    -12.7751    -90.0000    -16.7751    -10.6459      0.2181      0.4363      0.4363      0.9597
   6816.5000     12.6140     12.0430     11.6440      0.9587   -999.2500      3.0844      0.0413      0.1418      0.2587      0.3199     11.6440     12.0430      5.2187     12.6140    -12.9929    -90.0000    -16.9929    -10.8274      0.2174      0.4348      0.4348      0.9587
   6817.0000     12.5970     12.0370     11.6610      0.9577   -999.2500      3.0838      0.0423      0.1419      0.2589      0.3203     11.6610     12.0370      5.2083     12.5970    -13.2125    -90.0000    -17.2125    -11.0104      0.2166      0.4332      0.4332      0.9577
