~V
VERS. 2.00: Ver 2.00
WRAP.   NO:        
~W
 STRT.FT 365:
 STOP.FT 6820:
 STEP.FT 0.5:
 NULL. -999.250000:
 COMP. Richfield (ARCO):Company
 WELL. San Emidio A 45-19 Redrill:Well
 FLD. Los Lobos:Field
 LOC. S19 T11N R22W:Location
 STAT. CA:State
 SRVC. :Service Company
 SON. :Service Order #
 DATE. :Log Date
 UWI. 0143101:Unique Well ID
~C
 DEPT.FT :
 AM16.OHMM :
 AO10.OHMM :
 AO19.OHMM :
 LTHE. :
 MCRV. :
 MM. :
 PHES. :
 PHMX. :
 PHTS. :
 PHZC. :
 RD.OHMM :
 RM.OHMM :
 ROS. :
 RS.OHMM :
 SBL.MV :
 SCLN. :
 SP.MV :
 SPN. :
 VCDS. :
 VCLY. :
 VCWS. :
 VSHS. :
~P
~A
# ...
   5759.0000      2.2580      2.4160      2.3150      1.9759      2.9859      2.9859      0.0000   -999.2500      0.2370      0.2114      2.3150      2.4160   -999.2500      2.2580     -5.2011    -28.2928     -7.1379     -4.3343      0.2845      0.5928      0.5215      1.9759
   5759.5000      2.2580      2.4120      2.3080      1.9735      2.9856      2.9856      0.0000   -999.2500      0.2370      0.2115      2.3080      2.4120   -999.2500      2.2580     -5.2354    -28.2922     -7.1739     -4.3629      0.2842      0.5921      0.5212      1.9735
   5760.0000      2.2570      2.4080      2.3080      1.9712      2.9853      2.9853      0.0000   -999.2500      0.2371      0.2115      2.3080      2.4080   -999.2500      2.2570     -5.2697    -28.2916     -7.2099     -4.3914      0.2838      0.5913      0.5209      1.9712
   5760.5000      2.2560      2.4290      2.3420      1.9681      2.9849      2.9849      0.0000   -999.2500      0.2371      0.2116      2.3420      2.4290   -999.2500      2.2560     -5.3139    -28.2910     -7.2558     -4.4283      0.2834      0.5904      0.5205      1.9681
   5761.0000      2.2480      2.4560      2.3260      1.9627      2.9841      2.9841      0.0000   -999.2500      0.2372      0.2118      2.3260      2.4560   -999.2500      2.2480     -5.3923    -28.2905     -7.3359     -4.4936      0.2826      0.5888      0.5198      1.9627
   5761.5000      2.2470      2.4550      2.3170      1.9672      2.9848      2.9848      0.0000   -999.2500      0.2371      0.2116      2.3170      2.4550   -999.2500      2.2470     -5.3276    -28.2899     -7.2729     -4.4397      0.2833      0.5901      0.5204      1.9672
   5762.0000      2.2320      2.4540      2.3150      1.9666      2.9847      2.9847      0.0000   -999.2500      0.2371      0.2116      2.3150      2.4540   -999.2500      2.2320     -5.3349    -28.2893     -7.2819     -4.4457      0.2832      0.5900      0.5203      1.9666
   5762.5000      2.2310      2.4710      2.3270      1.9685      2.9850      2.9850      0.0000   -999.2500      0.2371      0.2116      2.3270      2.4710   -999.2500      2.2310     -5.3071    -28.2887     -7.2558     -4.4226      0.2835      0.5906      0.5205      1.9685
   5763.0000      2.2220      2.4880      2.3830      1.9681      2.9850      2.9850      0.0000   -999.2500      0.2371      0.2116      2.3830      2.4880   -999.2500      2.2220     -5.3135    -28.2881     -7.2639     -4.4279      0.2834      0.5904      0.5205      1.9681
   5763.5000      2.2140      2.4720      2.4240      1.9701      2.9853      2.9853      0.0000   -999.2500      0.2370      0.2115      2.4240      2.4720   -999.2500      2.2140     -5.2848    -28.2875     -7.2369     -4.4040      0.2837      0.5910      0.5207      1.9701
   5764.0000      2.2130      2.4640      2.4370      1.9721      2.9856      2.9856      0.0000   -999.2500      0.2370      0.2114      2.4370      2.4640   -999.2500      2.2130     -5.2552    -28.2869     -7.2090     -4.3793      0.2840      0.5916      0.5210      1.9721
   5764.5000      2.2120      2.4630      2.3850      1.9616      2.9842      2.9842      0.0000   -999.2500      0.2372      0.2117      2.3850      2.4630   -999.2500      2.2120     -5.4073    -28.2863     -7.3629     -4.5061      0.2825      0.5885      0.5196      1.9616
   5765.0000      2.1970      2.4510      2.3260      1.9685      2.9852      2.9852      0.0000   -999.2500      0.2370      0.2115      2.3260      2.4510   -999.2500      2.1970     -5.3066    -28.2857     -7.2639     -4.4222      0.2835      0.5906      0.5205      1.9685
   5765.5000      2.1880      2.4390      2.2740      1.9730      2.9858      2.9858      0.0000   -999.2500      0.2369      0.2114      2.2740      2.4390   -999.2500      2.1880     -5.2419    -28.2851     -7.2009     -4.3683      0.2841      0.5919      0.5211      1.9730
   5766.0000      2.1870      2.4280      2.2430      1.9725      2.9858      2.9858      0.0000   -999.2500      0.2369      0.2114      2.2430      2.4280   -999.2500      2.1870     -5.2492    -28.2845     -7.2099     -4.3743      0.2840      0.5917      0.5210      1.9725
   5766.5000      2.1860      2.4160      2.2560      1.9719      2.9857      2.9857      0.0000   -999.2500      0.2369      0.2114      2.2560      2.4160   -999.2500      2.1860     -5.2574    -28.2839     -7.2198     -4.3812      0.2840      0.5916      0.5209      1.9719
   5767.0000      2.1850      2.4110      2.2830      1.9690      2.9853      2.9853      0.0000   -999.2500      0.2370      0.2115      2.2830      2.4110   -999.2500      2.1850     -5.2998    -28.2833     -7.2639     -4.4165      0.2835      0.5907      0.5205      1.9690
   5767.5000      2.2410      2.4060      2.3380      1.9684      2.9853      2.9853      0.0000   -999.2500      0.2370      0.2115      2.3380      2.4060   -999.2500      2.2410     -5.3080    -28.2827     -7.2738     -4.4233      0.2835      0.5905      0.5204      1.9684
   5768.0000      2.2620      2.4270      2.3720      1.9680      2.9852      2.9852      0.0000   -999.2500      0.2370      0.2115      2.3720      2.4270   -999.2500      2.2620     -5.3144    -28.2821     -7.2819     -4.4286      0.2834      0.5904      0.5204      1.9680
   5768.5000      2.2970      2.4470      2.3920      1.9576      2.9838      2.9838      0.0000   -999.2500      0.2372      0.2118      2.3920      2.4470   -999.2500      2.2970     -5.4657    -28.2815     -7.4349     -4.5547      0.2819      0.5873      0.5190      1.9576
   5769.0000      2.3170      2.4570      2.4330      1.9497      2.9828      2.9828      0.0000   -999.2500      0.2373      0.2120      2.4330      2.4570   -999.2500      2.3170     -5.5801    -28.2809     -7.5510     -4.6500      0.2808      0.5849      0.5180      1.9497
   5769.5000      2.3450      2.4670      2.4530      1.9245      2.9793      2.9793      0.0000   -999.2500      0.2377      0.2128      2.4530      2.4670   -999.2500      2.3450     -5.9464    -28.2803     -7.9191     -4.9554      0.2771      0.5773      0.5148      1.9245
   5770.0000      2.3580      2.4870      2.4730      1.8845      2.9738      2.9738      0.0000   -999.2500      0.2384      0.2140      2.4730      2.4870   -999.2500      2.3580     -6.5279    -28.2797     -8.5023     -5.4400      0.2714      0.5653      0.5097      1.8845
   5770.5000      2.3590      2.5090      2.5100      1.8376      2.9673      2.9673      0.0000   -999.2500      0.2392      0.2154      2.5100      2.5090   -999.2500      2.3590     -7.2093    -28.2791     -9.1854     -6.0078      0.2646      0.5513      0.5038      1.8376
   5771.0000      2.3670      2.5210      2.5470      1.7957      2.9616      2.9616      0.0000   -999.2500      0.2399      0.2166      2.5470      2.5210   -999.2500      2.3670     -7.8187    -28.2785     -9.7965     -6.5156      0.2586      0.5387      0.4985      1.7957
   5771.5000      2.3610      2.5330      2.5260      1.7612      2.9568      2.9568      0.0000   -999.2500      0.2405      0.2176      2.5260      2.5330   -999.2500      2.3610     -8.3210    -28.2779    -10.3005     -6.9342      0.2536      0.5283      0.4941      1.7612
   5772.0000      2.3340      2.5450      2.4910      1.7291      2.9524      2.9524      0.0000   -999.2500      0.2410      0.2186      2.4910      2.5450   -999.2500      2.3340     -8.7873    -28.2773    -10.7685     -7.3228      0.2490      0.5187      0.4900      1.7291
   5772.5000      2.3130      2.5570      2.4780      1.7192      2.9510      2.9510      0.0000   -999.2500      0.2412      0.2189      2.4780      2.5570   -999.2500      2.3130     -8.9314    -28.2767    -10.9143     -7.4428      0.2476      0.5158      0.4887      1.7192
   5773.0000      2.3000      2.5580      2.5290      1.7216      2.9514      2.9514      0.0000   -999.2500      0.2411      0.2188      2.5290      2.5580   -999.2500      2.3000     -8.8955    -28.2761    -10.8801     -7.4129      0.2479      0.5165      0.4890      1.7216
