~V
VERS. 2.00: Ver 2.00
WRAP.   NO:        
~W
 STRT.FT 365:
 STOP.FT 6820:
 STEP.FT 0.5:
 NULL. -999.250000:
 COMP. Richfield (ARCO):Company
 WELL. San Emidio A 45-19 Redrill:Well
 FLD. Los Lobos:Field
 LOC. S19 T11N R22W:Location
 STAT. CA:State
 SRVC. :Service Company
 SON. :Service Order #
 DATE. :Log Date
 UWI. 0143101:Unique Well ID
~C
 DEPT.FT :
 AM16.OHMM :
 AO10.OHMM :
 AO19.OHMM :
 LTHE. :
 MCRV. :
 MM. :
 PHES. :
 PHMX. :
 PHTS. :
 PHZC. :
 RD.OHMM :
 RM.OHMM :
 ROS. :
 RS.OHMM :
 SBL.MV :
 SCLN. :
 SP.MV :
 SPN. :
 VCDS. :
 VCLY. :
 VCWS. :
 VSHS. :
~P
~A
# ...
   6571.0000      4.5170      2.9980      2.7020      1.6414      2.9829      2.9829      0.0000   -999.2500      0.2292      0.2079      2.7020      2.9980   -999.2500      4.5170    -24.5399    -68.9617    -28.5399    -20.4499      0.2364      0.4924      0.4655      1.6414
   6571.5000      4.6010      3.0890      2.5900      1.5444      2.9694      2.9694      0.0000   -999.2500      0.2308      0.2108      2.5900      3.0890   -999.2500      4.6010    -28.0391    -69.1027    -32.0391    -23.3659      0.2224      0.4633      0.4532      1.5444
   6572.0000      4.8280      3.2010      2.5510      1.4959      2.9628      2.9628      0.0000   -999.2500      0.2316      0.2123      2.5510      3.2010   -999.2500      4.8280    -29.7725    -69.2437    -33.7725    -24.8104      0.2154      0.4488      0.4470      1.4959
   6572.5000      5.0470      3.3130      2.6480      1.3060      2.9365      2.9365      0.0000   -999.2500      0.2037      0.2179      2.6480      3.3130   -999.2500      5.0470    -34.3508    -69.3847    -38.3508    -28.6257      0.1881      0.3918      0.3918      1.3060
   6573.0000      5.2600      3.4610      2.7230      0.9186      2.7723      2.7723      0.0814   -999.2500      0.2398      0.2266      2.7230      3.4610   -999.2500      5.2600    -41.3402    -69.5258    -45.3402    -34.4502      0.1463      0.3047      0.3047      0.9186
   6573.5000      5.3930      3.5870      2.6840      0.8562      2.6192      2.6192      0.1089   -999.2500      0.2425      0.2314      2.6840      3.5870   -999.2500      5.3930    -45.2345    -69.6668    -49.2345    -37.6954      0.1233      0.2569      0.2569      0.8562
   6574.0000      5.5270      3.6320      2.6230      0.6778      2.4479      2.4479      0.1398   -999.2500      0.2456      0.2368      2.6230      3.6320   -999.2500      5.5270    -49.5968    -69.8078    -53.5968    -41.3307      0.0976      0.2033      0.2033      0.6778
   6574.5000      5.6110      3.6760      2.7130      0.5705      2.3450      2.3450      0.1584   -999.2500      0.2474      0.2400      2.7130      3.6760   -999.2500      5.6110    -52.2689    -69.9489    -56.2689    -43.5574      0.0822      0.1712      0.1712      0.5705
   6575.0000      5.6230      3.7380      2.8380      0.5522      2.3275      2.3275      0.1615   -999.2500      0.2477      0.2405      2.8380      3.7380   -999.2500      5.6230    -52.8143    -70.0899    -56.8143    -44.0119      0.0795      0.1657      0.1657      0.5522
   6575.5000      5.5050      3.7530      2.8920      0.6550      2.4261      2.4261      0.1437   -999.2500      0.2459      0.2374      2.8920      3.7530   -999.2500      5.5050    -50.4464    -70.2309    -54.4464    -42.0387      0.0943      0.1965      0.1965      0.6550
   6576.0000      4.8930      3.7680      2.8880      0.9346      2.8610      2.8610      0.0654   -999.2500      0.2382      0.2238      2.8880      3.7680   -999.2500      4.8930    -39.6203    -70.3719    -43.6203    -33.0169      0.1595      0.3324      0.3324      0.9346
   6576.5000      4.6760      3.7660      2.8700      1.2434      2.9280      2.9280      0.0000   -999.2500      0.1940      0.2198      2.8700      3.7660   -999.2500      4.6760    -36.4244    -70.5130    -40.4244    -30.3537      0.1790      0.3730      0.3730      1.2434
   6577.0000      4.5020      3.7640      2.8740      1.3917      2.9486      2.9486      0.0000   -999.2500      0.2171      0.2153      2.8740      3.7640   -999.2500      4.5020    -32.9036    -70.6540    -36.9036    -27.4197      0.2004      0.4175      0.4175      1.3917
   6577.5000      4.4060      3.6820      2.8990      1.4994      2.9635      2.9635      0.0000   -999.2500      0.2315      0.2121      2.8990      3.6820   -999.2500      4.4060    -30.3557    -70.7950    -34.3557    -25.2964      0.2159      0.4498      0.4474      1.4994
   6578.0000      4.3170      3.6550      2.9250      1.5494      2.9705      2.9705      0.0000   -999.2500      0.2306      0.2106      2.9250      3.6550   -999.2500      4.3170    -28.5998    -70.9361    -32.5998    -23.8332      0.2231      0.4648      0.4537      1.5494
   6578.5000      4.3010      3.6280      2.9780      1.5744      2.9740      2.9740      0.0000   -999.2500      0.2302      0.2098      2.9780      3.6280   -999.2500      4.3010    -27.7430    -71.0771    -31.7430    -23.1192      0.2267      0.4723      0.4569      1.5744
   6579.0000      4.4630      3.5670      3.0170      1.5904      2.9762      2.9762      0.0000   -999.2500      0.2299      0.2093      3.0170      3.5670   -999.2500      4.4630    -27.2093    -71.2181    -31.2093    -22.6744      0.2290      0.4771      0.4589      1.5904
   6579.5000      4.9410      3.5900      3.0640      1.6044      2.9782      2.9782      0.0000   -999.2500      0.2297      0.2089      3.0640      3.5900   -999.2500      4.9410    -26.7494    -71.3591    -30.7494    -22.2912      0.2310      0.4813      0.4607      1.6044
   6580.0000      5.3320      3.6130      3.1750      1.6116      2.9792      2.9792      0.0000   -999.2500      0.2295      0.2087      3.1750      3.6130   -999.2500      5.3320    -26.5406    -71.5002    -30.5406    -22.1172      0.2321      0.4835      0.4616      1.6116
   6580.5000      5.5750      3.7400      3.3120      1.6139      2.9795      2.9795      0.0000   -999.2500      0.2295      0.2086      3.3120      3.7400   -999.2500      5.5750    -26.5082    -71.6412    -30.5082    -22.0902      0.2324      0.4842      0.4619      1.6139
   6581.0000      5.7830      3.7910      3.3630      1.1712      2.9183      2.9183      0.0000   -999.2500      0.1827      0.2218      3.3630      3.7910   -999.2500      5.7830    -38.8571    -71.7822    -42.8571    -32.3809      0.1686      0.3513      0.3513      1.1712
   6581.5000      5.9330      3.8760      3.4930      0.8953      2.6572      2.6572      0.1020   -999.2500      0.2417      0.2301      3.4930      3.8760   -999.2500      5.9330    -45.7349    -71.9233    -49.7349    -38.1124      0.1289      0.2686      0.2686      0.8953
   6582.0000      6.0470      3.9400      3.7020      0.7881      2.5543      2.5543      0.1206   -999.2500      0.2435      0.2333      3.7020      3.9400   -999.2500      6.0470    -48.4745    -72.0643    -52.4745    -40.3954      0.1135      0.2364      0.2364      0.7881
   6582.5000      6.1330      4.0040      3.7970      0.6740      2.4448      2.4448      0.1403   -999.2500      0.2455      0.2367      3.7970      4.0040   -999.2500      6.1330    -51.3932    -72.2053    -55.3932    -42.8277      0.0971      0.2022      0.2022      0.6740
   6583.0000      6.0180      4.0610      3.9340      0.6663      2.4374      2.4374      0.1417   -999.2500      0.2456      0.2370      3.9340      4.0610   -999.2500      6.0180    -51.6848    -72.3464    -55.6848    -43.0707      0.0959      0.1999      0.1999      0.6663
   6583.5000      5.6380      4.1110      3.8420      0.8483      2.6122      2.6122      0.1101   -999.2500      0.2425      0.2315      3.8420      4.1110   -999.2500      5.6380    -47.2622    -72.4874    -51.2622    -39.3852      0.1222      0.2545      0.2545      0.8483
   6584.0000      5.4370      4.1470      3.7140      0.9282      2.8251      2.8251      0.0718   -999.2500      0.2387      0.2248      3.7140      4.1470   -999.2500      5.4370    -41.8307    -72.6284    -45.8307    -34.8589      0.1541      0.3210      0.3210      0.9282
   6584.5000      5.0500      4.1610      3.6360      1.2320      2.9269      2.9269      0.0000   -999.2500      0.1922      0.2200      3.6360      4.1610   -999.2500      5.0500    -37.8743    -72.7694    -41.8743    -31.5619      0.1774      0.3696      0.3696      1.2320
   6585.0000      4.7410      4.0820      3.5580      1.3485      2.9430      2.9430      0.0000   -999.2500      0.2104      0.2165      3.5580      4.0820   -999.2500      4.7410    -35.0339    -72.9105    -39.0339    -29.1949      0.1942      0.4046      0.4046      1.3485
