~V
VERS. 2.00: Ver 2.00
WRAP.   NO:        
~W
 STRT.FT 365:
 STOP.FT 6820:
 STEP.FT 0.5:
 NULL. -999.250000:
 COMP. Richfield (ARCO):Company
 WELL. San Emidio A 45-19 Redrill:Well
 FLD. Los Lobos:Field
 LOC. S19 T11N R22W:Location
 STAT. CA:State
 SRVC. :Service Company
 SON. :Service Order #
 DATE. :Log Date
 UWI. 0143101:Unique Well ID
~C
 DEPT.FT :
 AM16.OHMM :
 AO10.OHMM :
 AO19.OHMM :
 LTHE. :
 MCRV. :
 MM. :
 PHES. :
 PHMX. :
 PHTS. :
 PHZC. :
 RD.OHMM :
 RM.OHMM :
 ROS. :
 RS.OHMM :
 SBL.MV :
 SCLN. :
 SP.MV :
 SPN. :
 VCDS. :
 VCLY. :
 VCWS. :
 VSHS. :
~P
~A
# ...
   6223.0000      2.3280      2.3210      2.3610      1.9469      3.0066      3.0066      0.0000   -999.2500      0.2298      0.2045      2.3610      2.3210   -999.2500      2.3280     -5.5131    -27.7388     -8.9118     -4.5942      0.2804      0.5841      0.5101      1.9469
   6223.5000      2.3260      2.3260      2.3670      1.9474      3.0067      3.0067      0.0000   -999.2500      0.2297      0.2045      2.3670      2.3260   -999.2500      2.3260     -5.5061    -27.7382     -8.9064     -4.5884      0.2804      0.5842      0.5102      1.9474
   6224.0000      2.3380      2.3520      2.3580      1.9352      3.0050      3.0050      0.0000   -999.2500      0.2299      0.2049      2.3580      2.3520   -999.2500      2.3380     -5.6791    -27.7376     -9.0810     -4.7326      0.2787      0.5806      0.5086      1.9352
   6224.5000      2.3420      2.3570      2.3560      1.9205      3.0030      3.0030      0.0000   -999.2500      0.2302      0.2053      2.3560      2.3570   -999.2500      2.3420     -5.8890    -27.7370     -9.2925     -4.9075      0.2766      0.5761      0.5067      1.9205
   6225.0000      2.3540      2.3620      2.3390      1.9134      3.0021      3.0021      0.0000   -999.2500      0.2303      0.2055      2.3390      2.3620   -999.2500      2.3540     -5.9901    -27.7364     -9.3951     -4.9917      0.2755      0.5740      0.5058      1.9134
   6225.5000      2.3590      2.3700      2.3380      1.9088      3.0015      3.0015      0.0000   -999.2500      0.2304      0.2056      2.3380      2.3700   -999.2500      2.3590     -6.0551    -27.7358     -9.4617     -5.0459      0.2749      0.5727      0.5052      1.9088
   6226.0000      2.3560      2.3780      2.3360      1.9068      3.0012      3.0012      0.0000   -999.2500      0.2304      0.2057      2.3360      2.3780   -999.2500      2.3560     -6.0841    -27.7352     -9.4923     -5.0701      0.2746      0.5720      0.5050      1.9068
   6226.5000      2.3690      2.3860      2.3350      1.9071      3.0013      3.0013      0.0000   -999.2500      0.2304      0.2057      2.3350      2.3860   -999.2500      2.3690     -6.0790    -27.7346     -9.4887     -5.0658      0.2746      0.5721      0.5050      1.9071
   6227.0000      2.3810      2.3950      2.3330      1.9077      3.0014      3.0014      0.0000   -999.2500      0.2304      0.2057      2.3330      2.3950   -999.2500      2.3810     -6.0702    -27.7341     -9.4815     -5.0585      0.2747      0.5723      0.5051      1.9077
   6227.5000      2.3920      2.3990      2.3310      1.9108      3.0018      3.0018      0.0000   -999.2500      0.2303      0.2056      2.3310      2.3990   -999.2500      2.3920     -6.0263    -27.7335     -9.4392     -5.0219      0.2752      0.5732      0.5055      1.9108
   6228.0000      2.4000      2.3970      2.3290      1.9415      3.0061      3.0061      0.0000   -999.2500      0.2298      0.2046      2.3290      2.3970   -999.2500      2.4000     -5.5892    -27.7329     -9.0036     -4.6576      0.2796      0.5824      0.5093      1.9415
   6228.5000      2.4090      2.4080      2.3270      1.9773      3.0111      3.0111      0.0000   -999.2500      0.2292      0.2035      2.3270      2.4080   -999.2500      2.4090     -5.0773    -27.7323     -8.4933     -4.2311      0.2847      0.5932      0.5139      1.9773
   6229.0000      2.4130      2.4060      2.3260      2.0132      3.0161      3.0161      0.0000   -999.2500      0.2285      0.2025      2.3260      2.4060   -999.2500      2.4130     -4.5663    -27.7317     -7.9839     -3.8053      0.2899      0.6039      0.5184      2.0132
   6229.5000      2.4180      2.4030      2.3240      2.0439      3.0204      3.0204      0.0000   -999.2500      0.2280      0.2015      2.3240      2.4030   -999.2500      2.4180     -4.1273    -27.7311     -7.5465     -3.4395      0.2943      0.6132      0.5223      2.0439
   6230.0000      2.4150      2.4010      2.3220      2.0646      3.0233      3.0233      0.0000   -999.2500      0.2276      0.2009      2.3220      2.4010   -999.2500      2.4150     -3.8324    -27.7305     -7.2531     -3.1936      0.2973      0.6194      0.5249      2.0646
   6230.5000      2.4210      2.4000      2.3370      2.0821      3.0257      3.0257      0.0000   -999.2500      0.2273      0.2004      2.3370      2.4000   -999.2500      2.4210     -3.5824    -27.7299     -7.0047     -2.9853      0.2998      0.6246      0.5272      2.0821
   6231.0000      2.4340      2.3980      2.3580      2.0997      3.0282      3.0282      0.0000   -999.2500      0.2270      0.1998      2.3580      2.3980   -999.2500      2.4340     -3.3324    -27.7293     -6.7563     -2.7770      0.3024      0.6299      0.5294      2.0997
   6231.5000      2.4330      2.4050      2.3630      2.0995      3.0282      3.0282      0.0000   -999.2500      0.2270      0.1998      2.3630      2.4050   -999.2500      2.4330     -3.3345    -27.7287     -6.7599     -2.7787      0.3023      0.6299      0.5294      2.0995
   6232.0000      2.4400      2.4030      2.3670      2.0766      3.0250      3.0250      0.0000   -999.2500      0.2274      0.2005      2.3670      2.4030   -999.2500      2.4400     -3.6614    -27.7281     -7.0884     -3.0512      0.2990      0.6230      0.5264      2.0766
   6232.5000      2.4390      2.4020      2.3820      2.0614      3.0230      3.0230      0.0000   -999.2500      0.2277      0.2009      2.3820      2.4020   -999.2500      2.4390     -3.8776    -27.7275     -7.3062     -3.2314      0.2968      0.6184      0.5245      2.0614
   6233.0000      2.4380      2.4020      2.3970      2.0308      3.0187      3.0187      0.0000   -999.2500      0.2282      0.2019      2.3970      2.4020   -999.2500      2.4380     -4.3135    -27.7269     -7.7436     -3.5946      0.2924      0.6093      0.5206      2.0308
   6233.5000      2.4360      2.4010      2.4030      2.0106      3.0160      3.0160      0.0000   -999.2500      0.2285      0.2025      2.4030      2.4010   -999.2500      2.4360     -4.6026    -27.7263     -8.0343     -3.8355      0.2895      0.6032      0.5180      2.0106
   6234.0000      2.4350      2.3990      2.3890      1.9776      3.0114      3.0114      0.0000   -999.2500      0.2291      0.2034      2.3890      2.3990   -999.2500      2.4350     -5.0726    -27.7257     -8.5059     -4.2272      0.2848      0.5933      0.5138      1.9776
   6234.5000      2.4340      2.3980      2.3320      1.9572      3.0086      3.0086      0.0000   -999.2500      0.2294      0.2040      2.3320      2.3980   -999.2500      2.4340     -5.3626    -27.7251     -8.7975     -4.4689      0.2818      0.5872      0.5112      1.9572
   6235.0000      2.4330      2.3970      2.2680      1.9495      3.0076      3.0076      0.0000   -999.2500      0.2295      0.2043      2.2680      2.3970   -999.2500      2.4330     -5.4727    -27.7245     -8.9091     -4.5606      0.2807      0.5849      0.5102      1.9495
   6235.5000      2.4320      2.3960      2.2400      1.9507      3.0078      3.0078      0.0000   -999.2500      0.2295      0.2042      2.2400      2.3960   -999.2500      2.4320     -5.4558    -27.7239     -8.8938     -4.5465      0.2809      0.5852      0.5104      1.9507
   6236.0000      2.4240      2.3950      2.2830      1.9519      3.0080      3.0080      0.0000   -999.2500      0.2295      0.2042      2.2830      2.3950   -999.2500      2.4240     -5.4389    -27.7233     -8.8785     -4.5324      0.2811      0.5856      0.5105      1.9519
   6236.5000      2.4150      2.3940      2.3270      1.9566      3.0087      3.0087      0.0000   -999.2500      0.2294      0.2040      2.3270      2.3940   -999.2500      2.4150     -5.3717    -27.7227     -8.8128     -4.4764      0.2817      0.5870      0.5111      1.9566
   6237.0000      2.4000      2.3640      2.3600      1.9615      3.0094      3.0094      0.0000   -999.2500      0.2293      0.2039      2.3600      2.3640   -999.2500      2.4000     -5.3008    -27.7221     -8.7435     -4.4173      0.2825      0.5885      0.5117      1.9615
