~V
VERS. 2.00: Ver 2.00
WRAP.   NO:        
~W
 STRT.FT 365:
 STOP.FT 6820:
 STEP.FT 0.5:
 NULL. -999.250000:
 COMP. Richfield (ARCO):Company
 WELL. San Emidio A 45-19 Redrill:Well
 FLD. Los Lobos:Field
 LOC. S19 T11N R22W:Location
 STAT. CA:State
 SRVC. :Service Company
 SON. :Service Order #
 DATE. :Log Date
 UWI. 0143101:Unique Well ID
~C
 DEPT.FT :
 AM16.OHMM :
 AO10.OHMM :
 AO19.OHMM :
 LTHE. :
 MCRV. :
 MM. :
 PHES. :
 PHMX. :
 PHTS. :
 PHZC. :
 RD.OHMM :
 RM.OHMM :
 ROS. :
 RS.OHMM :
 SBL.MV :
 SCLN. :
 SP.MV :
 SPN. :
 VCDS. :
 VCLY. :
 VCWS. :
 VSHS. :
~P
~A
# ...
   5063.0000      3.5810      2.4330      2.1740   -999.2500   -999.2500   -999.2500   -999.2500   -999.2500   -999.2500   -999.2500      2.1740      2.4330   -999.2500      3.5810    -37.5200   -999.2500    -40.0104    -31.2667   -999.2500   -999.2500   -999.2500   -999.2500
   5063.5000      3.8090      2.4740      2.2150   -999.2500   -999.2500   -999.2500   -999.2500   -999.2500   -999.2500   -999.2500      2.2150      2.4740   -999.2500      3.8090    -44.3777   -999.2500    -46.8585    -36.9814   -999.2500   -999.2500   -999.2500   -999.2500
   5064.0000      4.0370      2.4940      2.2350   -999.2500   -999.2500   -999.2500   -999.2500   -999.2500   -999.2500   -999.2500      2.2350      2.4940   -999.2500      4.0370    -47.3979   -999.2500    -49.8690    -39.4982   -999.2500   -999.2500   -999.2500   -999.2500
   5064.5000      4.2290      2.5210      2.2270   -999.2500   -999.2500   -999.2500   -999.2500   -999.2500   -999.2500   -999.2500      2.2270      2.5210   -999.2500      4.2290    -49.3038   -999.2500    -51.7653    -41.0865   -999.2500   -999.2500   -999.2500   -999.2500
   5065.0000      4.3430      2.5270      2.1820   -999.2500   -999.2500   -999.2500   -999.2500   -999.2500   -999.2500   -999.2500      2.1820      2.5270   -999.2500      4.3430    -53.0772   -999.2500    -55.5291    -44.2310   -999.2500   -999.2500   -999.2500   -999.2500
   5065.5000      4.4560      2.4820      2.1660   -999.2500   -999.2500   -999.2500   -999.2500   -999.2500   -999.2500   -999.2500      2.1660      2.4820   -999.2500      4.4560    -61.1886   -999.2500    -63.6309    -50.9905   -999.2500   -999.2500   -999.2500   -999.2500
   5066.0000      4.5050      2.4520      2.1720   -999.2500   -999.2500   -999.2500   -999.2500   -999.2500   -999.2500   -999.2500      2.1720      2.4520   -999.2500      4.5050    -65.5380   -999.2500    -67.9707    -54.6150   -999.2500   -999.2500   -999.2500   -999.2500
   5066.5000      4.5540      2.3640      2.1790   -999.2500   -999.2500   -999.2500   -999.2500   -999.2500   -999.2500   -999.2500      2.1790      2.3640   -999.2500      4.5540    -66.7608   -999.2500    -69.1839    -55.6340   -999.2500   -999.2500   -999.2500   -999.2500
   5067.0000      4.5740      2.3060      2.1760   -999.2500   -999.2500   -999.2500   -999.2500   -999.2500   -999.2500   -999.2500      2.1760      2.3060   -999.2500      4.5740    -68.0232   -999.2500    -70.4367    -56.6860   -999.2500   -999.2500   -999.2500   -999.2500
   5067.5000      4.3360      2.2400      2.1530   -999.2500   -999.2500   -999.2500   -999.2500   -999.2500   -999.2500   -999.2500      2.1530      2.2400   -999.2500      4.3360    -68.9626   -999.2500    -71.3664    -57.4688   -999.2500   -999.2500   -999.2500   -999.2500
   5068.0000      4.1190      2.1810      2.1310   -999.2500   -999.2500   -999.2500   -999.2500   -999.2500   -999.2500   -999.2500      2.1310      2.1810   -999.2500      4.1190    -69.0748   -999.2500    -71.4690    -57.5623   -999.2500   -999.2500   -999.2500   -999.2500
   5068.5000      4.0240      2.1290      2.1150   -999.2500   -999.2500   -999.2500   -999.2500   -999.2500   -999.2500   -999.2500      2.1150      2.1290   -999.2500      4.0240    -67.3240   -999.2500    -69.7086    -56.1033   -999.2500   -999.2500   -999.2500   -999.2500
   5069.0000      3.9800      2.1060      2.1420   -999.2500   -999.2500   -999.2500   -999.2500   -999.2500   -999.2500   -999.2500      2.1420      2.1060   -999.2500      3.9800    -65.8594   -999.2500    -68.2344    -54.8828   -999.2500   -999.2500   -999.2500   -999.2500
   5069.5000      3.9920      2.1120      2.1980   -999.2500   -999.2500   -999.2500   -999.2500   -999.2500   -999.2500   -999.2500      2.1980      2.1120   -999.2500      3.9920    -64.3237   -999.2500    -66.6891    -53.6031   -999.2500   -999.2500   -999.2500   -999.2500
   5070.0000      3.9980      2.1460      2.2750   -999.2500   -999.2500   -999.2500   -999.2500   -999.2500   -999.2500   -999.2500      2.2750      2.1460   -999.2500      3.9980    -62.7511   -999.2500    -65.1069    -52.2926   -999.2500   -999.2500   -999.2500   -999.2500
   5070.5000      4.0130      2.1820      2.3040   -999.2500   -999.2500   -999.2500   -999.2500   -999.2500   -999.2500   -999.2500      2.3040      2.1820   -999.2500      4.0130    -60.7943   -999.2500    -63.1404    -50.6619   -999.2500   -999.2500   -999.2500   -999.2500
   5071.0000      4.0130      2.2120      2.3540   -999.2500   -999.2500   -999.2500   -999.2500   -999.2500   -999.2500   -999.2500      2.3540      2.2120   -999.2500      4.0130    -57.5468   -999.2500    -59.8833    -47.9556   -999.2500   -999.2500   -999.2500   -999.2500
   5071.5000      3.8770      2.2480      2.4330   -999.2500   -999.2500   -999.2500   -999.2500   -999.2500   -999.2500   -999.2500      2.4330      2.2480   -999.2500      3.8770    -54.1220   -999.2500    -56.4489    -45.1016   -999.2500   -999.2500   -999.2500   -999.2500
   5072.0000      3.5330      2.2700      2.4690      0.2905      2.0243      2.0243      0.2319   -999.2500      0.2772      0.2734      2.4690      2.2700   -999.2500      3.5330    -52.3073    -55.0000    -54.6246    -43.5894      0.0418      0.0871      0.0871      0.2905
   5072.5000      3.0530      2.2920      2.3330      0.3570      2.0600      2.0600      0.2203   -999.2500      0.2760      0.2714      2.3330      2.2920   -999.2500      3.0530    -49.1678    -55.0000    -51.4755    -40.9732      0.0514      0.1071      0.1071      0.3570
   5073.0000      2.6940      2.2350      2.1100      1.4448      2.8757      2.8757      0.0000   -999.2500      0.2254      0.2388      2.1100      2.2350   -999.2500      2.6940    -24.6128    -55.0000    -26.9109    -20.5107      0.2080      0.4334      0.4334      1.4448
   5073.5000      2.2280      2.1130      1.9810      1.6122      2.8989      2.8989      0.0000   -999.2500      0.2515      0.2337      1.9810      2.1130   -999.2500      2.2280    -20.3969    -55.0000    -22.6854    -16.9974      0.2322      0.4837      0.4837      1.6122
   5074.0000      1.9480      1.9910      1.8450      1.7676      2.9205      2.9205      0.0000   -999.2500      0.2520      0.2291      1.8450      1.9910   -999.2500      1.9480    -16.0020    -55.0000    -18.2808    -13.3350      0.2545      0.5303      0.5065      1.7676
   5074.5000      1.8340      1.8260      1.7090      1.8367      2.9301      2.9301      0.0000   -999.2500      0.2508      0.2270      1.7090      1.8260   -999.2500      1.8340    -14.0469    -55.0000    -16.3161    -11.7057      0.2645      0.5510      0.5153      1.8367
   5075.0000      1.8200      1.6910      1.5650      1.8729      2.9351      2.9351      0.0000   -999.2500      0.2502      0.2259      1.5650      1.6910   -999.2500      1.8200    -13.0224    -55.0000    -15.2820    -10.8520      0.2697      0.5619      0.5199      1.8729
   5075.5000      1.8130      1.5830      1.5220      1.9168      2.9412      2.9412      0.0000   -999.2500      0.2494      0.2246      1.5220      1.5830   -999.2500      1.8130    -11.7828    -55.0000    -14.0328     -9.8190      0.2760      0.5750      0.5254      1.9168
   5076.0000      1.7990      1.5410      1.6360      1.9517      2.9461      2.9461      0.0000   -999.2500      0.2488      0.2235      1.6360      1.5410   -999.2500      1.7990    -10.7961    -55.0000    -13.0365     -8.9968      0.2810      0.5855      0.5298      1.9517
   5076.5000      1.7780      1.6550      1.7370      1.9714      2.9488      2.9488      0.0000   -999.2500      0.2485      0.2229      1.7370      1.6550   -999.2500      1.7780    -10.2387    -55.0000    -12.4695     -8.5323      0.2839      0.5914      0.5323      1.9714
   5077.0000      1.7560      1.7350      1.7880      1.9910      2.9516      2.9516      0.0000   -999.2500      0.2481      0.2223      1.7880      1.7350   -999.2500      1.7560     -9.6822    -55.0000    -11.9034     -8.0685      0.2867      0.5973      0.5348      1.9910
