~V
VERS. 2.00: Ver 2.00
WRAP.   NO:        
~W
 STRT.FT 365:
 STOP.FT 6820:
 STEP.FT 0.5:
 NULL. -999.250000:
 COMP. Richfield (ARCO):Company
 WELL. San Emidio A 45-19 Redrill:Well
 FLD. Los Lobos:Field
 LOC. S19 T11N R22W:Location
 STAT. CA:State
 SRVC. :Service Company
 SON. :Service Order #
 DATE. :Log Date
 UWI. 0143101:Unique Well ID
~C
 DEPT.FT :
 AM16.OHMM :
 AO10.OHMM :
 AO19.OHMM :
 LTHE. :
 MCRV. :
 MM. :
 PHES. :
 PHMX. :
 PHTS. :
 PHZC. :
 RD.OHMM :
 RM.OHMM :
 ROS. :
 RS.OHMM :
 SBL.MV :
 SCLN. :
 SP.MV :
 SPN. :
 VCDS. :
 VCLY. :
 VCWS. :
 VSHS. :
~P
~A
# ...
   6339.0000      2.3830      2.1470      2.1980      1.4428      2.9430      2.9430      0.0000   -999.2500      0.2251      0.2177      2.1980      2.1470   -999.2500      2.3830    -12.3695    -27.6003    -16.1325    -10.3080      0.2078      0.4329      0.4329      1.4428
   6339.5000      2.4170      2.1370      2.1750      1.4082      2.9382      2.9382      0.0000   -999.2500      0.2197      0.2188      2.1750      2.1370   -999.2500      2.4170    -12.6974    -27.5997    -16.4619    -10.5812      0.2028      0.4225      0.4225      1.4082
   6340.0000      2.4720      2.1350      2.2430      1.3622      2.9319      2.9319      0.0000   -999.2500      0.2125      0.2201      2.2430      2.1350   -999.2500      2.4720    -13.1323    -27.5991    -16.8984    -10.9436      0.1962      0.4087      0.4087      1.3622
   6340.5000      2.5160      2.1580      2.3490      1.3158      2.9255      2.9255      0.0000   -999.2500      0.2053      0.2215      2.3490      2.1580   -999.2500      2.5160    -13.5708    -27.5985    -17.3385    -11.3090      0.1895      0.3947      0.3947      1.3158
   6341.0000      2.5520      2.1800      2.4050      1.2885      2.9217      2.9217      0.0000   -999.2500      0.2010      0.2223      2.4050      2.1800   -999.2500      2.5520    -13.8285    -27.5979    -17.5977    -11.5237      0.1856      0.3866      0.3866      1.2885
   6341.5000      2.5890      2.2020      2.3820      1.3128      2.9251      2.9251      0.0000   -999.2500      0.2048      0.2216      2.3820      2.2020   -999.2500      2.5890    -13.5983    -27.5973    -17.3691    -11.3319      0.1890      0.3939      0.3939      1.3128
   6342.0000      2.5970      2.2750      2.4310      1.3370      2.9285      2.9285      0.0000   -999.2500      0.2086      0.2209      2.4310      2.2750   -999.2500      2.5970    -13.3690    -27.5967    -17.1414    -11.1409      0.1925      0.4011      0.4011      1.3370
   6342.5000      2.5760      2.3330      2.4800      1.4159      2.9394      2.9394      0.0000   -999.2500      0.2209      0.2185      2.4800      2.3330   -999.2500      2.5760    -12.6223    -27.5961    -16.3962    -10.5185      0.2039      0.4248      0.4248      1.4159
   6343.0000      2.5270      2.3910      2.6280      1.4762      2.9478      2.9478      0.0000   -999.2500      0.2303      0.2167      2.6280      2.3910   -999.2500      2.5270    -12.0519    -27.5955    -15.8274    -10.0432      0.2126      0.4429      0.4429      1.4762
   6343.5000      2.5060      2.4630      2.6990      1.5193      2.9538      2.9538      0.0000   -999.2500      0.2350      0.2154      2.6990      2.4630   -999.2500      2.5060    -11.5526    -27.5949    -15.3297     -9.6272      0.2188      0.4558      0.4538      1.5193
   6344.0000      2.5570      2.5430      2.8340      1.5671      2.9605      2.9605      0.0000   -999.2500      0.2342      0.2139      2.8340      2.5430   -999.2500      2.5570    -10.8743    -27.5944    -14.6529     -9.0619      0.2257      0.4701      0.4599      1.5671
   6344.5000      2.6150      2.7440      2.9180      1.6072      2.9660      2.9660      0.0000   -999.2500      0.2335      0.2127      2.9180      2.7440   -999.2500      2.6150    -10.3048    -27.5938    -14.0850     -8.5873      0.2314      0.4822      0.4650      1.6072
   6345.0000      2.6230      2.9380      3.0380      1.6221      2.9681      2.9681      0.0000   -999.2500      0.2333      0.2123      3.0380      2.9380   -999.2500      2.6230    -10.0935    -27.5932    -13.8753     -8.4113      0.2336      0.4866      0.4668      1.6221
   6345.5000      2.5730      3.0830      3.1230      1.5912      2.9639      2.9639      0.0000   -999.2500      0.2338      0.2132      3.1230      3.0830   -999.2500      2.5730    -10.5311    -27.5926    -14.3145     -8.7759      0.2291      0.4774      0.4629      1.5912
   6346.0000      2.5390      3.1690      3.1940      1.5628      2.9600      2.9600      0.0000   -999.2500      0.2343      0.2140      3.1940      3.1690   -999.2500      2.5390    -10.9337    -27.5920    -14.7186     -9.1114      0.2250      0.4688      0.4593      1.5628
   6346.5000      2.4680      3.2270      3.2850      1.5700      2.9610      2.9610      0.0000   -999.2500      0.2341      0.2138      3.2850      3.2270   -999.2500      2.4680    -10.8322    -27.5914    -14.6187     -9.0268      0.2261      0.4710      0.4602      1.5700
   6347.0000      2.4180      3.2280      3.3560      1.6151      2.9673      2.9673      0.0000   -999.2500      0.2334      0.2124      3.3560      3.2280   -999.2500      2.4180    -10.1907    -27.5908    -13.9788     -8.4923      0.2326      0.4845      0.4659      1.6151
   6347.5000      2.4050      3.1860      3.3330      1.6579      2.9732      2.9732      0.0000   -999.2500      0.2326      0.2111      3.3330      3.1860   -999.2500      2.4050     -9.5835    -27.5902    -13.3731     -7.9862      0.2387      0.4974      0.4714      1.6579
   6348.0000      2.3920      3.0070      3.2160      1.6880      2.9774      2.9774      0.0000   -999.2500      0.2321      0.2102      3.2160      3.0070   -999.2500      2.3920     -9.1562    -27.5896    -12.9474     -7.6302      0.2431      0.5064      0.4752      1.6880
   6348.5000      2.4680      2.8290      3.0140      1.7155      2.9812      2.9812      0.0000   -999.2500      0.2316      0.2094      3.0140      2.8290   -999.2500      2.4680     -8.7658    -27.5890    -12.5586     -7.3049      0.2470      0.5147      0.4787      1.7155
   6349.0000      2.5440      2.5420      2.8410      1.7454      2.9854      2.9854      0.0000   -999.2500      0.2311      0.2085      2.8410      2.5420   -999.2500      2.5440     -8.3413    -27.5884    -12.1356     -6.9510      0.2513      0.5236      0.4824      1.7454
   6349.5000      2.5290      2.4790      2.6890      1.7603      2.9875      2.9875      0.0000   -999.2500      0.2308      0.2080      2.6890      2.4790   -999.2500      2.5290     -8.1300    -27.5878    -11.9259     -6.7750      0.2535      0.5281      0.4843      1.7603
   6350.0000      2.4780      2.4010      2.4870      1.7701      2.9889      2.9889      0.0000   -999.2500      0.2307      0.2077      2.4870      2.4010   -999.2500      2.4780     -7.9907    -27.5872    -11.7882     -6.6589      0.2549      0.5310      0.4856      1.7701
   6350.5000      2.4260      2.3400      2.3340      1.7741      2.9895      2.9895      0.0000   -999.2500      0.2306      0.2076      2.3340      2.3400   -999.2500      2.4260     -7.9342    -27.5866    -11.7333     -6.6119      0.2555      0.5322      0.4861      1.7741
   6351.0000      2.3150      2.2860      2.2610      1.7705      2.9890      2.9890      0.0000   -999.2500      0.2306      0.2077      2.2610      2.2860   -999.2500      2.3150     -7.9849    -27.5860    -11.7855     -6.6541      0.2550      0.5312      0.4856      1.7705
   6351.5000      2.2790      2.2320      2.3240      1.7669      2.9885      2.9885      0.0000   -999.2500      0.2307      0.2078      2.3240      2.2320   -999.2500      2.2790     -8.0355    -27.5854    -11.8377     -6.6963      0.2544      0.5301      0.4851      1.7669
   6352.0000      2.2440      2.2070      2.3430      1.7710      2.9891      2.9891      0.0000   -999.2500      0.2306      0.2077      2.3430      2.2070   -999.2500      2.2440     -7.9781    -27.5848    -11.7819     -6.6484      0.2550      0.5313      0.4856      1.7710
   6352.5000      2.1890      2.1750      2.3420      1.7826      2.9907      2.9907      0.0000   -999.2500      0.2304      0.2073      2.3420      2.1750   -999.2500      2.1890     -7.8128    -27.5842    -11.6181     -6.5106      0.2567      0.5348      0.4871      1.7826
   6353.0000      2.1860      2.1710      2.3190      1.7790      2.9903      2.9903      0.0000   -999.2500      0.2305      0.2074      2.3190      2.1710   -999.2500      2.1860     -7.8643    -27.5836    -11.6712     -6.5536      0.2562      0.5337      0.4866      1.7790
