~V
VERS. 2.00: Ver 2.00
WRAP.   NO:        
~W
 STRT.FT 670:
 STOP.FT 4026:
 STEP.FT 0.5:
 NULL. -999.250000:
 COMP. Shell (SWEPI):Company
 WELL. UNION 76-31:Well
 FLD. :Field
 LOC. S31 T11N R22W:Location
 STAT. CA:State
 SRVC. :Service Company
 SON. :Service Order #
 DATE. :Log Date
 UWI. 1371200:Unique Well ID
~C
 DEPT.FT :
 FACE. :
 LN.OHMM :
 LTHE. :
 MCRV. :
 MM. :
 PHES. :
 PHMX. :
 PHTS. :
 PHZC. :
 PXXX. :
 RD.OHMM :
 ROS. :
 RS.OHMM :
 SBL.MV :
 SCLN. :
 SN.OHMM :
 SP.MV :
 SPN. :
 VCDS. :
 VCLY. :
 VCWS. :
 VSHS. :
~P
~A
# ...
   2236.0000      3.0000      2.1940      0.6847   -999.2500      2.2389      0.3153      0.1737      0.4182      0.4952      0.2182      2.1940      1.3854      2.3250    -31.9086    -75.0000      2.3250    -41.6210    -31.9086      0.1030      0.2059      0.2059      0.6847
   2236.5000      3.0000      2.1540      0.7005   -999.2500      2.3156      0.2995      0.1725      0.4144      0.4887      0.2166      2.1540      1.4965      2.3420    -29.5114    -75.0000      2.3420    -39.2260    -29.5114      0.1149      0.2299      0.2299      0.7005
   2237.0000      3.0000      2.1150      0.7159   -999.2500      2.3903      0.2841      0.1713      0.4107      0.4824      0.2150      2.1150      1.6158      2.3690    -27.1772    -75.0000      2.3690    -36.8940    -27.1772      0.1266      0.2532      0.2532      0.7159
   2237.5000      3.0000      2.0480      0.7334   -999.2500      2.4751      0.2666      0.1700      0.4065      0.4753      0.2132      2.0480      1.7662      2.3960    -24.5281    -75.0000      2.3960    -34.2470    -24.5281      0.1399      0.2797      0.2797      0.7334
   2238.0000      3.0000      2.0890      0.7475   -999.2500      2.5437      0.2525      0.1690      0.4031      0.4695      0.2118      2.0890      1.9010      2.6860    -22.3839    -75.0000      2.6860    -32.1050    -22.3839      0.1506      0.3012      0.3012      0.7475
   2238.5000      3.0000      2.1300      0.7594   -999.2500      2.6013      0.2406      0.1681      0.4001      0.4646      0.2104      2.1300      2.0242      2.9760    -20.5858    -75.0000      2.9760    -30.3090    -20.5858      0.1596      0.3191      0.3191      0.7594
   2239.0000      3.0000      2.3730      0.7387   -999.2500      2.5010      0.2613      0.1696      0.4052      0.4730      0.2127      2.3730      1.8156      3.7450    -23.7186    -75.0000      3.7450    -33.4440    -23.7186      0.1439      0.2878      0.2878      0.7387
   2239.5000      3.0000      2.6160      0.7131   -999.2500      2.3765      0.2869      0.1715      0.4114      0.4835      0.2153      2.6160      1.5928      4.4870    -27.6084    -75.0000      4.4870    -37.3360    -27.6084      0.1245      0.2489      0.2489      0.7131
   2240.0000      3.0000      3.5080      0.6919   -999.2500      2.2732      0.3081      0.1731      0.4164      0.4922      0.2174      3.5080      1.4336      5.7080    -30.8363    -75.0000      5.7080    -40.5660    -30.8363      0.1083      0.2166      0.2166      0.6919
   2240.5000      3.0000      4.8510      0.6811   -999.2500      2.2205      0.3189      0.1739      0.4190      0.4967      0.2185      4.8510      1.3601      7.3430    -32.4841    -75.0000      7.3430    -42.2160    -32.4841      0.1001      0.2002      0.2002      0.6672
   2241.0000      3.0000      5.5360      0.6748   -999.2500      2.1901      0.3252      0.1744      0.4205      0.4992      0.2191      5.5360      1.3198      8.1690    -33.4349    -75.0000      8.1690    -43.1690    -33.4349      0.0953      0.1907      0.1907      0.6355
   2241.5000      3.0000      6.0710      0.6698   -999.2500      2.1657      0.3302      0.1748      0.4217      0.5013      0.2196      6.0710      1.2887      9.0890    -34.1968    -75.0000      9.0890    -43.9330    -34.1968      0.0915      0.1830      0.1830      0.6101
   2242.0000      2.0000      6.2480      0.6655   -999.2500      2.1443      0.3345      0.1751      0.4227      0.5031      0.2201      6.2480      1.2621     12.5580    -34.8656    -75.0000     12.5580    -44.6040    -34.8656      0.0882      0.1763      0.1763      0.5878
   2242.5000      2.0000      6.1060      0.6665   -999.2500      2.1493      0.3335      0.1750      0.4225      0.5026      0.2200      6.1060      1.2682     14.5790    -34.7095    -75.0000     14.5790    -44.4500    -34.7095      0.0890      0.1779      0.1779      0.5930
   2243.0000      2.0000      4.9850      0.6675   -999.2500      2.1543      0.3325      0.1749      0.4222      0.5022      0.2199      4.9850      1.2743     15.1980    -34.5543    -75.0000     15.1980    -44.2970    -34.5543      0.0897      0.1795      0.1795      0.5982
   2243.5000      3.0000      3.4230      0.6795   -999.2500      2.2126      0.3205      0.1740      0.4193      0.4973      0.2187      3.4230      1.3494     14.3040    -32.7301    -75.0000     14.3040    -42.4750    -32.7301      0.0988      0.1977      0.1977      0.6590
   2244.0000      3.0000      1.6530      0.6841   -999.2500      2.2348      0.3159      0.1737      0.4182      0.4954      0.2182      1.6530      1.3793     13.0800    -32.0380    -75.0000     13.0800    -41.7850    -32.0380      0.1023      0.2046      0.2046      0.6821
   2244.5000      3.0000      1.5110      0.6889   -999.2500      2.2584      0.3111      0.1733      0.4171      0.4934      0.2177      1.5110      1.4122     10.5860    -31.2988    -75.0000     10.5860    -41.0480    -31.2988      0.1060      0.2120      0.2120      0.6889
   2245.0000      3.0000      1.4720      0.6938   -999.2500      2.2821      0.3062      0.1730      0.4159      0.4914      0.2172      1.4720      1.4461      9.1270    -30.5606    -75.0000      9.1270    -40.3120    -30.5606      0.1097      0.2194      0.2194      0.6938
   2245.5000      3.0000      1.5080      0.7002   -999.2500      2.3133      0.2998      0.1725      0.4143      0.4887      0.2166      1.5080      1.4924      6.4820    -29.5855    -75.0000      6.4820    -39.3390    -29.5855      0.1146      0.2291      0.2291      0.7002
   2246.0000      3.0000      1.6010      0.7050   -999.2500      2.3364      0.2950      0.1721      0.4132      0.4868      0.2161      1.6010      1.5280      5.2870    -28.8633    -75.0000      5.2870    -38.6190    -28.8633      0.1182      0.2364      0.2364      0.7050
   2246.5000      3.0000      2.0970      0.7104   -999.2500      2.3625      0.2896      0.1717      0.4119      0.4846      0.2155      2.0970      1.5695      4.2420    -28.0462    -75.0000      4.2420    -37.8040    -28.0462      0.1223      0.2445      0.2445      0.7104
   2247.0000      3.0000      2.5100      0.7147   -999.2500      2.3836      0.2853      0.1714      0.4108      0.4828      0.2151      2.5100      1.6041      3.2810    -27.3870    -75.0000      3.2810    -37.1470    -27.3870      0.1256      0.2511      0.2511      0.7147
   2247.5000      3.0000      2.5980      0.7172   -999.2500      2.3957      0.2828      0.1712      0.4102      0.4817      0.2148      2.5980      1.6242      3.3170    -27.0108    -75.0000      3.3170    -36.7730    -27.0108      0.1274      0.2549      0.2549      0.7172
   2248.0000      3.0000      2.6860      0.7018   -999.2500      2.3207      0.2982      0.1724      0.4139      0.4881      0.2164      2.6860      1.5036      3.3540    -29.3547    -75.0000      3.3540    -39.1190    -29.3547      0.1157      0.2315      0.2315      0.7018
   2248.5000      3.0000      2.7130      0.6881   -999.2500      2.2538      0.3119      0.1734      0.4172      0.4937      0.2178      2.7130      1.4055      3.5220    -31.4435    -75.0000      3.5220    -41.2100    -31.4435      0.1053      0.2106      0.2106      0.6881
   2249.0000      3.0000      2.6460      0.6785   -999.2500      2.2072      0.3215      0.1741      0.4195      0.4976      0.2188      2.6460      1.3418      3.6890    -32.9004    -75.0000      3.6890    -42.6690    -32.9004      0.0980      0.1960      0.1960      0.6533
   2249.5000      2.0000      2.5790      0.6625   -999.2500      2.1292      0.3375      0.1753      0.4233      0.5042      0.2204      2.5790      1.2434      3.5750    -35.3382    -75.0000      3.5750    -45.1090    -35.3382      0.0858      0.1716      0.1716      0.5721
   2250.0000      2.0000      2.2190      0.6553   -999.2500      2.0937      0.3447      0.1758      0.4250      0.5072      0.2211      2.2190      1.2016      3.4600    -36.4470    -75.0000      3.4600    -46.2200    -36.4470      0.0803      0.1605      0.1605      0.5351
