~V
VERS. 2.00: Ver 2.00
WRAP.   NO:        
~W
 STRT.FT 670:
 STOP.FT 4026:
 STEP.FT 0.5:
 NULL. -999.250000:
 COMP. Shell (SWEPI):Company
 WELL. UNION 76-31:Well
 FLD. :Field
 LOC. S31 T11N R22W:Location
 STAT. CA:State
 SRVC. :Service Company
 SON. :Service Order #
 DATE. :Log Date
 UWI. 1371200:Unique Well ID
~C
 DEPT.FT :
 FACE. :
 LN.OHMM :
 LTHE. :
 MCRV. :
 MM. :
 PHES. :
 PHMX. :
 PHTS. :
 PHZC. :
 PXXX. :
 RD.OHMM :
 ROS. :
 RS.OHMM :
 SBL.MV :
 SCLN. :
 SN.OHMM :
 SP.MV :
 SPN. :
 VCDS. :
 VCLY. :
 VCWS. :
 VSHS. :
~P
~A
# ...
   1786.5000      3.0000      3.0210      0.7468   -999.2500      2.5936      0.2532      0.1700      0.4116      0.4752      0.2130      3.0210      2.0414      2.9840    -20.8260    -75.0000      2.9840    -28.8260    -20.8260      0.1584      0.3167      0.3167      0.7468
   1787.0000      3.0000      3.0590      0.7451   -999.2500      2.5851      0.2549      0.1702      0.4120      0.4759      0.2131      3.0590      2.0227      3.0380    -21.0900    -75.0000      3.0380    -29.0900    -21.0900      0.1571      0.3141      0.3141      0.7451
   1787.5000      3.0000      3.0980      0.7399   -999.2500      2.5599      0.2601      0.1705      0.4132      0.4780      0.2137      3.0980      1.9682      3.0910    -21.8770    -75.0000      3.0910    -29.8770    -21.8770      0.1531      0.3062      0.3062      0.7399
   1788.0000      3.0000      3.1370      0.7347   -999.2500      2.5347      0.2653      0.1709      0.4145      0.4801      0.2143      3.1370      1.9155      3.1230    -22.6650    -75.0000      3.1230    -30.6650    -22.6650      0.1492      0.2984      0.2984      0.7347
   1788.5000      3.0000      3.1820      0.7357   -999.2500      2.5394      0.2643      0.1709      0.4142      0.4797      0.2142      3.1820      1.9251      3.1540    -22.5190    -75.0000      3.1540    -30.5190    -22.5190      0.1499      0.2998      0.2998      0.7357
   1789.0000      3.0000      3.2270      0.7367   -999.2500      2.5441      0.2633      0.1708      0.4140      0.4793      0.2141      3.2270      1.9347      3.2630    -22.3730    -75.0000      3.2630    -30.3730    -22.3730      0.1506      0.3013      0.3013      0.7367
   1789.5000      3.0000      3.2520      0.7384   -999.2500      2.5522      0.2616      0.1707      0.4136      0.4786      0.2139      3.2520      1.9517      3.2570    -22.1180    -75.0000      3.2570    -30.1180    -22.1180      0.1519      0.3038      0.3038      0.7384
   1790.0000      3.0000      3.2450      0.7400   -999.2500      2.5604      0.2600      0.1705      0.4131      0.4779      0.2137      3.2450      1.9689      3.2500    -21.8630    -75.0000      3.2500    -29.8630    -21.8630      0.1532      0.3064      0.3064      0.7400
   1790.5000      3.0000      3.2390      0.7409   -999.2500      2.5646      0.2591      0.1705      0.4129      0.4775      0.2136      3.2390      1.9778      3.2150    -21.7320    -75.0000      3.2150    -29.7320    -21.7320      0.1538      0.3077      0.3077      0.7409
   1791.0000      3.0000      3.1700      0.7418   -999.2500      2.5687      0.2582      0.1704      0.4127      0.4772      0.2135      3.1700      1.9867      3.1800    -21.6020    -75.0000      3.1800    -29.6020    -21.6020      0.1545      0.3090      0.3090      0.7418
   1791.5000      3.0000      3.1340      0.7430   -999.2500      2.5743      0.2570      0.1703      0.4124      0.4767      0.2134      3.1340      1.9987      3.1340    -21.4270    -75.0000      3.1340    -29.4270    -21.4270      0.1554      0.3107      0.3107      0.7430
   1792.0000      3.0000      3.0980      0.7383   -999.2500      2.5517      0.2617      0.1707      0.4135      0.4786      0.2139      3.0980      1.9504      3.0880    -22.1340    -75.0000      3.0880    -30.1340    -22.1340      0.1518      0.3037      0.3037      0.7383
   1792.5000      3.0000      3.0610      0.7276   -999.2500      2.4997      0.2724      0.1714      0.4161      0.4830      0.2150      3.0610      1.8448      3.0420    -23.7600    -75.0000      3.0420    -31.7600    -23.7600      0.1437      0.2874      0.2874      0.7276
   1793.0000      3.0000      3.0120      0.7194   -999.2500      2.4599      0.2806      0.1721      0.4181      0.4863      0.2159      3.0120      1.7688      2.9880    -25.0030    -75.0000      2.9880    -33.0030    -25.0030      0.1375      0.2750      0.2750      0.7194
   1793.5000      3.0000      2.9620      0.7058   -999.2500      2.3937      0.2942      0.1731      0.4214      0.4919      0.2174      2.9620      1.6509      2.9340    -27.0710    -75.0000      2.9340    -35.0710    -27.0710      0.1271      0.2543      0.2543      0.7058
   1794.0000      3.0000      2.9320      0.6930   -999.2500      2.3317      0.3070      0.1740      0.4244      0.4971      0.2188      2.9320      1.5492      2.8470    -29.0100    -75.0000      2.8470    -37.0100    -29.0100      0.1175      0.2349      0.2349      0.6930
   1794.5000      3.0000      2.9020      0.6811   -999.2500      2.2736      0.3189      0.1749      0.4273      0.5020      0.2201      2.9020      1.4611      2.7980    -30.8250    -75.0000      2.7980    -38.8250    -30.8250      0.1084      0.2168      0.2168      0.6811
   1795.0000      3.0000      2.8520      0.6798   -999.2500      2.2672      0.3202      0.1750      0.4276      0.5025      0.2203      2.8520      1.4518      2.7390    -31.0250    -75.0000      2.7390    -39.0250    -31.0250      0.1074      0.2148      0.2148      0.6798
   1795.5000      3.0000      2.8030      0.6806   -999.2500      2.2708      0.3194      0.1749      0.4274      0.5022      0.2202      2.8030      1.4570      2.7310    -30.9110    -75.0000      2.7310    -38.9110    -30.9110      0.1079      0.2159      0.2159      0.6806
   1796.0000      3.0000      2.6880      0.6838   -999.2500      2.2866      0.3162      0.1747      0.4266      0.5009      0.2198      2.6880      1.4802      2.7230    -30.4180    -75.0000      2.7230    -38.4180    -30.4180      0.1104      0.2208      0.2208      0.6838
   1796.5000      3.0000      2.7280      0.6871   -999.2500      2.3024      0.3129      0.1745      0.4258      0.4995      0.2195      2.7280      1.5038      2.7140    -29.9250    -75.0000      2.7140    -37.9250    -29.9250      0.1129      0.2258      0.2258      0.6871
   1797.0000      3.0000      2.7690      0.6932   -999.2500      2.3323      0.3068      0.1740      0.4243      0.4970      0.2188      2.7690      1.5500      2.8250    -28.9910    -75.0000      2.8250    -36.9910    -28.9910      0.1175      0.2351      0.2351      0.6932
   1797.5000      3.0000      2.8420      0.7000   -999.2500      2.3652      0.3000      0.1735      0.4227      0.4942      0.2180      2.8420      1.6029      2.9350    -27.9620    -75.0000      2.9350    -35.9620    -27.9620      0.1227      0.2454      0.2454      0.7000
   1798.0000      3.0000      2.9150      0.7076   -999.2500      2.4022      0.2924      0.1729      0.4208      0.4911      0.2172      2.9150      1.6651      2.9850    -26.8050    -75.0000      2.9850    -34.8050    -26.8050      0.1285      0.2570      0.2570      0.7076
   1798.5000      3.0000      2.9600      0.7109   -999.2500      2.4181      0.2891      0.1727      0.4200      0.4897      0.2168      2.9600      1.6927      3.0350    -26.3100    -75.0000      3.0350    -34.3100    -26.3100      0.1310      0.2619      0.2619      0.7109
   1799.0000      3.0000      3.0050      0.7185   -999.2500      2.4551      0.2815      0.1721      0.4182      0.4866      0.2160      3.0050      1.7593      3.0990    -25.1540    -75.0000      3.0990    -33.1540    -25.1540      0.1367      0.2735      0.2735      0.7185
   1799.5000      3.0000      3.0620      0.7262   -999.2500      2.4921      0.2738      0.1715      0.4163      0.4835      0.2151      3.0620      1.8294      3.1630    -23.9970    -75.0000      3.1630    -31.9970    -23.9970      0.1425      0.2850      0.2850      0.7262
   1800.0000      3.0000      3.1190      0.7311   -999.2500      2.5160      0.2689      0.1712      0.4151      0.4814      0.2146      3.1190      1.8765      3.2440    -23.2500    -75.0000      3.2440    -31.2500    -23.2500      0.1463      0.2925      0.2925      0.7311
   1800.5000      3.0000      3.1770      0.7361   -999.2500      2.5399      0.2639      0.1708      0.4139      0.4794      0.2141      3.1770      1.9251      3.2800    -22.5030    -75.0000      3.2800    -30.5030    -22.5030      0.1500      0.3000      0.3000      0.7361
