~V
VERS. 2.00: Ver 2.00
WRAP.   NO:        
~W
 STRT.FT 670:
 STOP.FT 4026:
 STEP.FT 0.5:
 NULL. -999.250000:
 COMP. Shell (SWEPI):Company
 WELL. UNION 76-31:Well
 FLD. :Field
 LOC. S31 T11N R22W:Location
 STAT. CA:State
 SRVC. :Service Company
 SON. :Service Order #
 DATE. :Log Date
 UWI. 1371200:Unique Well ID
~C
 DEPT.FT :
 FACE. :
 LN.OHMM :
 LTHE. :
 MCRV. :
 MM. :
 PHES. :
 PHMX. :
 PHTS. :
 PHZC. :
 PXXX. :
 RD.OHMM :
 ROS. :
 RS.OHMM :
 SBL.MV :
 SCLN. :
 SN.OHMM :
 SP.MV :
 SPN. :
 VCDS. :
 VCLY. :
 VCWS. :
 VSHS. :
~P
~A
# ...
    887.5000      2.0000      6.6510      0.6069   -999.2500      2.0200      0.3931      0.1824      0.4618      0.5434   -999.2500      6.6510      1.2115      9.4910    -18.9590   -999.2500      9.4910    -26.9590    -18.9590      0.0687      0.1375      0.1375      0.4583
    888.0000      2.0000      6.6970      0.6088   -999.2500      2.0294      0.3912      0.1823      0.4614      0.5425   -999.2500      6.6970      1.2222      9.3160    -18.6160   -999.2500      9.3160    -26.6160    -18.6160      0.0702      0.1404      0.1404      0.4681
    888.5000      2.0000      6.5450      0.6115   -999.2500      2.0423      0.3885      0.1821      0.4607      0.5414   -999.2500      6.5450      1.2371      9.1410    -18.1460   -999.2500      9.1410    -26.1460    -18.1460      0.0722      0.1445      0.1445      0.4815
    889.0000      2.0000      6.2150      0.6137   -999.2500      2.0530      0.3863      0.1819      0.4602      0.5405   -999.2500      6.2150      1.2497      8.9710    -17.7550   -999.2500      8.9710    -25.7550    -17.7550      0.0739      0.1478      0.1478      0.4927
    889.5000      2.0000      5.6490      0.6171   -999.2500      2.0694      0.3829      0.1817      0.4594      0.5391   -999.2500      5.6490      1.2692      8.8010    -17.3630   -999.2500      8.8010    -25.3630    -17.3630      0.0765      0.1529      0.1529      0.5098
    890.0000      2.0000      5.1970      0.6245   -999.2500      2.1059      0.3755      0.1811      0.4576      0.5360   -999.2500      5.1970      1.3142      8.4470    -16.8300   -999.2500      8.4470    -24.8300    -16.8300      0.0822      0.1644      0.1644      0.5479
    890.5000      2.0000      4.8570      0.6321   -999.2500      2.1426      0.3679      0.1805      0.4558      0.5329   -999.2500      4.8570      1.3613      8.0930    -16.2960   -999.2500      8.0930    -24.2960    -16.2960      0.0879      0.1758      0.1758      0.5860
    891.0000      3.0000      5.5890      0.6688   -999.2500      2.3218      0.3312      0.1778      0.4471      0.5178   -999.2500      5.5890      1.6259      7.6780    -13.6820   -999.2500      7.6780    -21.6820    -13.6820      0.1159      0.2318      0.2318      0.6688
    891.5000      3.0000      5.8230      0.6884   -999.2500      2.4169      0.3116      0.1763      0.4423      0.5098   -999.2500      5.8230      1.7925      7.2630    -12.2950   -999.2500      7.2630    -20.2950    -12.2950      0.1308      0.2615      0.2615      0.6884
    892.0000      3.0000      5.9250      0.7129   -999.2500      2.5357      0.2871      0.1745      0.4364      0.4997   -999.2500      5.9250      2.0318      6.8520    -10.5620   -999.2500      6.8520    -18.5620    -10.5620      0.1493      0.2987      0.2987      0.7129
    892.5000      3.0000      5.9620      0.7536   -999.2500      2.7047      0.2464      0.1715      0.4265      0.4831   -999.2500      5.9620      2.4632      6.4420     -7.6920   -999.2500      6.4420    -15.6920     -7.6920      0.1801      0.3602      0.3602      0.7536
    893.0000      3.0000      5.9510      0.7601   -999.2500      2.7092      0.2399      0.1710      0.4249      0.4805   -999.2500      5.9510      2.4937      5.9980     -7.2370   -999.2500      5.9980    -15.2370     -7.2370      0.1850      0.3699      0.3699      0.7601
    893.5000      3.0000      5.9120      0.7666   -999.2500      2.7137      0.2334      0.1705      0.4232      0.4778   -999.2500      5.9120      2.5249      5.7670     -6.7810   -999.2500      5.7670    -14.7810     -6.7810      0.1898      0.3797      0.3797      0.7666
    894.0000      3.0000      5.5910      0.7701   -999.2500      2.7161      0.2299      0.1703      0.4224      0.4764   -999.2500      5.5910      2.5419      5.5360     -6.5350   -999.2500      5.5360    -14.5350     -6.5350      0.1925      0.3850      0.3850      0.7701
    894.5000      3.0000      5.0820      0.7620   -999.2500      2.7105      0.2380      0.1709      0.4244      0.4797   -999.2500      5.0820      2.5022      5.2800     -7.1080   -999.2500      5.2800    -15.1080     -7.1080      0.1863      0.3727      0.3727      0.7620
    895.0000      3.0000      4.7800      0.7501   -999.2500      2.7022      0.2499      0.1717      0.4273      0.4845   -999.2500      4.7800      2.4457      5.4670     -7.9480   -999.2500      5.4670    -15.9480     -7.9480      0.1773      0.3547      0.3547      0.7501
    895.5000      3.0000      4.5340      0.7381   -999.2500      2.6573      0.2619      0.1726      0.4302      0.4894   -999.2500      4.5340      2.3186      5.7750     -8.7890   -999.2500      5.7750    -16.7890     -8.7890      0.1683      0.3367      0.3367      0.7381
    896.0000      3.0000      4.3450      0.7139   -999.2500      2.5398      0.2861      0.1744      0.4361      0.4993   -999.2500      4.3450      2.0400      6.0280    -10.5030   -999.2500      6.0280    -18.5030    -10.5030      0.1500      0.2999      0.2999      0.7139
    896.5000      3.0000      4.4280      0.7053   -999.2500      2.4984      0.2947      0.1751      0.4382      0.5028   -999.2500      4.4280      1.9517      6.1500    -11.1070   -999.2500      6.1500    -19.1070    -11.1070      0.1435      0.2870      0.2870      0.7053
    897.0000      3.0000      4.7180      0.7277   -999.2500      2.6065      0.2723      0.1734      0.4327      0.4937   -999.2500      4.7180      2.1925      6.2710     -9.5300   -999.2500      6.2710    -17.5300     -9.5300      0.1604      0.3208      0.3208      0.7277
    897.5000      3.0000      5.0840      0.7549   -999.2500      2.7055      0.2451      0.1714      0.4260      0.4825   -999.2500      5.0840      2.4677      6.3360     -7.6090   -999.2500      6.3360    -15.6090     -7.6090      0.1810      0.3620      0.3620      0.7549
    898.0000      3.0000      5.9570      0.7634   -999.2500      2.7114      0.2366      0.1707      0.4239      0.4791   -999.2500      5.9570      2.5079      6.4000     -7.0120   -999.2500      6.4000    -15.0120     -7.0120      0.1874      0.3747      0.3747      0.7634
    898.5000      3.0000      6.0880      0.7616   -999.2500      2.7101      0.2384      0.1709      0.4244      0.4798   -999.2500      6.0880      2.4990      6.2480     -7.1420   -999.2500      6.2480    -15.1420     -7.1420      0.1860      0.3720      0.3720      0.7616
    899.0000      3.0000      6.2190      0.7598   -999.2500      2.7089      0.2402      0.1710      0.4248      0.4805   -999.2500      6.2190      2.4901      5.8990     -7.2710   -999.2500      5.8990    -15.2710     -7.2710      0.1846      0.3692      0.3692      0.7598
    899.5000      3.0000      6.3960      0.7512   -999.2500      2.7029      0.2488      0.1716      0.4269      0.4840   -999.2500      6.3960      2.4494      5.6810     -7.8780   -999.2500      5.6810    -15.8780     -7.8780      0.1781      0.3562      0.3562      0.7512
    900.0000      3.0000      6.4130      0.7502   -999.2500      2.7022      0.2498      0.1717      0.4272      0.4844   -999.2500      6.4130      2.4448      5.5670     -7.9450   -999.2500      5.5670    -15.9450     -7.9450      0.1774      0.3548      0.3548      0.7502
    900.5000      3.0000      6.1960      0.7708   -999.2500      2.7165      0.2292      0.1702      0.4221      0.4760   -999.2500      6.1960      2.5430      5.6510     -6.4980   -999.2500      5.6510    -14.4980     -6.4980      0.1929      0.3858      0.3858      0.7708
    901.0000      3.0000      6.1060      0.7712   -999.2500      2.7168      0.2288      0.1702      0.4220      0.4759   -999.2500      6.1060      2.5448      5.9970     -6.4700   -999.2500      5.9970    -14.4700     -6.4700      0.1932      0.3864      0.3864      0.7712
    901.5000      3.0000      6.0160      0.7671   -999.2500      2.7139      0.2329      0.1705      0.4230      0.4775   -999.2500      6.0160      2.5247      6.2600     -6.7570   -999.2500      6.2600    -14.7570     -6.7570      0.1901      0.3802      0.3802      0.7671
