~V
VERS. 2.00: Ver 2.00
WRAP.   NO:        
~W
 STRT.FT 670:
 STOP.FT 4026:
 STEP.FT 0.5:
 NULL. -999.250000:
 COMP. Shell (SWEPI):Company
 WELL. UNION 76-31:Well
 FLD. :Field
 LOC. S31 T11N R22W:Location
 STAT. CA:State
 SRVC. :Service Company
 SON. :Service Order #
 DATE. :Log Date
 UWI. 1371200:Unique Well ID
~C
 DEPT.FT :
 FACE. :
 LN.OHMM :
 LTHE. :
 MCRV. :
 MM. :
 PHES. :
 PHMX. :
 PHTS. :
 PHZC. :
 PXXX. :
 RD.OHMM :
 ROS. :
 RS.OHMM :
 SBL.MV :
 SCLN. :
 SN.OHMM :
 SP.MV :
 SPN. :
 VCDS. :
 VCLY. :
 VCWS. :
 VSHS. :
~P
~A
# ...
   2903.0000      3.0000      5.1230      0.7564   -999.2500      2.5407      0.2436      0.1669      0.3887      0.4578      0.2113      5.1230      1.8605     10.1520    -23.4867    -75.0000     10.1520    -52.9103    -23.4867      0.1451      0.2901      0.2901      0.7564
   2903.5000      3.0000      5.1090      0.7662   -999.2500      2.5884      0.2338      0.1661      0.3863      0.4538      0.2103      5.1090      1.9608      9.5790    -21.9959    -75.0000      9.5790    -51.4238    -21.9959      0.1525      0.3050      0.3050      0.7662
   2904.0000      3.0000      5.1940      0.7756   -999.2500      2.6336      0.2244      0.1654      0.3840      0.4499      0.2094      5.1940      2.0621      9.3440    -20.5839    -75.0000      9.3440    -50.0162    -20.5839      0.1596      0.3192      0.3192      0.7756
   2904.5000      3.0000      5.2740      0.7840   -999.2500      2.6743      0.2160      0.1648      0.3819      0.4465      0.2072      5.2740      2.1589      9.1100    -19.3150    -75.0000      9.1100    -48.7516    -19.3150      0.1659      0.3318      0.3318      0.7840
   2905.0000      3.0000      5.3540      0.7918   -999.2500      2.7122      0.2082      0.1642      0.3800      0.4433      0.2053      5.3540      2.2543      8.7580    -18.1320    -75.0000      8.7580    -47.5728    -18.1320      0.1718      0.3437      0.3437      0.7918
   2905.5000      3.0000      5.4750      0.7999   -999.2500      2.7351      0.2001      0.1636      0.3780      0.4400      0.2032      5.4750      2.3213      8.4060    -16.9235    -75.0000      8.4060    -46.3686    -16.9235      0.1779      0.3558      0.3558      0.7999
   2906.0000      3.0000      5.5130      0.8085   -999.2500      2.7411      0.1915      0.1630      0.3759      0.4365      0.2010      5.5130      2.3532      7.8140    -15.6219    -75.0000      7.8140    -45.0714    -15.6219      0.1844      0.3688      0.3688      0.8085
   2906.5000      3.0000      5.5520      0.8136   -999.2500      2.7447      0.1864      0.1626      0.3746      0.4344      0.1998      5.5520      2.3724      7.6690    -14.8600    -75.0000      7.6690    -44.3138    -14.8600      0.1882      0.3764      0.3764      0.8136
   2907.0000      3.0000      5.5560      0.8050   -999.2500      2.7388      0.1950      0.1633      0.3767      0.4379      0.2019      5.5560      2.3404      7.5240    -16.1501    -75.0000      7.5240    -45.6082    -16.1501      0.1817      0.3635      0.3635      0.8050
   2907.5000      3.0000      5.5610      0.8000   -999.2500      2.7353      0.2000      0.1636      0.3780      0.4400      0.2032      5.5610      2.3218      7.6270    -16.9166    -75.0000      7.6270    -46.3790    -16.9166      0.1779      0.3558      0.3558      0.8000
   2908.0000      3.0000      5.5800      0.7976   -999.2500      2.7337      0.2024      0.1638      0.3785      0.4409      0.2038      5.5800      2.3132      7.7300    -17.2772    -75.0000      7.7300    -46.7439    -17.2772      0.1761      0.3522      0.3522      0.7976
   2908.5000      3.0000      5.5990      0.8006   -999.2500      2.7358      0.1994      0.1636      0.3778      0.4397      0.2031      5.5990      2.3241      8.5180    -16.8274    -75.0000      8.5180    -46.2984    -16.8274      0.1784      0.3567      0.3567      0.8006
   2909.0000      3.0000      5.6500      0.8062   -999.2500      2.7398      0.1938      0.1632      0.3764      0.4374      0.2016      5.6500      2.3451      8.6410    -15.9730    -75.0000      8.6410    -45.4482    -15.9730      0.1826      0.3653      0.3653      0.8062
   2909.5000      3.0000      5.7020      0.8132   -999.2500      2.7446      0.1868      0.1626      0.3747      0.4346      0.1999      5.7020      2.3711      8.6220    -14.9321    -75.0000      8.6220    -44.4117    -14.9321      0.1878      0.3757      0.3757      0.8132
   2910.0000      3.0000      5.7680      0.8192   -999.2500      2.7489      0.1808      0.1622      0.3732      0.4321      0.1984      5.7680      2.3943      8.5660    -14.0216    -75.0000      8.5660    -43.5055    -14.0216      0.1924      0.3848      0.3848      0.8192
   2910.5000      3.0000      5.8340      0.8264   -999.2500      2.7539      0.1736      0.1617      0.3714      0.4292      0.1965      5.8340      2.4224      8.5100    -12.9389    -75.0000      8.5100    -42.4271    -12.9389      0.1978      0.3956      0.3956      0.8264
   2911.0000      4.0000      5.9180      0.8345   -999.2500      2.7595      0.1655      0.1611      0.3694      0.4259      0.1945      5.9180      2.4547      8.5100    -11.7256    -75.0000      8.5100    -41.2181    -11.7256      0.2039      0.4077      0.4077      0.8345
   2911.5000      4.0000      5.9830      0.8375   -999.2500      2.7616      0.1625      0.1608      0.3686      0.4247      0.1938      5.9830      2.4668      8.5100    -11.2831    -75.0000      8.5100    -40.7798    -11.2831      0.2061      0.4122      0.4122      0.8375
   2912.0000      4.0000      6.0310      0.8383   -999.2500      2.7622      0.1617      0.1608      0.3684      0.4243      0.1935      6.0310      2.4703      8.6230    -11.1565    -75.0000      8.6230    -40.6576    -11.1565      0.2067      0.4134      0.4134      0.8383
   2912.5000      4.0000      6.0590      0.8362   -999.2500      2.7608      0.1638      0.1609      0.3689      0.4252      0.1941      6.0590      2.4616      8.7540    -11.4822    -75.0000      8.7540    -40.9876    -11.4822      0.2051      0.4102      0.4102      0.8362
   2913.0000      4.0000      6.0780      0.8295   -999.2500      2.7562      0.1705      0.1614      0.3706      0.4279      0.1958      6.0780      2.4349      8.6140    -12.4818    -75.0000      8.6140    -41.9914    -12.4818      0.2001      0.4002      0.4002      0.8295
   2913.5000      3.0000      5.9240      0.8163   -999.2500      2.7470      0.1837      0.1624      0.3738      0.4332      0.1991      5.9240      2.3833      8.4730    -14.4759    -75.0000      8.4730    -43.9898    -14.4759      0.1901      0.3802      0.3802      0.8163
   2914.0000      3.0000      5.7690      0.7988   -999.2500      2.7349      0.2012      0.1637      0.3781      0.4404      0.2036      5.7690      2.3181      8.2760    -17.1178    -75.0000      8.2760    -46.6361    -17.1178      0.1769      0.3538      0.3538      0.7988
   2914.5000      3.0000      5.3930      0.7805   -999.2500      2.6569      0.2195      0.1651      0.3826      0.4478      0.2082      5.3930      2.1164      8.6510    -19.8837    -75.0000      8.6510    -49.4063    -19.8837      0.1631      0.3262      0.3262      0.7805
   2915.0000      3.0000      5.2700      0.7580   -999.2500      2.5483      0.2420      0.1667      0.3881      0.4570      0.2112      5.2700      1.8756      9.5530    -23.2776    -75.0000      9.5530    -52.8045    -23.2776      0.1461      0.2922      0.2922      0.7580
   2915.5000      3.0000      5.2990      0.7355   -999.2500      2.4388      0.2645      0.1684      0.3935      0.4662      0.2135      5.2990      1.6666     10.1680    -26.7025    -75.0000     10.1680    -56.2336    -26.7025      0.1290      0.2580      0.2580      0.7355
   2916.0000      3.0000      5.3270      0.7105   -999.2500      2.3174      0.2895      0.1703      0.3995      0.4764      0.2160      5.3270      1.4684     10.7840    -30.4951    -75.0000     10.7840    -60.0305    -30.4951      0.1100      0.2200      0.2200      0.7105
   2916.5000      3.0000      5.5150      0.6873   -999.2500      2.2047      0.3127      0.1720      0.4051      0.4859      0.2184      5.5150      1.3104     12.8590    -34.0209    -75.0000     12.8590    -63.5606    -34.0209      0.0924      0.1848      0.1848      0.6160
   2917.0000      2.0000      5.7690      0.6713   -999.2500      2.1261      0.3287      0.1732      0.4089      0.4926      0.2200      5.7690      1.2131     15.2160    -36.4755    -75.0000     15.2160    -66.0196    -36.4755      0.0801      0.1602      0.1602      0.5342
