~V
VERS. 2.00: Ver 2.00
WRAP.   NO:        
~W
 STRT.FT 670:
 STOP.FT 4026:
 STEP.FT 0.5:
 NULL. -999.250000:
 COMP. Shell (SWEPI):Company
 WELL. UNION 76-31:Well
 FLD. :Field
 LOC. S31 T11N R22W:Location
 STAT. CA:State
 SRVC. :Service Company
 SON. :Service Order #
 DATE. :Log Date
 UWI. 1371200:Unique Well ID
~C
 DEPT.FT :
 FACE. :
 LN.OHMM :
 LTHE. :
 MCRV. :
 MM. :
 PHES. :
 PHMX. :
 PHTS. :
 PHZC. :
 PXXX. :
 RD.OHMM :
 ROS. :
 RS.OHMM :
 SBL.MV :
 SCLN. :
 SN.OHMM :
 SP.MV :
 SPN. :
 VCDS. :
 VCLY. :
 VCWS. :
 VSHS. :
~P
~A
# ...
   3352.5000      3.0000      7.6570      0.7406   -999.2500      2.4478      0.2594      0.1671      0.3843      0.4588   -999.2500      7.6570      1.6715      9.2350    -22.0106    -60.0000      9.2350    -46.6106    -22.0106      0.1249      0.2499      0.2499      0.7406
   3353.0000      3.0000      7.7010      0.7214   -999.2500      2.3542      0.2786      0.1685      0.3889      0.4667   -999.2500      7.7010      1.5140      9.2740    -24.3513    -60.0000      9.2740    -48.9442    -24.3513      0.1103      0.2206      0.2206      0.7214
   3353.5000      3.0000      7.7460      0.7145   -999.2500      2.3204      0.2855      0.1690      0.3906      0.4695   -999.2500      7.7460      1.4619      9.3140    -25.1962    -60.0000      9.3140    -49.7820    -25.1962      0.1050      0.2100      0.2100      0.7002
   3354.0000      3.0000      7.5920      0.7365   -999.2500      2.4275      0.2635      0.1674      0.3853      0.4605   -999.2500      7.5920      1.6357      9.2540    -22.5196    -60.0000      9.2540    -47.0985    -22.5196      0.1218      0.2435      0.2435      0.7365
   3354.5000      3.0000      7.1940      0.7643   -999.2500      2.5626      0.2357      0.1653      0.3785      0.4491   -999.2500      7.1940      1.8941      9.1950    -19.1452    -60.0000      9.1950    -43.7169    -19.1452      0.1428      0.2857      0.2857      0.7643
   3355.0000      3.0000      6.8160      0.7964   -999.2500      2.7180      0.2036      0.1629      0.3707      0.4359   -999.2500      6.8160      2.2588      8.2150    -15.2608    -60.0000      8.2150    -39.8255    -15.2608      0.1671      0.3342      0.3342      0.7964
   3355.5000      3.0000      6.7090      0.8220   -999.2500      2.7789      0.1780      0.1610      0.3644      0.4255   -999.2500      6.7090      2.4532      7.7990    -12.1788    -60.0000      7.7990    -36.7364    -12.1788      0.1864      0.3728      0.3728      0.8220
   3356.0000      3.0000      6.8000      0.8328   -999.2500      2.7865      0.1672      0.1602      0.3617      0.4211   -999.2500      6.8000      2.4960      7.4010    -10.8752    -60.0000      7.4010    -35.4258    -10.8752      0.1945      0.3891      0.3891      0.8328
   3356.5000      3.0000      6.9850      0.8354   -999.2500      2.7883      0.1646      0.1600      0.3611      0.4201   -999.2500      6.9850      2.5064      7.2950    -10.5702    -60.0000      7.2950    -35.1137    -10.5702      0.1964      0.3929      0.3929      0.8354
   3357.0000      3.0000      7.1980      0.8295   -999.2500      2.7843      0.1705      0.1604      0.3625      0.4224   -999.2500      7.1980      2.4831      7.1890    -11.2732    -60.0000      7.1890    -35.8097    -11.2732      0.1920      0.3841      0.3841      0.8295
   3357.5000      3.0000      7.4110      0.8154   -999.2500      2.7745      0.1846      0.1615      0.3660      0.4282   -999.2500      7.4110      2.4282      7.6080    -12.9754    -60.0000      7.6080    -37.5048    -12.9754      0.1814      0.3628      0.3628      0.8154
   3358.0000      3.0000      7.5210      0.8007   -999.2500      2.7384      0.1993      0.1626      0.3696      0.4342   -999.2500      7.5210      2.3131      7.9430    -14.7556    -60.0000      7.9430    -39.2779    -14.7556      0.1703      0.3406      0.3406      0.8007
   3358.5000      3.0000      7.6020      0.7845   -999.2500      2.6600      0.2155      0.1638      0.3735      0.4408   -999.2500      7.6020      2.1131      8.3060    -16.7180    -60.0000      8.3060    -41.2333    -16.7180      0.1580      0.3160      0.3160      0.7845
   3359.0000      3.0000      7.6230      0.7681   -999.2500      2.5808      0.2319      0.1650      0.3775      0.4475   -999.2500      7.6230      1.9328      8.5760    -18.6976    -60.0000      8.5760    -43.2058    -18.6976      0.1456      0.2913      0.2913      0.7681
   3359.5000      3.0000      7.6440      0.7538   -999.2500      2.5116      0.2462      0.1661      0.3810      0.4533   -999.2500      7.6440      1.7908      8.7000    -20.4285    -60.0000      8.7000    -44.9297    -20.4285      0.1348      0.2696      0.2696      0.7538
   3360.0000      3.0000      7.5550      0.7386   -999.2500      2.4375      0.2614      0.1672      0.3847      0.4595   -999.2500      7.5550      1.6531      8.8240    -22.2815    -60.0000      8.8240    -46.7756    -22.2815      0.1232      0.2465      0.2465      0.7386
   3360.5000      3.0000      7.3460      0.7201   -999.2500      2.3474      0.2799      0.1686      0.3891      0.4671   -999.2500      7.3460      1.5033      8.2570    -24.5355    -60.0000      8.2570    -49.0225    -24.5355      0.1092      0.2183      0.2183      0.7201
   3361.0000      3.0000      6.0660      0.7233   -999.2500      2.3634      0.2767      0.1683      0.3883      0.4658   -999.2500      6.0660      1.5285      7.8590    -24.1376    -60.0000      7.8590    -48.6176    -24.1376      0.1116      0.2233      0.2233      0.7233
   3361.5000      3.0000      5.8420      0.7279   -999.2500      2.3856      0.2721      0.1680      0.3872      0.4639   -999.2500      5.8420      1.5646      7.5650    -23.5820    -60.0000      7.5650    -48.0550    -23.5820      0.1151      0.2302      0.2302      0.7279
   3362.0000      3.0000      5.6190      0.7261   -999.2500      2.3768      0.2739      0.1681      0.3876      0.4646   -999.2500      5.6190      1.5502      7.3840    -23.8029    -60.0000      7.3840    -48.2688    -23.8029      0.1137      0.2275      0.2275      0.7261
   3362.5000      3.0000      5.4610      0.7088   -999.2500      2.2927      0.2912      0.1694      0.3917      0.4717   -999.2500      5.4610      1.4206      7.2780    -25.9083    -60.0000      7.2780    -50.3671    -25.9083      0.1006      0.2011      0.2011      0.6705
   3363.0000      2.0000      5.3030      0.6906   -999.2500      2.2037      0.3094      0.1708      0.3961      0.4792   -999.2500      5.3030      1.2984      7.1710    -28.1334    -60.0000      7.1710    -52.5852    -28.1334      0.0867      0.1733      0.1733      0.5778
   3363.5000      2.0000      5.2720      0.6808   -999.2500      2.1561      0.3192      0.1715      0.3984      0.4832   -999.2500      5.2720      1.2386      7.2480    -29.3243    -60.0000      7.2480    -53.7690    -29.3243      0.0792      0.1584      0.1584      0.5282
   3364.0000      2.0000      5.2410      0.6708   -999.2500      2.1071      0.3292      0.1722      0.4008      0.4874   -999.2500      5.2410      1.1806      7.3260    -31.3781    -60.0000      7.3260    -55.8158    -31.3781      0.0716      0.1431      0.1431      0.4770
   3364.5000      2.0000      5.2420      0.6638   -999.2500      2.0729      0.3362      0.1728      0.4024      0.4902   -999.2500      5.2420      1.1423      7.8850    -33.5171    -60.0000      7.8850    -57.9477    -33.5171      0.0662      0.1324      0.1324      0.4414
   3365.0000      2.0000      5.2440      0.6549   -999.2500      2.0294      0.3451      0.1734      0.4045      0.4939   -999.2500      5.2440      1.0958      8.3890    -36.2394    -60.0000      8.3890    -60.6629    -36.2394      0.0594      0.1188      0.1188      0.3960
   3365.5000      2.0000      5.3060      0.6453   -999.2500      1.9821      0.3547      0.1742      0.4067      0.4979   -999.2500      5.3060      1.0480      8.9870    -39.1992    -60.0000      8.9870    -63.6157    -39.1992      0.0520      0.1040      0.1040      0.3467
   3366.0000      1.0000      5.3500      0.6350   -999.2500      1.9576      0.3650      0.1749      0.4091      0.5021   -999.2500      5.3500      1.0236      9.6280    -42.3350    -60.0000      9.6280    -66.7445    -42.3350      0.0442      0.0883      0.0883      0.2944
   3366.5000      1.0000      5.3570      0.6275   -999.2500      1.9460      0.3725      0.1755      0.4109      0.5052   -999.2500      5.3570      1.0119     10.2680    -44.6588    -60.0000     10.2680    -69.0611    -44.6588      0.0384      0.0767      0.0767      0.2557
