~V
VERS. 2.00: Ver 2.00
WRAP.   NO:        
~W
 STRT.FT 670:
 STOP.FT 4026:
 STEP.FT 0.5:
 NULL. -999.250000:
 COMP. Shell (SWEPI):Company
 WELL. UNION 76-31:Well
 FLD. :Field
 LOC. S31 T11N R22W:Location
 STAT. CA:State
 SRVC. :Service Company
 SON. :Service Order #
 DATE. :Log Date
 UWI. 1371200:Unique Well ID
~C
 DEPT.FT :
 FACE. :
 LN.OHMM :
 LTHE. :
 MCRV. :
 MM. :
 PHES. :
 PHMX. :
 PHTS. :
 PHZC. :
 PXXX. :
 RD.OHMM :
 ROS. :
 RS.OHMM :
 SBL.MV :
 SCLN. :
 SN.OHMM :
 SP.MV :
 SPN. :
 VCDS. :
 VCLY. :
 VCWS. :
 VSHS. :
~P
~A
# ...
   1337.0000      3.0000      2.0990      0.7693   -999.2500      2.7080      0.2307      0.1694      0.4144      0.4714      0.2135      2.0990      2.4011      2.1030    -15.7750    -75.0000      2.1030    -23.7750    -15.7750      0.1836      0.3673      0.3673      0.7693
   1337.5000      3.0000      1.9930      0.7709   -999.2500      2.7091      0.2291      0.1692      0.4139      0.4707      0.2133      1.9930      2.4082      2.0310    -15.5260    -75.0000      2.0310    -23.5260    -15.5260      0.1849      0.3697      0.3697      0.7709
   1338.0000      3.0000      1.9830      0.7724   -999.2500      2.7101      0.2276      0.1691      0.4136      0.4701      0.2131      1.9830      2.4144      2.0300    -15.3080    -75.0000      2.0300    -23.3080    -15.3080      0.1860      0.3719      0.3719      0.7724
   1338.5000      3.0000      1.9730      0.7738   -999.2500      2.7111      0.2262      0.1690      0.4132      0.4695      0.2129      1.9730      2.4207      2.0290    -15.0900    -75.0000      2.0290    -23.0900    -15.0900      0.1871      0.3741      0.3741      0.7738
   1339.0000      3.0000      1.9950      0.7749   -999.2500      2.7118      0.2251      0.1689      0.4129      0.4691      0.2127      1.9950      2.4251      2.0380    -14.9340    -75.0000      2.0380    -22.9340    -14.9340      0.1878      0.3757      0.3757      0.7749
   1339.5000      3.0000      2.0180      0.7763   -999.2500      2.7128      0.2237      0.1688      0.4126      0.4685      0.2124      2.0180      2.4314      2.0460    -14.7160    -75.0000      2.0460    -22.7160    -14.7160      0.1889      0.3778      0.3778      0.7763
   1340.0000      3.0000      2.0490      0.7774   -999.2500      2.7136      0.2226      0.1687      0.4123      0.4681      0.2120      2.0490      2.4358      2.0540    -14.5630    -75.0000      2.0540    -22.5630    -14.5630      0.1897      0.3794      0.3794      0.7774
   1340.5000      3.0000      2.0810      0.7778   -999.2500      2.7138      0.2222      0.1687      0.4122      0.4679      0.2118      2.0810      2.4375      2.0720    -14.5020    -75.0000      2.0720    -22.5020    -14.5020      0.1900      0.3800      0.3800      0.7778
   1341.0000      3.0000      2.1170      0.7760   -999.2500      2.7126      0.2240      0.1688      0.4126      0.4686      0.2124      2.1170      2.4295      2.0890    -14.7730    -75.0000      2.0890    -22.7730    -14.7730      0.1886      0.3773      0.3773      0.7760
   1341.5000      3.0000      2.1540      0.7742   -999.2500      2.7113      0.2258      0.1690      0.4131      0.4694      0.2127      2.1540      2.4215      2.1070    -15.0440    -75.0000      2.1070    -23.0440    -15.0440      0.1873      0.3746      0.3746      0.7742
   1342.0000      3.0000      2.1670      0.7650   -999.2500      2.7049      0.2350      0.1697      0.4153      0.4731      0.2140      2.1670      2.3813      2.1280    -16.4420    -75.0000      2.1280    -24.4420    -16.4420      0.1803      0.3606      0.3606      0.7650
   1342.5000      3.0000      2.1800      0.7639   -999.2500      2.7041      0.2361      0.1697      0.4156      0.4735      0.2141      2.1800      2.3767      2.1490    -16.6020    -75.0000      2.1490    -24.6020    -16.6020      0.1795      0.3590      0.3590      0.7639
   1343.0000      3.0000      2.1970      0.7635   -999.2500      2.7038      0.2365      0.1698      0.4157      0.4737      0.2142      2.1970      2.3748      2.1700    -16.6680    -75.0000      2.1700    -24.6680    -16.6680      0.1792      0.3583      0.3583      0.7635
   1343.5000      3.0000      2.1820      0.7633   -999.2500      2.7037      0.2367      0.1698      0.4157      0.4738      0.2142      2.1820      2.3737      2.1990    -16.7030    -75.0000      2.1990    -24.7030    -16.7030      0.1790      0.3580      0.3580      0.7633
   1344.0000      3.0000      2.1670      0.7639   -999.2500      2.7041      0.2361      0.1697      0.4156      0.4735      0.2141      2.1670      2.3762      2.2290    -16.6110    -75.0000      2.2290    -24.6110    -16.6110      0.1794      0.3589      0.3589      0.7639
   1344.5000      3.0000      2.1470      0.7645   -999.2500      2.7045      0.2355      0.1697      0.4154      0.4733      0.2140      2.1470      2.3788      2.2580    -16.5190    -75.0000      2.2580    -24.5190    -16.5190      0.1799      0.3598      0.3598      0.7645
   1345.0000      3.0000      2.0890      0.7670   -999.2500      2.7062      0.2330      0.1695      0.4148      0.4723      0.2136      2.0890      2.3893      2.2880    -16.1460    -75.0000      2.2880    -24.1460    -16.1460      0.1818      0.3635      0.3635      0.7670
   1345.5000      3.0000      1.9990      0.7699   -999.2500      2.7083      0.2301      0.1693      0.4140      0.4711      0.2132      1.9990      2.4017      2.3300    -15.7070    -75.0000      2.3300    -23.7070    -15.7070      0.1840      0.3679      0.3679      0.7699
   1346.0000      3.0000      1.9090      0.7747   -999.2500      2.7116      0.2253      0.1689      0.4129      0.4691      0.2125      1.9090      2.4225      2.3730    -14.9840    -75.0000      2.3730    -22.9840    -14.9840      0.1876      0.3752      0.3752      0.7747
   1346.5000      3.0000      1.7290      0.7788   -999.2500      2.7145      0.2212      0.1686      0.4118      0.4674      0.2111      1.7290      2.4404      2.4160    -14.3690    -75.0000      2.4160    -22.3690    -14.3690      0.1907      0.3813      0.3813      0.7788
   1347.0000      3.0000      1.7740      0.7829   -999.2500      2.7173      0.2171      0.1683      0.4108      0.4658      0.2097      1.7740      2.4585      2.4550    -13.7550    -75.0000      2.4550    -21.7550    -13.7550      0.1937      0.3875      0.3875      0.7829
   1347.5000      4.0000      1.8250      0.7921   -999.2500      2.7237      0.2079      0.1676      0.4085      0.4620      0.2064      1.8250      2.5003      2.4950    -12.3700    -75.0000      2.4950    -20.3700    -12.3700      0.2007      0.4013      0.4013      0.7921
   1348.0000      4.0000      1.8760      0.7947   -999.2500      2.7255      0.2053      0.1674      0.4079      0.4609      0.2055      1.8760      2.5122      2.5350    -11.9780    -75.0000      2.5350    -19.9780    -11.9780      0.2026      0.4052      0.4052      0.7947
   1348.5000      4.0000      2.1750      0.7974   -999.2500      2.7273      0.2026      0.1672      0.4072      0.4599      0.2046      2.1750      2.5243      2.6170    -11.5850    -75.0000      2.6170    -19.5850    -11.5850      0.2046      0.4092      0.4092      0.7974
   1349.0000      4.0000      2.4750      0.8005   -999.2500      2.7295      0.1995      0.1670      0.4064      0.4586      0.2035      2.4750      2.5388      2.6780    -11.1170    -75.0000      2.6780    -19.1170    -11.1170      0.2069      0.4138      0.4138      0.8005
   1349.5000      4.0000      2.8370      0.7995   -999.2500      2.7288      0.2005      0.1671      0.4066      0.4590      0.2038      2.8370      2.5342      2.7380    -11.2610    -75.0000      2.7380    -19.2610    -11.2610      0.2062      0.4124      0.4124      0.7995
   1350.0000      4.0000      3.1980      0.7986   -999.2500      2.7281      0.2014      0.1672      0.4069      0.4593      0.2041      3.1980      2.5296      3.0470    -11.4060    -75.0000      3.0470    -19.4060    -11.4060      0.2055      0.4109      0.4109      0.7986
   1350.5000      3.0000      4.5600      0.7891   -999.2500      2.7215      0.2109      0.1679      0.4092      0.4632      0.2073      4.5600      2.4857      3.5820    -12.8310    -75.0000      3.5820    -20.8310    -12.8310      0.1983      0.3967      0.3967      0.7891
   1351.0000      3.0000     11.7250      0.7677   -999.2500      2.7067      0.2323      0.1694      0.4145      0.4719      0.2134     11.7250      2.3909      3.9760    -16.0550    -75.0000      3.9760    -24.0550    -16.0550      0.1822      0.3645      0.3645      0.7677
