~V
VERS. 2.00: Ver 2.00
WRAP.   NO:        
~W
 STRT.FT 670:
 STOP.FT 4026:
 STEP.FT 0.5:
 NULL. -999.250000:
 COMP. Shell (SWEPI):Company
 WELL. UNION 76-31:Well
 FLD. :Field
 LOC. S31 T11N R22W:Location
 STAT. CA:State
 SRVC. :Service Company
 SON. :Service Order #
 DATE. :Log Date
 UWI. 1371200:Unique Well ID
~C
 DEPT.FT :
 FACE. :
 LN.OHMM :
 LTHE. :
 MCRV. :
 MM. :
 PHES. :
 PHMX. :
 PHTS. :
 PHZC. :
 PXXX. :
 RD.OHMM :
 ROS. :
 RS.OHMM :
 SBL.MV :
 SCLN. :
 SN.OHMM :
 SP.MV :
 SPN. :
 VCDS. :
 VCLY. :
 VCWS. :
 VSHS. :
~P
~A
# ...
   1119.5000      3.0000      2.4680      0.7558      2.7883      2.7023      0.2442      0.1708      0.4217      0.4795   -999.2500      2.4680      2.4027      2.5220     -4.8020    -21.1924      2.5220    -12.8020     -4.8020      0.1775      0.3551      0.3551      0.7558
   1120.0000      3.0000      2.4580      0.7558      2.7883      2.7023      0.2442      0.1708      0.4217      0.4795   -999.2500      2.4580      2.4026      2.5180     -4.8020    -21.1910      2.5180    -12.8020     -4.8020      0.1775      0.3550      0.3550      0.7558
   1120.5000      3.0000      2.4480      0.7558      2.7883      2.7023      0.2442      0.1708      0.4217      0.4795   -999.2500      2.4480      2.4025      2.5140     -4.8020    -21.1896      2.5140    -12.8020     -4.8020      0.1775      0.3550      0.3550      0.7558
   1121.0000      3.0000      2.4330      0.7418      2.7792      2.6480      0.2582      0.1719      0.4251      0.4852   -999.2500      2.4330      2.2539      2.4980     -5.4030    -21.1883      2.4980    -13.4030     -5.4030      0.1669      0.3338      0.3338      0.7418
   1121.5000      3.0000      2.4180      0.7277      2.7700      2.5799      0.2723      0.1729      0.4285      0.4910   -999.2500      2.4180      2.0923      2.4810     -6.0040    -21.1869      2.4810    -14.0040     -6.0040      0.1562      0.3125      0.3125      0.7277
   1122.0000      3.0000      2.4030      0.7055      2.7555      2.4721      0.2945      0.1746      0.4339      0.5000   -999.2500      2.4030      1.8650      2.4640     -6.9550    -21.1855      2.4640    -14.9550     -6.9550      0.1394      0.2788      0.2788      0.7055
   1122.5000      3.0000      2.3880      0.7202      2.7651      2.5434      0.2798      0.1735      0.4303      0.4940   -999.2500      2.3880      2.0116      2.4450     -6.3250    -21.1841      2.4450    -14.3250     -6.3250      0.1505      0.3011      0.3011      0.7202
   1123.0000      3.0000      2.3680      0.7257      2.7687      2.5702      0.2743      0.1730      0.4290      0.4917   -999.2500      2.3680      2.0704      2.4250     -6.0880    -21.1828      2.4250    -14.0880     -6.0880      0.1547      0.3094      0.3094      0.7257
   1123.5000      3.0000      2.4490      0.7313      2.7723      2.5972      0.2687      0.1726      0.4276      0.4895   -999.2500      2.4490      2.1316      2.4650     -5.8500    -21.1814      2.4650    -13.8500     -5.8500      0.1589      0.3179      0.3179      0.7313
   1124.0000      3.0000      2.5300      0.7401      2.7780      2.6397      0.2599      0.1720      0.4255      0.4859   -999.2500      2.5300      2.2330      2.5050     -5.4740    -21.1800      2.5050    -13.4740     -5.4740      0.1656      0.3312      0.3312      0.7401
   1124.5000      3.0000      2.6100      0.7398      2.7778      2.6380      0.2602      0.1720      0.4255      0.4860   -999.2500      2.6100      2.2287      2.5450     -5.4890    -21.1786      2.5450    -13.4890     -5.4890      0.1653      0.3306      0.3306      0.7398
   1125.0000      3.0000      2.6570      0.7394      2.7776      2.6361      0.2606      0.1720      0.4256      0.4861   -999.2500      2.6570      2.2240      2.5910     -5.5050    -21.1773      2.5910    -13.5050     -5.5050      0.1650      0.3300      0.3300      0.7394
   1125.5000      3.0000      2.7030      0.7372      2.7761      2.6253      0.2628      0.1722      0.4262      0.4870   -999.2500      2.7030      2.1978      2.6370     -5.6000    -21.1759      2.6370    -13.6000     -5.6000      0.1633      0.3267      0.3267      0.7372
   1126.0000      3.0000      2.7680      0.7349      2.7746      2.6144      0.2651      0.1724      0.4267      0.4880   -999.2500      2.7680      2.1716      2.6790     -5.6960    -21.1745      2.6790    -13.6960     -5.6960      0.1616      0.3232      0.3232      0.7349
   1126.5000      3.0000      2.8040      0.7378      2.7765      2.6284      0.2622      0.1721      0.4260      0.4868   -999.2500      2.8040      2.2050      2.7210     -5.5720    -21.1732      2.7210    -13.5720     -5.5720      0.1638      0.3276      0.3276      0.7378
   1127.0000      3.0000      2.8410      0.7408      2.7784      2.6424      0.2592      0.1719      0.4253      0.4856   -999.2500      2.8410      2.2392      2.7940     -5.4480    -21.1718      2.7940    -13.4480     -5.4480      0.1660      0.3320      0.3320      0.7408
   1127.5000      3.0000      2.8550      0.7437      2.7803      2.6568      0.2563      0.1717      0.4245      0.4843   -999.2500      2.8550      2.2748      2.8590     -5.3210    -21.1704      2.8590    -13.3210     -5.3210      0.1682      0.3365      0.3365      0.7437
   1128.0000      3.0000      2.8680      0.7467      2.7823      2.6710      0.2533      0.1715      0.4238      0.4831   -999.2500      2.8680      2.3108      2.8860     -5.1950    -21.1690      2.8860    -13.1950     -5.1950      0.1705      0.3409      0.3409      0.7467
   1128.5000      3.0000      2.8580      0.7541      2.7870      2.7010      0.2459      0.1709      0.4220      0.4801   -999.2500      2.8580      2.3924      2.9140     -4.8810    -21.1677      2.9140    -12.8810     -4.8810      0.1760      0.3521      0.3521      0.7541
   1129.0000      3.0000      2.8470      0.7578      2.7894      2.7035      0.2422      0.1707      0.4210      0.4786   -999.2500      2.8470      2.4086      2.9130     -4.7230    -21.1663      2.9130    -12.7230     -4.7230      0.1788      0.3576      0.3576      0.7578
   1129.5000      3.0000      2.8400      0.7615      2.7919      2.7061      0.2385      0.1704      0.4201      0.4771   -999.2500      2.8400      2.4250      2.9120     -4.5650    -21.1649      2.9120    -12.5650     -4.5650      0.1816      0.3632      0.3632      0.7615
   1130.0000      3.0000      2.8330      0.7659      2.7947      2.7091      0.2341      0.1701      0.4190      0.4753   -999.2500      2.8330      2.4446      2.8930     -4.3790    -21.1635      2.8930    -12.3790     -4.3790      0.1849      0.3698      0.3698      0.7659
   1130.5000      3.0000      2.8270      0.7533      2.7865      2.7004      0.2467      0.1710      0.4221      0.4804   -999.2500      2.8270      2.3883      2.8780     -4.9160    -21.1622      2.8780    -12.9160     -4.9160      0.1754      0.3508      0.3508      0.7533
   1131.0000      3.0000      2.8260      0.7407      2.7783      2.6415      0.2593      0.1719      0.4252      0.4856   -999.2500      2.8260      2.2363      2.8630     -5.4530    -21.1608      2.8630    -13.4530     -5.4530      0.1659      0.3317      0.3317      0.7407
   1131.5000      3.0000      2.8250      0.7154      2.7618      2.5192      0.2846      0.1738      0.4313      0.4959   -999.2500      2.8250      1.9590      2.8340     -6.5310    -21.1594      2.8340    -14.5310     -6.5310      0.1468      0.2935      0.2935      0.7154
   1132.0000      3.0000      2.8190      0.7106      2.7587      2.4959      0.2894      0.1741      0.4325      0.4978   -999.2500      2.8190      1.9110      2.8040     -6.7360    -21.1581      2.8040    -14.7360     -6.7360      0.1431      0.2862      0.2862      0.7106
   1132.5000      3.0000      2.8130      0.7058      2.7556      2.4727      0.2942      0.1745      0.4336      0.4998   -999.2500      2.8130      1.8647      2.7990     -6.9400    -21.1567      2.7990    -14.9400     -6.9400      0.1395      0.2790      0.2790      0.7058
   1133.0000      3.0000      2.8090      0.7161      2.7623      2.5225      0.2839      0.1737      0.4311      0.4956   -999.2500      2.8090      1.9656      2.7940     -6.5010    -21.1553      2.7940    -14.5010     -6.5010      0.1473      0.2945      0.2945      0.7161
   1133.5000      3.0000      2.8060      0.7242      2.7675      2.5617      0.2758      0.1731      0.4292      0.4922   -999.2500      2.8060      2.0498      2.8110     -6.1550    -21.1539      2.8110    -14.1550     -6.1550      0.1534      0.3068      0.3068      0.7242
