~V
VERS. 2.00: Ver 2.00
WRAP.   NO:        
~W
 STRT.FT 670:
 STOP.FT 4026:
 STEP.FT 0.5:
 NULL. -999.250000:
 COMP. Shell (SWEPI):Company
 WELL. UNION 76-31:Well
 FLD. :Field
 LOC. S31 T11N R22W:Location
 STAT. CA:State
 SRVC. :Service Company
 SON. :Service Order #
 DATE. :Log Date
 UWI. 1371200:Unique Well ID
~C
 DEPT.FT :
 FACE. :
 LN.OHMM :
 LTHE. :
 MCRV. :
 MM. :
 PHES. :
 PHMX. :
 PHTS. :
 PHZC. :
 PXXX. :
 RD.OHMM :
 ROS. :
 RS.OHMM :
 SBL.MV :
 SCLN. :
 SN.OHMM :
 SP.MV :
 SPN. :
 VCDS. :
 VCLY. :
 VCWS. :
 VSHS. :
~P
~A
# ...
   2004.0000      2.0000      2.4070      0.6467   -999.2500      2.0810      0.3533      0.1770      0.4316      0.5136      0.2226      2.4070      1.1991      2.3510    -36.8448    -75.0000      2.3510    -45.5540    -36.8448      0.0783      0.1566      0.1566      0.5218
   2004.5000      2.0000      2.3550      0.6492   -999.2500      2.0932      0.3508      0.1768      0.4310      0.5126      0.2223      2.3550      1.2131      2.2700    -36.4627    -75.0000      2.2700    -45.1740    -36.4627      0.0802      0.1604      0.1604      0.5346
   2005.0000      2.0000      2.2930      0.6548   -999.2500      2.1205      0.3452      0.1764      0.4296      0.5103      0.2217      2.2930      1.2453      2.1990    -35.6085    -75.0000      2.1990    -44.3220    -35.6085      0.0845      0.1689      0.1689      0.5631
   2005.5000      2.0000      2.2310      0.6607   -999.2500      2.1489      0.3393      0.1760      0.4282      0.5079      0.2211      2.2310      1.2799      2.1280    -34.7203    -75.0000      2.1280    -43.4360    -34.7203      0.0889      0.1778      0.1778      0.5927
   2006.0000      3.0000      2.1790      0.6750   -999.2500      2.2188      0.3250      0.1749      0.4248      0.5020      0.2196      2.1790      1.3704      2.0430    -32.5372    -75.0000      2.0430    -41.2550    -32.5372      0.0998      0.1996      0.1996      0.6654
   2006.5000      3.0000      2.1270      0.6860   -999.2500      2.2725      0.3140      0.1741      0.4222      0.4974      0.2185      2.1270      1.4455      1.9570    -30.8590    -75.0000      1.9570    -39.5790    -30.8590      0.1082      0.2164      0.2164      0.6860
   2007.0000      3.0000      2.0690      0.6967   -999.2500      2.3242      0.3033      0.1733      0.4196      0.4931      0.2174      2.0690      1.5228      1.9030    -29.2448    -75.0000      1.9030    -37.9670    -29.2448      0.1163      0.2326      0.2326      0.6967
   2007.5000      3.0000      2.0120      0.7092   -999.2500      2.3849      0.2908      0.1723      0.4166      0.4879      0.2161      2.0120      1.6205      1.8490    -27.3477    -75.0000      1.8490    -36.0720    -27.3477      0.1258      0.2515      0.2515      0.7092
   2008.0000      3.0000      1.9640      0.7128   -999.2500      2.4022      0.2872      0.1721      0.4157      0.4864      0.2157      1.9640      1.6498      1.7950    -26.8055    -75.0000      1.7950    -35.5320    -26.8055      0.1285      0.2569      0.2569      0.7128
   2008.5000      3.0000      2.0390      0.7130   -999.2500      2.4033      0.2870      0.1721      0.4157      0.4863      0.2157      2.0390      1.6516      1.8420    -26.7724    -75.0000      1.8420    -35.5010    -26.7724      0.1286      0.2573      0.2573      0.7130
   2009.0000      2.0000      2.1280      0.6545   -999.2500      2.1183      0.3455      0.1764      0.4296      0.5104      0.2218      2.1280      1.2424      1.8880    -35.6792    -75.0000      1.8880    -44.4100    -35.6792      0.0841      0.1682      0.1682      0.5607
   2009.5000      2.0000      2.2160      0.6495   -999.2500      2.0941      0.3505      0.1768      0.4308      0.5124      0.2223      2.2160      1.2139      2.0470    -36.4340    -75.0000      2.0470    -45.1670    -36.4340      0.0803      0.1607      0.1607      0.5355
   2010.0000      2.0000      2.2960      0.6491   -999.2500      2.0922      0.3509      0.1768      0.4309      0.5126      0.2223      2.2960      1.2116      2.2060    -36.4949    -75.0000      2.2060    -45.2300    -36.4949      0.0800      0.1601      0.1601      0.5335
   2010.5000      2.0000      2.3750      0.6572   -999.2500      2.1317      0.3428      0.1762      0.4290      0.5092      0.2215      2.3750      1.2584      2.2990    -35.2607    -75.0000      2.2990    -43.9980    -35.2607      0.0862      0.1724      0.1724      0.5746
   2011.0000      3.0000      2.3680      0.6705   -999.2500      2.1965      0.3295      0.1752      0.4258      0.5037      0.2201      2.3680      1.3403      2.3930    -33.2355    -75.0000      2.3930    -41.9750    -33.2355      0.0963      0.1926      0.1926      0.6421
   2011.5000      3.0000      2.3620      0.6807   -999.2500      2.2461      0.3193      0.1745      0.4233      0.4995      0.2190      2.3620      1.4077      2.3270    -31.6834    -75.0000      2.3270    -40.4250    -31.6834      0.1041      0.2082      0.2082      0.6807
   2012.0000      3.0000      2.3550      0.6912   -999.2500      2.2968      0.3088      0.1737      0.4208      0.4953      0.2179      2.3550      1.4809      2.2610    -30.1002    -75.0000      2.2610    -38.8440    -30.1002      0.1120      0.2240      0.2240      0.6912
   2012.5000      3.0000      2.2600      0.7093   -999.2500      2.3848      0.2907      0.1723      0.4165      0.4878      0.2161      2.2600      1.6201      2.1560    -27.3491    -75.0000      2.1560    -36.0950    -27.3491      0.1258      0.2515      0.2515      0.7093
   2013.0000      3.0000      2.1650      0.7214   -999.2500      2.4436      0.2786      0.1714      0.4135      0.4829      0.2148      2.1650      1.7222      2.0520    -25.5139    -75.0000      2.0520    -34.2620    -25.5139      0.1349      0.2699      0.2699      0.7214
   2013.5000      3.0000      2.1130      0.7275   -999.2500      2.4730      0.2725      0.1710      0.4121      0.4804      0.2142      2.1130      1.7763      2.0650    -24.5947    -75.0000      2.0650    -33.3450    -24.5947      0.1395      0.2791      0.2791      0.7275
   2014.0000      3.0000      2.0600      0.7288   -999.2500      2.4792      0.2712      0.1709      0.4117      0.4798      0.2140      2.0600      1.7880      2.0780    -24.4006    -75.0000      2.0780    -33.1530    -24.4006      0.1405      0.2810      0.2810      0.7288
   2014.5000      3.0000      2.0590      0.7236   -999.2500      2.4540      0.2764      0.1713      0.4130      0.4819      0.2146      2.0590      1.7411      2.1810    -25.1874    -75.0000      2.1810    -33.9420    -25.1874      0.1366      0.2731      0.2731      0.7236
   2015.0000      3.0000      2.1900      0.7030   -999.2500      2.3540      0.2970      0.1728      0.4179      0.4904      0.2167      2.1900      1.5693      2.2370    -28.3132    -75.0000      2.2370    -37.0700    -28.3132      0.1209      0.2419      0.2419      0.7030
   2015.5000      3.0000      2.2550      0.6962   -999.2500      2.3208      0.3038      0.1733      0.4196      0.4932      0.2174      2.2550      1.5170      2.2940    -29.3511    -75.0000      2.2940    -38.1100    -29.3511      0.1157      0.2315      0.2315      0.6962
   2016.0000      3.0000      2.3010      0.6894   -999.2500      2.2875      0.3106      0.1738      0.4212      0.4960      0.2181      2.3010      1.4669      2.2920    -30.3899    -75.0000      2.2920    -39.1510    -30.3899      0.1106      0.2211      0.2211      0.6894
   2016.5000      3.0000      2.2590      0.6761   -999.2500      2.2229      0.3239      0.1748      0.4244      0.5014      0.2195      2.2590      1.3752      2.2070    -32.4108    -75.0000      2.2070    -41.1740    -32.4108      0.1004      0.2009      0.2009      0.6696
   2017.0000      3.0000      2.2160      0.6633   -999.2500      2.1602      0.3367      0.1758      0.4274      0.5067      0.2208      2.2160      1.2933      2.1220    -34.3686    -75.0000      2.1220    -43.1340    -34.3686      0.0907      0.1813      0.1813      0.6044
   2017.5000      2.0000      2.1310      0.6607   -999.2500      2.1477      0.3393      0.1759      0.4280      0.5077      0.2211      2.1310      1.2777      2.0360    -34.7584    -75.0000      2.0360    -43.5260    -34.7584      0.0887      0.1774      0.1774      0.5914
   2018.0000      2.0000      2.0460      0.6582   -999.2500      2.1352      0.3418      0.1761      0.4286      0.5088      0.2214      2.0460      1.2623      2.0260    -35.1493    -75.0000      2.0260    -43.9190    -35.1493      0.0868      0.1735      0.1735      0.5784
