~V
VERS. 2.00: Ver 2.00
WRAP.   NO:        
~W
 STRT.FT 670:
 STOP.FT 4026:
 STEP.FT 0.5:
 NULL. -999.250000:
 COMP. Shell (SWEPI):Company
 WELL. UNION 76-31:Well
 FLD. :Field
 LOC. S31 T11N R22W:Location
 STAT. CA:State
 SRVC. :Service Company
 SON. :Service Order #
 DATE. :Log Date
 UWI. 1371200:Unique Well ID
~C
 DEPT.FT :
 FACE. :
 LN.OHMM :
 LTHE. :
 MCRV. :
 MM. :
 PHES. :
 PHMX. :
 PHTS. :
 PHZC. :
 PXXX. :
 RD.OHMM :
 ROS. :
 RS.OHMM :
 SBL.MV :
 SCLN. :
 SN.OHMM :
 SP.MV :
 SPN. :
 VCDS. :
 VCLY. :
 VCWS. :
 VSHS. :
~P
~A
# ...
   4019.5000      1.0000      4.0260      0.5951   -999.2500      1.9244      0.4049      0.1765      0.4063      0.5108   -999.2500      4.0260      0.9901      7.6660    -59.4229    -60.0000      7.6660    -93.4229    -59.4229      0.0014      0.0029      0.0029      0.0096
   4020.0000      1.0000      4.0920      0.6102   -999.2500      1.9478      0.3898      0.1754      0.4029      0.5045   -999.2500      4.0920      1.0107      7.8170    -54.7699    -60.0000      7.8170    -88.7699    -54.7699      0.0131      0.0262      0.0262      0.0872
   4020.5000      1.0000      4.1680      0.6072   -999.2500      1.9431      0.3928      0.1756      0.4036      0.5058   -999.2500      4.1680      1.0065      7.8840    -55.7130    -60.0000      7.8840    -89.7130    -55.7130      0.0107      0.0214      0.0214      0.0714
   4021.0000      1.0000      4.2050      0.6035   -999.2500      1.9375      0.3965      0.1759      0.4044      0.5073   -999.2500      4.2050      1.0015      7.9500    -56.8312    -60.0000      7.9500    -90.8312    -56.8312      0.0079      0.0158      0.0158      0.0528
   4021.5000      1.0000      4.2140      0.5998   -999.2500      1.9318      0.4002      0.1761      0.4052      0.5088   -999.2500      4.2140      0.9964      7.9490    -57.9932    -60.0000      7.9490    -91.9932    -57.9932      0.0050      0.0100      0.0100      0.0334
   4022.0000      1.0000      4.2040      0.5962   -999.2500      1.9262      0.4038      0.1764      0.4061      0.5103   -999.2500      4.2040      0.9916      7.6630    -59.1067    -60.0000      7.6630    -93.1067    -59.1067      0.0022      0.0045      0.0045      0.0149
   4022.5000      1.0000      4.1940      0.5933   -999.2500      1.9218      0.4067      0.1766      0.4067      0.5115   -999.2500      4.1940      0.9878      7.3770    -60.1436    -60.0000      7.3770    -94.1436    -60.1436      0.0000      0.0000      0.0000      0.0000
   4023.0000      1.0000      3.9650      0.5933   -999.2500      1.9218      0.4067      0.1766      0.4067      0.5115   -999.2500      3.9650      0.9879      6.0610    -61.1597    -60.0000      6.0610    -95.1597    -61.1597      0.0000      0.0000      0.0000      0.0000
   4023.5000      1.0000      3.6780      0.5933   -999.2500      1.9219      0.4067      0.1766      0.4067      0.5115   -999.2500      3.6780      0.9879      5.2980    -62.2052    -60.0000      5.2980    -96.2052    -62.2052      0.0000      0.0000      0.0000      0.0000
   4024.0000      1.0000      3.4490      0.5933   -999.2500      1.9219      0.4067      0.1766      0.4067      0.5115   -999.2500      3.4490      0.9879      4.9830    -63.1550    -60.0000      4.9830    -97.1550    -63.1550      0.0000      0.0000      0.0000      0.0000
   4024.5000      4.0000      3.2200      0.8500   -999.2500   -999.2500      0.1500 49090916870222007100000000000.0000      0.5000 270000019174388625000000000000.0000   -999.2500      3.2200      0.4940      4.8630   -999.2500    -60.0000      4.8630   -999.2500   -999.2500      0.3500   -999.2500      0.7000      0.8500
   4025.0000      4.0000   -999.2500      1.0000   -999.2500   -999.2500      0.0000 49090916870222007100000000000.0000      0.5000 270000019174388625000000000000.0000   -999.2500   -999.2500      0.4939      4.7440   -999.2500    -60.0000      4.7440   -999.2500   -999.2500      0.3500   -999.2500      0.7000      1.0000
   4025.5000      4.0000   -999.2500      1.0000   -999.2500 -1000000166163193670000000000000.0000      0.0000 49090916870222007100000000000.0000      0.5000 270000019174388625000000000000.0000   -999.2500   -999.2500      0.4939   -999.2500   -999.2500    -60.0000   -999.2500   -999.2500   -999.2500      0.3500   -999.2500      0.7000      1.0000
   4026.0000      4.0000   -999.2500      1.0000   -999.2500   -999.2500      0.0000 49090916870222007100000000000.0000      0.5000 270000019174388625000000000000.0000   -999.2500   -999.2500      0.4939   -999.2500   -999.2500    -60.0000   -999.2500   -999.2500   -999.2500      0.3500   -999.2500      0.7000      1.0000
