~V
VERS. 2.00: Ver 2.00
WRAP.   NO:        
~W
 STRT.FT 670:
 STOP.FT 4026:
 STEP.FT 0.5:
 NULL. -999.250000:
 COMP. Shell (SWEPI):Company
 WELL. UNION 76-31:Well
 FLD. :Field
 LOC. S31 T11N R22W:Location
 STAT. CA:State
 SRVC. :Service Company
 SON. :Service Order #
 DATE. :Log Date
 UWI. 1371200:Unique Well ID
~C
 DEPT.FT :
 FACE. :
 LN.OHMM :
 LTHE. :
 MCRV. :
 MM. :
 PHES. :
 PHMX. :
 PHTS. :
 PHZC. :
 PXXX. :
 RD.OHMM :
 ROS. :
 RS.OHMM :
 SBL.MV :
 SCLN. :
 SN.OHMM :
 SP.MV :
 SPN. :
 VCDS. :
 VCLY. :
 VCWS. :
 VSHS. :
~P
~A
    670.0000      3.0000   -999.2500      1.0000   -999.2500      2.7079      0.0000      0.1720      0.4308      0.4862   -999.2500   -999.2500      2.5383   -999.2500     -7.3720   -999.2500   -999.2500    -15.3720     -7.3720      0.1835      0.3670      0.3670      1.0000
    670.5000      3.0000   -999.2500      1.0000   -999.2500      2.5015      0.0000      0.1759      0.4436      0.5075   -999.2500   -999.2500      1.9984      1.3860    -11.0610   -999.2500      1.3860    -19.0610    -11.0610      0.1440      0.2880      0.2880      0.9599
    671.0000      3.0000   -999.2500      1.0000   -999.2500      2.3256      0.0000      0.1786      0.4523      0.5223   -999.2500   -999.2500      1.6638      3.2300    -13.6260   -999.2500      3.2300    -21.6260    -13.6260      0.1165      0.2330      0.2330      0.7767
    671.5000      3.0000   -999.2500      1.0000   -999.2500      2.2272      0.0000      0.1801      0.4571      0.5306   -999.2500   -999.2500      1.5069      4.1820    -15.0620   -999.2500      4.1820    -23.0620    -15.0620      0.1011      0.2022      0.2022      0.6741
    672.0000      2.0000   -999.2500      1.0000   -999.2500      2.1179      0.0000      0.1818      0.4624      0.5398   -999.2500   -999.2500      1.3539     10.1520    -16.6560   -999.2500     10.1520    -24.6560    -16.6560      0.0840      0.1681      0.1681      0.5603
    672.5000      2.0000   -999.2500      1.0000   -999.2500      2.0987      0.0000      0.1821      0.4633      0.5414   -999.2500   -999.2500      1.3291     11.7530    -16.9360   -999.2500     11.7530    -24.9360    -16.9360      0.0810      0.1621      0.1621      0.5403
    673.0000      2.0000   -999.2500      1.0000   -999.2500      2.0944      0.0000      0.1821      0.4635      0.5418   -999.2500   -999.2500      1.3235     12.5350    -16.9990   -999.2500     12.5350    -24.9990    -16.9990      0.0804      0.1607      0.1607      0.5358
    673.5000      2.0000   -999.2500      1.0000   -999.2500      2.0989      0.0000      0.1821      0.4633      0.5414   -999.2500   -999.2500      1.3292     13.3180    -16.9330   -999.2500     13.3180    -24.9330    -16.9330      0.0811      0.1622      0.1622      0.5405
    674.0000      2.0000   -999.2500      1.0000   -999.2500      2.1034      0.0000      0.1820      0.4631      0.5410   -999.2500   -999.2500      1.3349     14.4020    -16.8670   -999.2500     14.4020    -24.8670    -16.8670      0.0818      0.1636      0.1636      0.5452
    674.5000      2.0000   -999.2500      1.0000   -999.2500      2.1205      0.0000      0.1817      0.4622      0.5396   -999.2500   -999.2500      1.3570     14.2990    -16.6180   -999.2500     14.2990    -24.6180    -16.6180      0.0845      0.1689      0.1689      0.5630
    675.0000      2.0000   -999.2500      1.0000   -999.2500      2.1376      0.0000      0.1815      0.4614      0.5381   -999.2500   -999.2500      1.3796     12.3880    -16.3690   -999.2500     12.3880    -24.3690    -16.3690      0.0871      0.1742      0.1742      0.5808
    675.5000      2.0000   -999.2500      1.0000   -999.2500      2.1463      0.0000      0.1813      0.4610      0.5374   -999.2500   -999.2500      1.3913     11.9000    -16.2420   -999.2500     11.9000    -24.2420    -16.2420      0.0885      0.1770      0.1770      0.5899
    676.0000      3.0000   -999.2500      1.0000   -999.2500      2.1699      0.0000      0.1810      0.4598      0.5354   -999.2500   -999.2500      1.4237     11.3360    -15.8970   -999.2500     11.3360    -23.8970    -15.8970      0.0922      0.1844      0.1844      0.6145
    676.5000      3.0000   -999.2500      1.0000   -999.2500      2.1873      0.0000      0.1807      0.4589      0.5339   -999.2500   -999.2500      1.4480     10.8660    -15.6440   -999.2500     10.8660    -23.6440    -15.6440      0.0949      0.1898      0.1898      0.6326
    677.0000      3.0000   -999.2500      1.0000   -999.2500      2.2344      0.0000      0.1800      0.4566      0.5299   -999.2500   -999.2500      1.5170     10.5290    -14.9570   -999.2500     10.5290    -22.9570    -14.9570      0.1022      0.2045      0.2045      0.6816
    677.5000      3.0000   -999.2500      1.0000   -999.2500      2.2774      0.0000      0.1793      0.4545      0.5262   -999.2500   -999.2500      1.5837     10.2660    -14.3290   -999.2500     10.2660    -22.3290    -14.3290      0.1090      0.2180      0.2180      0.7265
    678.0000      3.0000   -999.2500      1.0000   -999.2500      2.3355      0.0000      0.1784      0.4516      0.5213   -999.2500   -999.2500      1.6796     10.0040    -13.4820   -999.2500     10.0040    -21.4820    -13.4820      0.1181      0.2361      0.2361      0.7870
    678.5000      3.0000   -999.2500      1.0000   -999.2500      2.3656      0.0000      0.1780      0.4501      0.5188   -999.2500   -999.2500      1.7320      9.7120    -13.0440   -999.2500      9.7120    -21.0440    -13.0440      0.1227      0.2455      0.2455      0.8183
    679.0000      3.0000   -999.2500      1.0000   -999.2500      2.3485      0.0000      0.1782      0.4510      0.5202   -999.2500   -999.2500      1.7018      9.6470    -13.2930   -999.2500      9.6470    -21.2930    -13.2930      0.1201      0.2402      0.2402      0.8005
    679.5000      2.0000   -999.2500      1.0000   -999.2500      1.9876      0.0000      0.1838      0.4685      0.5507   -999.2500   -999.2500      1.1956      9.9590    -20.1410   -999.2500      9.9590    -28.1410    -20.1410      0.0637      0.1274      0.1274      0.4245
    680.0000      2.0000   -999.2500      1.0000   -999.2500      1.9559      0.0000      0.1842      0.4700      0.5533   -999.2500   -999.2500      1.1608     10.5340    -21.2960   -999.2500     10.5340    -29.2960    -21.2960      0.0587      0.1175      0.1175      0.3915
    680.5000      2.0000     -0.1050      1.0000   -999.2500      1.9371      0.0000      0.1845      0.4709      0.5549   -999.2500     -0.1050      1.1408     11.1540    -21.9790   -999.2500     11.1540    -29.9790    -21.9790      0.0558      0.1116      0.1116      0.3720
    681.0000      2.0000      0.6280      0.5841   -999.2500      1.9330      0.4159      0.1846      0.4711      0.5552   -999.2500      0.6280      1.1364     11.7090    -22.1300   -999.2500     11.7090    -30.1300    -22.1300      0.0552      0.1103      0.1103      0.3677
    681.5000      2.0000      1.4000      0.5890   -999.2500      1.9571      0.4110      0.1842      0.4699      0.5532   -999.2500      1.4000      1.1620     12.4330    -21.2510   -999.2500     12.4330    -29.2510    -21.2510      0.0589      0.1178      0.1178      0.3928
    682.0000      2.0000      1.8320      0.5983   -999.2500      2.0027      0.4017      0.1835      0.4677      0.5493   -999.2500      1.8320      1.2124     12.7240    -19.5880   -999.2500     12.7240    -27.5880    -19.5880      0.0661      0.1321      0.1321      0.4403
    682.5000      2.0000      2.3860      0.6053   -999.2500      2.0368      0.3947      0.1830      0.4661      0.5464   -999.2500      2.3860      1.2518     12.9300    -18.3460   -999.2500     12.9300    -26.3460    -18.3460      0.0714      0.1427      0.1427      0.4758
    683.0000      2.0000      2.9970      0.6156   -999.2500      2.0872      0.3844      0.1822      0.4636      0.5422   -999.2500      2.9970      1.3132     12.9760    -17.1040   -999.2500     12.9760    -25.1040    -17.1040      0.0792      0.1585      0.1585      0.5283
    683.5000      3.0000      4.0790      0.6574   -999.2500      2.2910      0.3426      0.1791      0.4537      0.5250   -999.2500      4.0790      1.6046     12.8430    -14.1310   -999.2500     12.8430    -22.1310    -14.1310      0.1111      0.2222      0.2222      0.6574
    684.0000      3.0000      8.5780      0.6972   -999.2500      2.4844      0.3028      0.1761      0.4441      0.5086   -999.2500      8.5780      1.9598     11.9950    -11.3110   -999.2500     11.9950    -19.3110    -11.3110      0.1413      0.2826      0.2826      0.6972
