~V
VERS. 2.00: Ver 2.00
WRAP.   NO:        
~W
 STRT.FT 670:
 STOP.FT 4026:
 STEP.FT 0.5:
 NULL. -999.250000:
 COMP. Shell (SWEPI):Company
 WELL. UNION 76-31:Well
 FLD. :Field
 LOC. S31 T11N R22W:Location
 STAT. CA:State
 SRVC. :Service Company
 SON. :Service Order #
 DATE. :Log Date
 UWI. 1371200:Unique Well ID
~C
 DEPT.FT :
 FACE. :
 LN.OHMM :
 LTHE. :
 MCRV. :
 MM. :
 PHES. :
 PHMX. :
 PHTS. :
 PHZC. :
 PXXX. :
 RD.OHMM :
 ROS. :
 RS.OHMM :
 SBL.MV :
 SCLN. :
 SN.OHMM :
 SP.MV :
 SPN. :
 VCDS. :
 VCLY. :
 VCWS. :
 VSHS. :
~P
~A
# ...
   3802.0000      2.0000      3.9920      0.6714   -999.2500      2.0936      0.3286      0.1712      0.3926      0.4818   -999.2500      3.9920      1.1614     11.6270    -34.4099    -60.0000     11.6270    -69.3405    -34.4099      0.0640      0.1280      0.1280      0.4265
   3802.5000      2.0000      4.0140      0.6723   -999.2500      2.0982      0.3277      0.1712      0.3924      0.4814   -999.2500      4.0140      1.1666     11.7380    -34.1276    -60.0000     11.7380    -69.0539    -34.1276      0.0647      0.1294      0.1294      0.4312
   3803.0000      2.0000      4.0350      0.6712   -999.2500      2.0929      0.3288      0.1712      0.3926      0.4819   -999.2500      4.0350      1.1606     11.9230    -34.4603    -60.0000     11.9230    -69.3824    -34.4603      0.0638      0.1277      0.1277      0.4257
   3803.5000      2.0000      4.0290      0.6701   -999.2500      2.0872      0.3299      0.1713      0.3929      0.4823   -999.2500      4.0290      1.1542     12.0060    -34.8187    -60.0000     12.0060    -69.7366    -34.8187      0.0630      0.1259      0.1259      0.4197
   3804.0000      2.0000      4.0230      0.6692   -999.2500      2.0828      0.3308      0.1714      0.3931      0.4827   -999.2500      4.0230      1.1493     11.1960    -35.0930    -60.0000     11.1960    -70.0067    -35.0930      0.0623      0.1245      0.1245      0.4151
   3804.5000      2.0000      3.9640      0.6686   -999.2500      2.0798      0.3314      0.1714      0.3932      0.4829   -999.2500      3.9640      1.1459     10.3780    -35.2857    -60.0000     10.3780    -70.1951    -35.2857      0.0618      0.1236      0.1236      0.4119
   3805.0000      2.0000      3.8400      0.6694   -999.2500      2.0836      0.3306      0.1714      0.3930      0.4826   -999.2500      3.8400      1.1502      9.8500    -35.0470    -60.0000      9.8500    -69.9523    -35.0470      0.0624      0.1248      0.1248      0.4159
   3805.5000      2.0000      3.7200      0.6704   -999.2500      2.0888      0.3296      0.1713      0.3928      0.4822   -999.2500      3.7200      1.1560      9.2650    -34.7285    -60.0000      9.2650    -69.6296    -34.7285      0.0632      0.1264      0.1264      0.4212
   3806.0000      2.0000      3.6010      0.6715   -999.2500      2.0940      0.3285      0.1712      0.3925      0.4817   -999.2500      3.6010      1.1618      8.7840    -34.4081    -60.0000      8.7840    -69.3049    -34.4081      0.0640      0.1280      0.1280      0.4265
   3806.5000      2.0000      3.4720      0.6726   -999.2500      2.0992      0.3274      0.1711      0.3922      0.4813   -999.2500      3.4720      1.1677      8.3410    -34.0850    -60.0000      8.3410    -68.9776    -34.0850      0.0648      0.1296      0.1296      0.4319
   3807.0000      2.0000      3.3430      0.6732   -999.2500      2.1021      0.3268      0.1711      0.3921      0.4810   -999.2500      3.3430      1.1710      7.8560    -33.9033    -60.0000      7.8560    -68.7918    -33.9033      0.0652      0.1305      0.1305      0.4349
   3807.5000      2.0000      3.2470      0.6725   -999.2500      2.0987      0.3275      0.1711      0.3922      0.4813   -999.2500      3.2470      1.1671      7.3700    -34.1199    -60.0000      7.3700    -69.0041    -34.1199      0.0647      0.1294      0.1294      0.4313
   3808.0000      2.0000      3.1520      0.6708   -999.2500      2.0907      0.3292      0.1713      0.3926      0.4820   -999.2500      3.1520      1.1581      6.7390    -34.6228    -60.0000      6.7390    -69.5028    -34.6228      0.0634      0.1269      0.1269      0.4230
   3808.5000      2.0000      3.0180      0.6692   -999.2500      2.0825      0.3308      0.1714      0.3930      0.4826   -999.2500      3.0180      1.1489      6.5020    -35.1385    -60.0000      6.5020    -70.0143    -35.1385      0.0622      0.1243      0.1243      0.4144
   3809.0000      2.0000      2.9840      0.6677   -999.2500      2.0751      0.3323      0.1715      0.3933      0.4833   -999.2500      2.9840      1.1408      6.3880    -35.6006    -60.0000      6.3880    -70.4722    -35.6006      0.0610      0.1220      0.1220      0.4067
   3809.5000      2.0000      2.9490      0.6664   -999.2500      2.0689      0.3336      0.1716      0.3936      0.4838   -999.2500      2.9490      1.1339      6.8550    -35.9926    -60.0000      6.8550    -70.8600    -35.9926      0.0600      0.1200      0.1200      0.4001
   3810.0000      2.0000      2.9610      0.6653   -999.2500      2.0634      0.3347      0.1717      0.3939      0.4842   -999.2500      2.9610      1.1280      7.2530    -36.3350    -60.0000      7.2530    -71.1981    -36.3350      0.0592      0.1183      0.1183      0.3944
   3810.5000      2.0000      2.9730      0.6644   -999.2500      2.0589      0.3356      0.1717      0.3941      0.4846   -999.2500      2.9730      1.1231      7.6500    -36.6213    -60.0000      7.6500    -71.4802    -36.6213      0.0584      0.1169      0.1169      0.3896
   3811.0000      2.0000      3.0410      0.6712   -999.2500      2.0925      0.3288      0.1712      0.3925      0.4818   -999.2500      3.0410      1.1601      7.9340    -34.5251    -60.0000      7.9340    -69.3798    -34.5251      0.0637      0.1274      0.1274      0.4246
   3811.5000      2.0000      3.1090      0.6780   -999.2500      2.1256      0.3220      0.1707      0.3909      0.4790   -999.2500      3.1090      1.1982      8.2190    -32.4589    -60.0000      8.2190    -67.3094    -32.4589      0.0689      0.1377      0.1377      0.4590
   3812.0000      2.0000      3.1500      0.6838   -999.2500      2.1540      0.3162      0.1703      0.3895      0.4766   -999.2500      3.1500      1.2322      7.6430    -30.6866    -60.0000      7.6430    -65.5329    -30.6866      0.0733      0.1466      0.1466      0.4886
   3812.5000      2.0000      3.1900      0.6939   -999.2500      2.2033      0.3061      0.1695      0.3871      0.4724   -999.2500      3.1900      1.2944      6.7300    -29.0415    -60.0000      6.7300    -63.8836    -29.0415      0.0810      0.1620      0.1620      0.5399
   3813.0000      2.0000      3.1410      0.7055   -999.2500      2.2597      0.2945      0.1687      0.3843      0.4676   -999.2500      3.1410      1.3704      5.7330    -27.6346    -60.0000      5.7330    -62.4725    -27.6346      0.0898      0.1796      0.1796      0.5986
   3813.5000      3.0000      3.1020      0.7162   -999.2500      2.3121      0.2838      0.1679      0.3817      0.4632   -999.2500      3.1020      1.4463      5.2340    -26.3255    -60.0000      5.2340    -61.1592    -26.3255      0.0980      0.1959      0.1959      0.6531
   3814.0000      3.0000      3.0630      0.7207   -999.2500      2.3340      0.2793      0.1675      0.3807      0.4613   -999.2500      3.0630      1.4797      4.3110    -25.7783    -60.0000      4.3110    -60.6077    -25.7783      0.1014      0.2028      0.2028      0.6759
   3814.5000      3.0000      3.0140      0.7214   -999.2500      2.3375      0.2786      0.1675      0.3805      0.4610   -999.2500      3.0140      1.4851      3.9900    -25.6927    -60.0000      3.9900    -60.5179    -25.6927      0.1019      0.2038      0.2038      0.6795
   3815.0000      2.0000      2.9650      0.6837   -999.2500      2.1533      0.3163      0.1703      0.3894      0.4766   -999.2500      2.9650      1.2314      3.9040    -30.7447    -60.0000      3.9040    -65.5658    -30.7447      0.0731      0.1463      0.1463      0.4876
   3815.5000      1.0000      2.8970      0.6488   -999.2500      1.9981      0.3512      0.1729      0.3976      0.4910   -999.2500      2.8970      1.0595      4.1080    -41.4189    -60.0000      4.1080    -76.2358    -41.4189      0.0465      0.0929      0.0929      0.3097
   3816.0000      1.0000      2.8290      0.6446   -999.2500      1.9917      0.3554      0.1732      0.3986      0.4927   -999.2500      2.8290      1.0529      4.3130    -42.7094    -60.0000      4.3130    -77.5220    -42.7094      0.0432      0.0865      0.0865      0.2882
