~V
VERS. 2.00: Ver 2.00
WRAP.   NO:        
~W
 STRT.FT 670:
 STOP.FT 4026:
 STEP.FT 0.5:
 NULL. -999.250000:
 COMP. Shell (SWEPI):Company
 WELL. UNION 76-31:Well
 FLD. :Field
 LOC. S31 T11N R22W:Location
 STAT. CA:State
 SRVC. :Service Company
 SON. :Service Order #
 DATE. :Log Date
 UWI. 1371200:Unique Well ID
~C
 DEPT.FT :
 FACE. :
 LN.OHMM :
 LTHE. :
 MCRV. :
 MM. :
 PHES. :
 PHMX. :
 PHTS. :
 PHZC. :
 PXXX. :
 RD.OHMM :
 ROS. :
 RS.OHMM :
 SBL.MV :
 SCLN. :
 SN.OHMM :
 SP.MV :
 SPN. :
 VCDS. :
 VCLY. :
 VCWS. :
 VSHS. :
~P
~A
# ...
   3120.5000      4.0000      9.1010      0.8704   -999.2500      2.7976      0.1296      0.1580      0.3566      0.4088      0.1861      9.1010      2.6274     10.4620     -6.9037    -75.0000     10.4620    -34.7790     -6.9037      0.2270      0.4540      0.4540      0.8704
   3121.0000      4.0000      9.4290      0.8681   -999.2500      2.7961      0.1319      0.1581      0.3572      0.4097      0.1869      9.4290      2.6173     10.8370     -7.4149    -75.0000     10.8370    -35.2831     -7.4149      0.2253      0.4506      0.4506      0.8681
   3121.5000      4.0000      9.7190      0.8526   -999.2500      2.7854      0.1474      0.1593      0.3610      0.4160      0.1909      9.7190      2.5495     11.2220     -9.7760    -75.0000     11.2220    -37.6372     -9.7760      0.2136      0.4272      0.4272      0.8526
   3122.0000      4.0000      9.9530      0.8352   -999.2500      2.7733      0.1648      0.1605      0.3654      0.4230      0.1953      9.9530      2.4774     11.6060    -12.3909    -75.0000     11.6060    -40.2450    -12.3909      0.2005      0.4011      0.4011      0.8352
   3122.5000      3.0000     10.2060      0.8200   -999.2500      2.7628      0.1800      0.1617      0.3691      0.4292      0.1992     10.2060      2.4174     12.2150    -14.6818    -75.0000     12.2150    -42.5289    -14.6818      0.1891      0.3782      0.3782      0.8200
   3123.0000      3.0000     10.2850      0.8078   -999.2500      2.7544      0.1922      0.1626      0.3721      0.4342      0.2023     10.2850      2.3713     12.7120    -16.5217    -75.0000     12.7120    -44.3617    -16.5217      0.1799      0.3598      0.3598      0.8078
   3123.5000      3.0000     10.3650      0.8011   -999.2500      2.7487      0.1989      0.1631      0.3738      0.4369      0.2040     10.3650      2.3443     13.2850    -17.5368    -75.0000     13.2850    -45.3697    -17.5368      0.1748      0.3496      0.3496      0.8011
   3124.0000      3.0000     10.5710      0.7982   -999.2500      2.7350      0.2018      0.1633      0.3744      0.4380      0.2048     10.5710      2.3071     13.9700    -17.9675    -75.0000     13.9700    -45.7934    -17.9675      0.1727      0.3453      0.3453      0.7982
   3124.5000      3.0000     10.7770      0.7964   -999.2500      2.7264      0.2036      0.1634      0.3749      0.4387      0.2052     10.7770      2.2843     14.5980    -18.2366    -75.0000     14.5980    -46.0554    -18.2366      0.1713      0.3426      0.3426      0.7964
   3125.0000      3.0000     11.2640      0.7946   -999.2500      2.7177      0.2054      0.1635      0.3753      0.4395      0.2057     11.2640      2.2614     15.1890    -18.5105    -75.0000     15.1890    -46.3222    -18.5105      0.1699      0.3399      0.3399      0.7946
   3125.5000      3.0000     11.5270      0.7918   -999.2500      2.7038      0.2082      0.1638      0.3760      0.4406      0.2064     11.5270      2.2257     15.5270    -18.9443    -75.0000     15.5270    -46.7490    -18.9443      0.1678      0.3356      0.3356      0.7918
   3126.0000      3.0000     11.7890      0.7856   -999.2500      2.6741      0.2144      0.1642      0.3775      0.4431      0.2080     11.7890      2.1512     15.8650    -19.8755    -75.0000     15.8650    -47.6731    -19.8755      0.1631      0.3262      0.3262      0.7856
   3126.5000      3.0000     12.3700      0.7748   -999.2500      2.6216      0.2252      0.1650      0.3801      0.4476      0.2096     12.3700      2.0273     18.0320    -21.5156    -75.0000     18.0320    -49.3062    -21.5156      0.1549      0.3098      0.3098      0.7748
   3127.0000      3.0000     12.6320      0.7626   -999.2500      2.5625      0.2374      0.1659      0.3831      0.4525      0.2109     12.6320      1.8983     19.5910    -23.3635    -75.0000     19.5910    -51.1471    -23.3635      0.1457      0.2914      0.2914      0.7626
   3127.5000      3.0000     12.8200      0.7541   -999.2500      2.5213      0.2459      0.1665      0.3852      0.4560      0.2118     12.8200      1.8143     20.5200    -24.6535    -75.0000     20.5200    -52.4300    -24.6535      0.1392      0.2785      0.2785      0.7541
   3128.0000      3.0000     12.8520      0.7496   -999.2500      2.4995      0.2504      0.1669      0.3862      0.4578      0.2122     12.8520      1.7718     21.6460    -25.3364    -75.0000     21.6460    -53.1058    -25.3364      0.1358      0.2716      0.2716      0.7496
   3128.5000      3.0000     12.8840      0.7549   -999.2500      2.5254      0.2451      0.1665      0.3849      0.4556      0.2117     12.8840      1.8225     22.5850    -24.5267    -75.0000     22.5850    -52.2891    -24.5267      0.1399      0.2797      0.2797      0.7549
   3129.0000      3.0000     12.8650      0.7580   -999.2500      2.5404      0.2420      0.1662      0.3842      0.4544      0.2114     12.8650      1.8526     22.6970    -24.0594    -75.0000     22.6970    -51.8147    -24.0594      0.1422      0.2844      0.2844      0.7580
   3129.5000      3.0000     12.8450      0.7601   -999.2500      2.5505      0.2399      0.1661      0.3836      0.4535      0.2111     12.8450      1.8733     22.4330    -23.7453    -75.0000     22.4330    -51.4935    -23.7453      0.1438      0.2875      0.2875      0.7601
   3130.0000      3.0000     12.6190      0.7610   -999.2500      2.5548      0.2390      0.1660      0.3834      0.4531      0.2111     12.6190      1.8821     21.5120    -23.6122    -75.0000     21.5120    -51.3534    -23.6122      0.1444      0.2889      0.2889      0.7610
   3130.5000      3.0000     12.1960      0.7447   -999.2500      2.4759      0.2553      0.1672      0.3874      0.4598      0.2127     12.1960      1.7271     20.8360    -26.0809    -75.0000     20.8360    -53.8150    -26.0809      0.1321      0.2642      0.2642      0.7447
   3131.0000      3.0000     11.8480      0.7353   -999.2500      2.4298      0.2647      0.1679      0.3896      0.4637      0.2137     11.8480      1.6442     20.1590    -27.5201    -75.0000     20.1590    -55.2471    -27.5201      0.1249      0.2498      0.2498      0.7353
   3131.5000      3.0000     11.5280      0.7252   -999.2500      2.3811      0.2748      0.1687      0.3920      0.4678      0.2147     11.5280      1.5617     18.2790    -29.0452    -75.0000     18.2790    -56.7652    -29.0452      0.1173      0.2345      0.2345      0.7252
   3132.0000      3.0000     11.3110      0.7218   -999.2500      2.3645      0.2782      0.1689      0.3929      0.4692      0.2151     11.3110      1.5350     17.9880    -29.5639    -75.0000     17.9880    -57.2768    -29.5639      0.1147      0.2294      0.2294      0.7218
   3132.5000      3.0000     11.7890      0.7373   -999.2500      2.4396      0.2627      0.1678      0.3891      0.4628      0.2135     11.7890      1.6613     17.5930    -27.2198    -75.0000     17.5930    -54.9257    -27.2198      0.1264      0.2528      0.2528      0.7373
   3133.0000      3.0000     12.0090      0.7486   -999.2500      2.4947      0.2514      0.1669      0.3864      0.4582      0.2123     12.0090      1.7625     17.2260    -25.4980    -75.0000     17.2260    -53.1968    -25.4980      0.1350      0.2700      0.2700      0.7486
   3133.5000      3.0000     12.2300      0.7601   -999.2500      2.5504      0.2399      0.1661      0.3836      0.4535      0.2111     12.2300      1.8729     16.8870    -23.7586    -75.0000     16.8870    -51.4504    -23.7586      0.1437      0.2874      0.2874      0.7601
   3134.0000      3.0000     12.3840      0.7716   -999.2500      2.6059      0.2284      0.1652      0.3808      0.4488      0.2100     12.3840      1.9917     16.5390    -22.0268    -75.0000     16.5390    -49.7115    -22.0268      0.1524      0.3047      0.3047      0.7716
   3134.5000      3.0000     12.5390      0.7814   -999.2500      2.6534      0.2186      0.1645      0.3784      0.4448      0.2090     12.5390      2.1010     16.1910    -20.5432    -75.0000     16.1910    -48.2209    -20.5432      0.1598      0.3196      0.3196      0.7814
