~V
VERS. 2.00: Ver 2.00
WRAP.   NO:        
~W
 STRT.FT 670:
 STOP.FT 4026:
 STEP.FT 0.5:
 NULL. -999.250000:
 COMP. Shell (SWEPI):Company
 WELL. UNION 76-31:Well
 FLD. :Field
 LOC. S31 T11N R22W:Location
 STAT. CA:State
 SRVC. :Service Company
 SON. :Service Order #
 DATE. :Log Date
 UWI. 1371200:Unique Well ID
~C
 DEPT.FT :
 FACE. :
 LN.OHMM :
 LTHE. :
 MCRV. :
 MM. :
 PHES. :
 PHMX. :
 PHTS. :
 PHZC. :
 PXXX. :
 RD.OHMM :
 ROS. :
 RS.OHMM :
 SBL.MV :
 SCLN. :
 SN.OHMM :
 SP.MV :
 SPN. :
 VCDS. :
 VCLY. :
 VCWS. :
 VSHS. :
~P
~A
# ...
   3570.0000      4.0000      6.1290      0.8590   -999.2500      2.8182      0.1410      0.1578      0.3513      0.4079   -999.2500      6.1290      2.6370      6.0250     -8.3519    -60.0000      6.0250    -39.8519     -8.3519      0.2103      0.4206      0.4206      0.8590
   3570.5000      4.0000      5.8920      0.8610   -999.2500      2.8197      0.1390      0.1576      0.3508      0.4071   -999.2500      5.8920      2.6462      5.8460     -8.1042    -60.0000      5.8460    -39.6256     -8.1042      0.2118      0.4237      0.4237      0.8610
   3571.0000      4.0000      5.8080      0.8580   -999.2500      2.8176      0.1420      0.1579      0.3516      0.4083   -999.2500      5.8080      2.6329      5.6010     -8.4718    -60.0000      5.6010    -40.0147     -8.4718      0.2096      0.4191      0.4191      0.8580
   3571.5000      4.0000      5.7230      0.8548   -999.2500      2.8154      0.1452      0.1581      0.3523      0.4096   -999.2500      5.7230      2.6193      5.4930     -8.8528    -60.0000      5.4930    -40.4171     -8.8528      0.2072      0.4143      0.4143      0.8548
   3572.0000      4.0000      5.6190      0.8502   -999.2500      2.8123      0.1498      0.1584      0.3535      0.4114   -999.2500      5.6190      2.5996      5.3850     -9.4067    -60.0000      5.3850    -40.9924     -9.4067      0.2037      0.4074      0.4074      0.8502
   3572.5000      3.0000      5.5760      0.8436   -999.2500      2.8077      0.1564      0.1589      0.3551      0.4141   -999.2500      5.5760      2.5718      5.4360    -10.2029    -60.0000      5.4360    -41.8100    -10.2029      0.1987      0.3975      0.3975      0.8436
   3573.0000      3.0000      5.5330      0.8368   -999.2500      2.8030      0.1632      0.1594      0.3568      0.4168   -999.2500      5.5330      2.5439      5.4860    -11.0208    -60.0000      5.4860    -42.6493    -11.0208      0.1936      0.3872      0.3872      0.8368
   3573.5000      3.0000      5.5280      0.8309   -999.2500      2.7989      0.1691      0.1599      0.3582      0.4192   -999.2500      5.5280      2.5200      5.5170    -11.7353    -60.0000      5.5170    -43.3853    -11.7353      0.1892      0.3783      0.3783      0.8309
   3574.0000      3.0000      5.5230      0.8282   -999.2500      2.7971      0.1718      0.1601      0.3589      0.4204   -999.2500      5.5230      2.5091      5.5480    -12.0696    -60.0000      5.5480    -43.7410    -12.0696      0.1871      0.3741      0.3741      0.8282
   3574.5000      3.0000      5.5380      0.8270   -999.2500      2.7963      0.1730      0.1602      0.3592      0.4208   -999.2500      5.5380      2.5044      5.5780    -12.2148    -60.0000      5.5780    -43.9076    -12.2148      0.1862      0.3723      0.3723      0.8270
   3575.0000      3.0000      5.5530      0.8295   -999.2500      2.7980      0.1705      0.1600      0.3586      0.4198   -999.2500      5.5530      2.5145      5.5820    -11.9129    -60.0000      5.5820    -43.6272    -11.9129      0.1880      0.3761      0.3761      0.8295
   3575.5000      3.0000      5.5690      0.8339   -999.2500      2.8012      0.1661      0.1596      0.3575      0.4180   -999.2500      5.5690      2.5324      5.5870    -11.3793    -60.0000      5.5870    -43.1150    -11.3793      0.1914      0.3828      0.3828      0.8339
   3576.0000      3.0000      5.6190      0.8387   -999.2500      2.8045      0.1613      0.1593      0.3563      0.4161   -999.2500      5.6190      2.5519      5.5770    -10.8088    -60.0000      5.5770    -42.5659    -10.8088      0.1949      0.3899      0.3899      0.8387
   3576.5000      3.0000      5.6700      0.8429   -999.2500      2.8074      0.1571      0.1590      0.3552      0.4143   -999.2500      5.6700      2.5694      5.5670    -10.3035    -60.0000      5.5670    -42.0821    -10.3035      0.1981      0.3962      0.3962      0.8429
   3577.0000      4.0000      5.7350      0.8465   -999.2500      2.8100      0.1535      0.1587      0.3543      0.4129   -999.2500      5.7350      2.5847      5.6130     -9.8672    -60.0000      5.6130    -41.6672     -9.8672      0.2008      0.4017      0.4017      0.8465
   3577.5000      4.0000      5.8000      0.8497   -999.2500      2.8122      0.1503      0.1585      0.3535      0.4116   -999.2500      5.8000      2.5982      5.6650     -9.4872    -60.0000      5.6650    -41.3086     -9.4872      0.2032      0.4064      0.4064      0.8497
   3578.0000      4.0000      5.8700      0.8528   -999.2500      2.8144      0.1472      0.1582      0.3527      0.4103   -999.2500      5.8700      2.6116      5.7160     -9.1151    -60.0000      5.7160    -40.9579     -9.1151      0.2055      0.4111      0.4111      0.8528
   3578.5000      4.0000      5.9400      0.8558   -999.2500      2.8165      0.1442      0.1580      0.3520      0.4091   -999.2500      5.9400      2.6246      5.6400     -8.7569    -60.0000      5.6400    -40.6212     -8.7569      0.2078      0.4155      0.4155      0.8558
   3579.0000      4.0000      6.0610      0.8578   -999.2500      2.8180      0.1422      0.1579      0.3515      0.4083   -999.2500      6.0610      2.6334      5.4320     -8.5166    -60.0000      5.4320    -40.4023     -8.5166      0.2093      0.4185      0.4185      0.8578
   3579.5000      4.0000      6.2020      0.8586   -999.2500      2.8186      0.1414      0.1578      0.3513      0.4079   -999.2500      6.2020      2.6371      5.3760     -8.4180    -60.0000      5.3760    -40.3251     -8.4180      0.2099      0.4198      0.4198      0.8586
   3580.0000      3.0000      6.2620      0.8445   -999.2500      2.8088      0.1555      0.1588      0.3547      0.4136   -999.2500      6.2620      2.5769      5.3560    -10.1134    -60.0000      5.3560    -42.0419    -10.1134      0.1993      0.3986      0.3986      0.8445
   3580.5000      3.0000      6.3230      0.8366   -999.2500      2.8034      0.1634      0.1594      0.3567      0.4168   -999.2500      6.3230      2.5442      5.3980    -11.0678    -60.0000      5.3980    -43.0178    -11.0678      0.1933      0.3867      0.3867      0.8366
   3581.0000      3.0000      6.4210      0.8300   -999.2500      2.7988      0.1700      0.1599      0.3583      0.4195   -999.2500      6.4210      2.5175      5.4400    -11.8670    -60.0000      5.4400    -43.8384    -11.8670      0.1883      0.3767      0.3767      0.8300
   3581.5000      3.0000      6.5200      0.8256   -999.2500      2.7957      0.1744      0.1602      0.3594      0.4213   -999.2500      6.5200      2.5001      5.7390    -12.4010    -60.0000      5.7390    -44.3939    -12.4010      0.1850      0.3700      0.3700      0.8256
   3582.0000      3.0000      6.4720      0.8209   -999.2500      2.7925      0.1791      0.1606      0.3606      0.4232   -999.2500      6.4720      2.4817      5.8420    -12.9693    -60.0000      5.8420    -44.9835    -12.9693      0.1814      0.3629      0.3629      0.8209
   3582.5000      3.0000      6.4240      0.8235   -999.2500      2.7944      0.1765      0.1604      0.3599      0.4221   -999.2500      6.4240      2.4920      5.9460    -12.6561    -60.0000      5.9460    -44.6918    -12.6561      0.1834      0.3668      0.3668      0.8235
   3583.0000      3.0000      6.2550      0.8276   -999.2500      2.7972      0.1724      0.1601      0.3589      0.4205   -999.2500      6.2550      2.5082      5.8740    -12.1662    -60.0000      5.8740    -44.2233    -12.1662      0.1865      0.3729      0.3729      0.8276
   3583.5000      3.0000      6.0850      0.8350   -999.2500      2.8024      0.1650      0.1595      0.3570      0.4175   -999.2500      6.0850      2.5380      5.8030    -11.2744    -60.0000      5.8030    -43.3530    -11.2744      0.1920      0.3841      0.3841      0.8350
   3584.0000      3.0000      5.9060      0.8416   -999.2500      2.8070      0.1584      0.1590      0.3554      0.4148   -999.2500      5.9060      2.5653      5.6900    -10.4792    -60.0000      5.6900    -42.5792    -10.4792      0.1970      0.3940      0.3940      0.8416
