~V
VERS. 2.00: Ver 2.00
WRAP.   NO:        
~W
 STRT.FT 670:
 STOP.FT 4026:
 STEP.FT 0.5:
 NULL. -999.250000:
 COMP. Shell (SWEPI):Company
 WELL. UNION 76-31:Well
 FLD. :Field
 LOC. S31 T11N R22W:Location
 STAT. CA:State
 SRVC. :Service Company
 SON. :Service Order #
 DATE. :Log Date
 UWI. 1371200:Unique Well ID
~C
 DEPT.FT :
 FACE. :
 LN.OHMM :
 LTHE. :
 MCRV. :
 MM. :
 PHES. :
 PHMX. :
 PHTS. :
 PHZC. :
 PXXX. :
 RD.OHMM :
 ROS. :
 RS.OHMM :
 SBL.MV :
 SCLN. :
 SN.OHMM :
 SP.MV :
 SPN. :
 VCDS. :
 VCLY. :
 VCWS. :
 VSHS. :
~P
~A
# ...
   2453.5000      3.0000      4.1710      0.7687   -999.2500      2.6207      0.2313      0.1669      0.3939      0.4582      0.2082      4.1710      2.0568      3.8810    -19.9780    -75.0000      3.8810    -45.9780    -19.9780      0.1626      0.3252      0.3252      0.7687
   2454.0000      3.0000      4.1940      0.7792   -999.2500      2.6715      0.2208      0.1662      0.3914      0.4539      0.2056      4.1940      2.1769      3.9360    -18.3920    -75.0000      3.9360    -44.3920    -18.3920      0.1705      0.3411      0.3411      0.7792
   2454.5000      3.0000      4.2170      0.7794   -999.2500      2.6724      0.2206      0.1662      0.3913      0.4538      0.2056      4.2170      2.1791      4.1320    -18.3640    -75.0000      4.1320    -44.3640    -18.3640      0.1707      0.3414      0.3414      0.7794
   2455.0000      3.0000      4.2250      0.7539   -999.2500      2.5491      0.2461      0.1680      0.3975      0.4642      0.2109      4.2250      1.9009      4.3280    -22.2170    -75.0000      4.3280    -48.2170    -22.2170      0.1514      0.3028      0.3028      0.7539
   2455.5000      3.0000      4.2340      0.7218   -999.2500      2.3932      0.2782      0.1704      0.4053      0.4774      0.2141      4.2340      1.6100      4.4390    -27.0880    -75.0000      4.4390    -53.0880    -27.0880      0.1271      0.2541      0.2541      0.7218
   2456.0000      3.0000      4.2370      0.7065   -999.2500      2.3188      0.2935      0.1716      0.4090      0.4836      0.2156      4.2370      1.4910      4.4760    -29.4130    -75.0000      4.4760    -55.4130    -29.4130      0.1154      0.2309      0.2309      0.7065
   2456.5000      3.0000      4.2410      0.7046   -999.2500      2.3095      0.2954      0.1717      0.4094      0.4844      0.2158      4.2410      1.4769      4.4420    -29.7020    -75.0000      4.4420    -55.7020    -29.7020      0.1140      0.2280      0.2280      0.7046
   2457.0000      3.0000      4.2300      0.7027   -999.2500      2.3003      0.2973      0.1718      0.4098      0.4852      0.2159      4.2300      1.4631      4.4090    -29.9910    -75.0000      4.4090    -55.9910    -29.9910      0.1125      0.2251      0.2251      0.7027
   2457.5000      3.0000      4.2200      0.7032   -999.2500      2.3027      0.2968      0.1718      0.4097      0.4850      0.2159      4.2200      1.4666      4.1720    -29.9160    -75.0000      4.1720    -55.9160    -29.9160      0.1129      0.2258      0.2258      0.7032
   2458.0000      3.0000      4.2100      0.7037   -999.2500      2.3051      0.2963      0.1718      0.4096      0.4847      0.2158      4.2100      1.4702      4.0640    -29.8400    -75.0000      4.0640    -55.8400    -29.8400      0.1133      0.2266      0.2266      0.7037
   2458.5000      3.0000      4.1990      0.7053   -999.2500      2.3126      0.2947      0.1717      0.4092      0.4841      0.2157      4.1990      1.4815      3.9550    -29.6050    -75.0000      3.9550    -55.6050    -29.6050      0.1145      0.2290      0.2290      0.7053
   2459.0000      3.0000      4.1890      0.7068   -999.2500      2.3202      0.2932      0.1715      0.4088      0.4834      0.2155      4.1890      1.4930      3.8510    -29.3690    -75.0000      3.8510    -55.3690    -29.3690      0.1157      0.2313      0.2313      0.7068
   2459.5000      3.0000      4.1790      0.7081   -999.2500      2.3262      0.2919      0.1714      0.4085      0.4829      0.2154      4.1790      1.5021      3.7460    -29.1820    -75.0000      3.7460    -55.1820    -29.1820      0.1166      0.2332      0.2332      0.7081
   2460.0000      3.0000      4.1950      0.7035   -999.2500      2.3037      0.2965      0.1718      0.4096      0.4848      0.2159      4.1950      1.4680      3.8390    -29.8850    -75.0000      3.8390    -55.8850    -29.8850      0.1131      0.2262      0.2262      0.7035
   2460.5000      3.0000      4.2230      0.6953   -999.2500      2.2639      0.3047      0.1724      0.4116      0.4882      0.2167      4.2230      1.4100      3.8750    -31.1290    -75.0000      3.8750    -57.1290    -31.1290      0.1069      0.2137      0.2137      0.6953
   2461.0000      3.0000      4.2500      0.6939   -999.2500      2.2572      0.3061      0.1725      0.4119      0.4887      0.2168      4.2500      1.4005      3.9120    -31.3390    -75.0000      3.9120    -57.3390    -31.3390      0.1058      0.2116      0.2116      0.6939
   2461.5000      3.0000      4.2770      0.6926   -999.2500      2.2504      0.3074      0.1726      0.4122      0.4893      0.2170      4.2770      1.3911      3.9200    -31.5490    -75.0000      3.9200    -57.5490    -31.5490      0.1048      0.2095      0.2095      0.6926
   2462.0000      3.0000      4.3040      0.6936   -999.2500      2.2554      0.3064      0.1725      0.4119      0.4888      0.2169      4.3040      1.3981      3.9320    -31.3930    -75.0000      3.9320    -57.3930    -31.3930      0.1055      0.2111      0.2111      0.6936
   2462.5000      3.0000      4.3360      0.6930   -999.2500      2.2523      0.3070      0.1726      0.4121      0.4891      0.2169      4.3360      1.3936      3.9430    -31.4910    -75.0000      3.9430    -57.4910    -31.4910      0.1050      0.2101      0.2101      0.6930
   2463.0000      3.0000      4.3680      0.6877   -999.2500      2.2267      0.3123      0.1730      0.4133      0.4912      0.2174      4.3680      1.3584      3.9550    -32.2910    -75.0000      3.9550    -58.2910    -32.2910      0.1010      0.2021      0.2021      0.6736
   2463.5000      3.0000      4.4660      0.6840   -999.2500      2.2083      0.3160      0.1732      0.4142      0.4928      0.2178      4.4660      1.3338      4.0000    -32.8650    -75.0000      4.0000    -58.8650    -32.8650      0.0982      0.1964      0.1964      0.6545
   2464.0000      3.0000      4.5630      0.6802   -999.2500      2.1899      0.3198      0.1735      0.4151      0.4943      0.2182      4.5630      1.3098      4.0370    -33.4400    -75.0000      4.0370    -59.4400    -33.4400      0.0953      0.1906      0.1906      0.6353
   2464.5000      2.0000      4.7500      0.6708   -999.2500      2.1439      0.3292      0.1742      0.4173      0.4982      0.2191      4.7500      1.2520      4.1680    -34.8780    -75.0000      4.1680    -60.8780    -34.8780      0.0881      0.1762      0.1762      0.5874
   2465.0000      2.0000      5.0390      0.6681   -999.2500      2.1306      0.3319      0.1744      0.4180      0.4993      0.2194      5.0390      1.2359      4.4580    -35.2940    -75.0000      4.4580    -61.2940    -35.2940      0.0860      0.1721      0.1721      0.5735
   2465.5000      2.0000      5.2030      0.6664   -999.2500      2.1224      0.3336      0.1745      0.4183      0.5000      0.2196      5.2030      1.2261      4.7950    -35.5510    -75.0000      4.7950    -61.5510    -35.5510      0.0847      0.1695      0.1695      0.5650
   2466.0000      2.0000      5.3670      0.6647   -999.2500      2.1141      0.3353      0.1747      0.4187      0.5007      0.2197      5.3670      1.2163      5.1320    -35.8090    -75.0000      5.1320    -61.8090    -35.8090      0.0835      0.1669      0.1669      0.5564
   2466.5000      2.0000      5.5490      0.6654   -999.2500      2.1176      0.3346      0.1746      0.4186      0.5004      0.2197      5.5490      1.2204      5.4500    -35.7010    -75.0000      5.4500    -61.7010    -35.7010      0.0840      0.1680      0.1680      0.5600
   2467.0000      2.0000      5.7310      0.6662   -999.2500      2.1210      0.3338      0.1746      0.4184      0.5001      0.2196      5.7310      1.2245      5.5810    -35.5930    -75.0000      5.5810    -61.5930    -35.5930      0.0845      0.1691      0.1691      0.5636
   2467.5000      2.0000      5.9450      0.6682   -999.2500      2.1311      0.3318      0.1744      0.4179      0.4992      0.2194      5.9450      1.2365      5.7110    -35.2780    -75.0000      5.7110    -61.2780    -35.2780      0.0861      0.1722      0.1722      0.5741
