~V
VERS. 2.00: Ver 2.00
WRAP.   NO:        
~W
 STRT.FT 670:
 STOP.FT 4026:
 STEP.FT 0.5:
 NULL. -999.250000:
 COMP. Shell (SWEPI):Company
 WELL. UNION 76-31:Well
 FLD. :Field
 LOC. S31 T11N R22W:Location
 STAT. CA:State
 SRVC. :Service Company
 SON. :Service Order #
 DATE. :Log Date
 UWI. 1371200:Unique Well ID
~C
 DEPT.FT :
 FACE. :
 LN.OHMM :
 LTHE. :
 MCRV. :
 MM. :
 PHES. :
 PHMX. :
 PHTS. :
 PHZC. :
 PXXX. :
 RD.OHMM :
 ROS. :
 RS.OHMM :
 SBL.MV :
 SCLN. :
 SN.OHMM :
 SP.MV :
 SPN. :
 VCDS. :
 VCLY. :
 VCWS. :
 VSHS. :
~P
~A
# ...
   2685.5000      3.0000      5.5310      0.7563   -999.2500      2.5486      0.2437      0.1674      0.3927      0.4604      0.2110      5.5310      1.8869      6.0290    -22.6942    -75.0000      6.0290    -50.2469    -22.6942      0.1490      0.2981      0.2981      0.7563
   2686.0000      3.0000      5.5770      0.7528   -999.2500      2.5315      0.2472      0.1676      0.3935      0.4619      0.2113      5.5770      1.8520      5.7610    -23.2293    -75.0000      5.7610    -50.7863    -23.2293      0.1464      0.2927      0.2927      0.7528
   2686.5000      3.0000      5.6100      0.7514   -999.2500      2.5248      0.2486      0.1677      0.3939      0.4624      0.2115      5.6100      1.8385      5.4930    -23.4415    -75.0000      5.4930    -51.0028    -23.4415      0.1453      0.2906      0.2906      0.7514
   2687.0000      3.0000      5.6420      0.7513   -999.2500      2.5242      0.2487      0.1677      0.3939      0.4625      0.2115      5.6420      1.8373      5.0510    -23.4605    -75.0000      5.0510    -51.0261    -23.4605      0.1452      0.2904      0.2904      0.7513
   2687.5000      3.0000      5.6600      0.7629   -999.2500      2.5805      0.2371      0.1669      0.3910      0.4577      0.2103      5.6600      1.9538      4.6090    -21.7046    -75.0000      4.6090    -49.2745    -21.7046      0.1540      0.3080      0.3080      0.7629
   2688.0000      3.0000      5.6780      0.7846   -999.2500      2.6853      0.2154      0.1652      0.3857      0.4489      0.2057      5.6780      2.1967      4.3540    -18.4300    -75.0000      4.3540    -46.0042    -18.4300      0.1704      0.3407      0.3407      0.7846
   2688.5000      3.0000      5.7240      0.8030   -999.2500      2.7236      0.1970      0.1639      0.3812      0.4414      0.2011      5.7240      2.3169      4.1000    -15.6634    -75.0000      4.1000    -43.2419    -15.6634      0.1842      0.3684      0.3684      0.8030
   2689.0000      3.0000      5.7520      0.8229   -999.2500      2.7374      0.1771      0.1624      0.3763      0.4333      0.1962      5.7520      2.3928      3.8460    -12.6690    -75.0000      3.8460    -40.2518    -12.6690      0.1992      0.3983      0.3983      0.8229
   2689.5000      4.0000      5.7800      0.8525   -999.2500      2.7580      0.1475      0.1602      0.3689      0.4213      0.1888      5.7800      2.5145      3.5260     -8.2182    -75.0000      3.5260    -35.8053     -8.2182      0.2214      0.4428      0.4428      0.8525
   2690.0000      4.0000      5.8070      0.8693   -999.2500      2.7697      0.1307      0.1590      0.3647      0.4144      0.1832      5.8070      2.5886      3.5060     -4.7900    -75.0000      3.5060    -32.3813     -4.7900      0.2340      0.4681      0.4681      0.8693
   2690.5000      4.0000      5.7500      0.8761   -999.2500      2.7744      0.1239      0.1585      0.3630      0.4117      0.1812      5.7500      2.6195      3.5060     -3.2744    -75.0000      3.5060    -30.8701     -3.2744      0.2391      0.4782      0.4782      0.8761
   2691.0000      4.0000      5.6940      0.8778   -999.2500      2.7756      0.1222      0.1584      0.3625      0.4110      0.1808      5.6940      2.6273      3.5750     -2.8994    -75.0000      3.5750    -30.4994     -2.8994      0.2403      0.4807      0.4807      0.8778
   2691.5000      4.0000      5.4350      0.8765   -999.2500      2.7747      0.1235      0.1585      0.3629      0.4115      0.1811      5.4350      2.6215      3.6450     -3.1859    -75.0000      3.6450    -30.7902     -3.1859      0.2394      0.4788      0.4788      0.8765
   2692.0000      4.0000      5.1760      0.8738   -999.2500      2.7729      0.1262      0.1587      0.3635      0.4126      0.1818      5.1760      2.6088      3.9540     -3.8076    -75.0000      3.9540    -31.4162     -3.8076      0.2373      0.4746      0.4746      0.8738
   2692.5000      4.0000      4.7140      0.8560   -999.2500      2.7606      0.1440      0.1600      0.3680      0.4198      0.1880      4.7140      2.5298      4.2540     -7.6997    -75.0000      4.2540    -35.3126     -7.6997      0.2240      0.4480      0.4480      0.8560
   2693.0000      3.0000      4.7090      0.7875   -999.2500      2.6989      0.2125      0.1650      0.3849      0.4477      0.2050      4.7090      2.2306      4.7230    -18.0181    -75.0000      4.7230    -45.6353    -18.0181      0.1724      0.3448      0.3448      0.7875
   2693.5000      3.0000      4.7040      0.7463   -999.2500      2.4998      0.2537      0.1681      0.3950      0.4644      0.2120      4.7040      1.7891      5.2200    -24.2404    -75.0000      5.2200    -51.8619    -24.2404      0.1413      0.2826      0.2826      0.7463
   2694.0000      3.0000      4.9750      0.7248   -999.2500      2.3953      0.2752      0.1697      0.4002      0.4732      0.2142      4.9750      1.6013      5.7360    -27.5063    -75.0000      5.7360    -55.1321    -27.5063      0.1250      0.2499      0.2499      0.7248
   2694.5000      3.0000      5.3880      0.7129   -999.2500      2.3373      0.2871      0.1706      0.4030      0.4781      0.2153      5.3880      1.5078      5.9130    -29.3192    -75.0000      5.9130    -56.9493    -29.3192      0.1159      0.2318      0.2318      0.7129
   2695.0000      3.0000      5.7630      0.7072   -999.2500      2.3099      0.2928      0.1710      0.4044      0.4804      0.2159      5.7630      1.4659      6.0070    -30.1795    -75.0000      6.0070    -57.8139    -30.1795      0.1116      0.2232      0.2232      0.7072
   2695.5000      3.0000      5.8470      0.7037   -999.2500      2.2925      0.2963      0.1713      0.4052      0.4819      0.2163      5.8470      1.4401      6.1000    -30.7229    -75.0000      6.1000    -58.3617    -30.7229      0.1089      0.2178      0.2178      0.7037
   2696.0000      3.0000      5.9300      0.7015   -999.2500      2.2818      0.2985      0.1714      0.4057      0.4828      0.2165      5.9300      1.4246      6.1940    -31.0581    -75.0000      6.1940    -58.7011    -31.0581      0.1072      0.2144      0.2144      0.7015
   2696.5000      3.0000      5.9390      0.7002   -999.2500      2.2757      0.2998      0.1715      0.4060      0.4833      0.2166      5.9390      1.4157      5.9960    -31.2517    -75.0000      5.9960    -58.8990    -31.2517      0.1062      0.2125      0.2125      0.7002
   2697.0000      3.0000      5.8820      0.7004   -999.2500      2.2765      0.2996      0.1715      0.4060      0.4832      0.2166      5.8820      1.4169      5.7980    -31.2279    -75.0000      5.7980    -58.8795    -31.2279      0.1064      0.2127      0.2127      0.7004
   2697.5000      3.0000      5.8110      0.7017   -999.2500      2.2829      0.2983      0.1714      0.4057      0.4827      0.2165      5.8110      1.4261      5.6280    -31.0273    -75.0000      5.6280    -58.6832    -31.0273      0.1074      0.2147      0.2147      0.7017
   2698.0000      3.0000      5.7400      0.7044   -999.2500      2.2959      0.2956      0.1712      0.4050      0.4816      0.2162      5.7400      1.4450      5.4590    -30.6241    -75.0000      5.4590    -58.2844    -30.6241      0.1094      0.2188      0.2188      0.7044
   2698.5000      3.0000      5.5700      0.7082   -999.2500      2.3147      0.2918      0.1709      0.4041      0.4800      0.2158      5.5700      1.4729      5.2980    -30.0382    -75.0000      5.2980    -57.7028    -30.0382      0.1123      0.2246      0.2246      0.7082
   2699.0000      3.0000      5.4900      0.7151   -999.2500      2.3481      0.2849      0.1704      0.4024      0.4772      0.2151      5.4900      1.5243      5.2790    -28.9958    -75.0000      5.2790    -56.6646    -28.9958      0.1175      0.2350      0.2350      0.7151
   2699.5000      3.0000      5.4100      0.7253   -999.2500      2.3977      0.2747      0.1696      0.3999      0.4730      0.2141      5.4100      1.6049      5.2600    -27.4472    -75.0000      5.2600    -55.1203    -27.4472      0.1253      0.2505      0.2505      0.7253
