~V
VERS. 2.00: Ver 2.00
WRAP.   NO:        
~W
 STRT.FT 670:
 STOP.FT 4026:
 STEP.FT 0.5:
 NULL. -999.250000:
 COMP. Shell (SWEPI):Company
 WELL. UNION 76-31:Well
 FLD. :Field
 LOC. S31 T11N R22W:Location
 STAT. CA:State
 SRVC. :Service Company
 SON. :Service Order #
 DATE. :Log Date
 UWI. 1371200:Unique Well ID
~C
 DEPT.FT :
 FACE. :
 LN.OHMM :
 LTHE. :
 MCRV. :
 MM. :
 PHES. :
 PHMX. :
 PHTS. :
 PHZC. :
 PXXX. :
 RD.OHMM :
 ROS. :
 RS.OHMM :
 SBL.MV :
 SCLN. :
 SN.OHMM :
 SP.MV :
 SPN. :
 VCDS. :
 VCLY. :
 VCWS. :
 VSHS. :
~P
~A
# ...
   1569.0000      3.0000      2.2990      0.6749   -999.2500      2.2705      0.3251      0.1759      0.4329      0.5072      0.2220      2.2990      1.4739      2.3050    -30.9230    -75.0000      2.3050    -38.9230    -30.9230      0.1079      0.2158      0.2158      0.6749
   1569.5000      3.0000      2.3820      0.6734   -999.2500      2.2629      0.3266      0.1760      0.4333      0.5078      0.2221      2.3820      1.4628      2.3190    -31.1580    -75.0000      2.3190    -39.1580    -31.1580      0.1067      0.2134      0.2134      0.6734
   1570.0000      3.0000      2.4420      0.6719   -999.2500      2.2555      0.3281      0.1761      0.4337      0.5085      0.2223      2.4420      1.4519      2.3340    -31.3920    -75.0000      2.3340    -39.3920    -31.3920      0.1055      0.2111      0.2111      0.6719
   1570.5000      3.0000      2.5020      0.6704   -999.2500      2.2480      0.3296      0.1762      0.4340      0.5091      0.2225      2.5020      1.4411      2.3640    -31.6260    -75.0000      2.3640    -39.6260    -31.6260      0.1044      0.2087      0.2087      0.6704
   1571.0000      3.0000      2.5200      0.6678   -999.2500      2.2357      0.3322      0.1764      0.4346      0.5101      0.2228      2.5200      1.4236      2.3940    -32.0100    -75.0000      2.3940    -40.0100    -32.0100      0.1025      0.2049      0.2049      0.6678
   1571.5000      3.0000      2.5380      0.6649   -999.2500      2.2214      0.3351      0.1766      0.4353      0.5113      0.2231      2.5380      1.4037      2.4250    -32.4560    -75.0000      2.4250    -40.4560    -32.4560      0.1002      0.2004      0.2004      0.6649
   1572.0000      3.0000      2.5520      0.6620   -999.2500      2.2071      0.3380      0.1768      0.4360      0.5125      0.2235      2.5520      1.3841      2.4460    -32.9020    -75.0000      2.4460    -40.9020    -32.9020      0.0980      0.1960      0.1960      0.6533
   1572.5000      3.0000      2.5670      0.6602   -999.2500      2.1985      0.3398      0.1769      0.4364      0.5132      0.2237      2.5670      1.3723      2.4670    -33.1730    -75.0000      2.4670    -41.1730    -33.1730      0.0966      0.1933      0.1933      0.6442
   1573.0000      3.0000      2.5810      0.6585   -999.2500      2.1898      0.3415      0.1771      0.4368      0.5139      0.2239      2.5810      1.3607      2.4880    -33.4440    -75.0000      2.4880    -41.4440    -33.4440      0.0953      0.1906      0.1906      0.6352
   1573.5000      3.0000      2.6050      0.6568   -999.2500      2.1815      0.3432      0.1772      0.4372      0.5146      0.2241      2.6050      1.3498      2.5010    -33.7020    -75.0000      2.5010    -41.7020    -33.7020      0.0940      0.1880      0.1880      0.6266
   1574.0000      3.0000      2.6300      0.6581   -999.2500      2.1880      0.3419      0.1771      0.4369      0.5141      0.2239      2.6300      1.3583      2.5130    -33.4990    -75.0000      2.5130    -41.4990    -33.4990      0.0950      0.1900      0.1900      0.6334
   1574.5000      3.0000      2.6540      0.6595   -999.2500      2.1945      0.3405      0.1770      0.4365      0.5135      0.2238      2.6540      1.3669      2.5210    -33.2960    -75.0000      2.5210    -41.2960    -33.2960      0.0960      0.1920      0.1920      0.6401
   1575.0000      3.0000      2.6850      0.6627   -999.2500      2.2101      0.3373      0.1768      0.4358      0.5122      0.2234      2.6850      1.3879      2.5530    -32.8100    -75.0000      2.5530    -40.8100    -32.8100      0.0985      0.1969      0.1969      0.6563
   1575.5000      3.0000      2.7170      0.6659   -999.2500      2.2257      0.3341      0.1765      0.4350      0.5109      0.2230      2.7170      1.4093      2.5850    -32.3230    -75.0000      2.5850    -40.3230    -32.3230      0.1009      0.2018      0.2018      0.6659
   1576.0000      3.0000      2.8430      0.6715   -999.2500      2.2527      0.3285      0.1761      0.4336      0.5086      0.2224      2.8430      1.4475      2.6310    -31.4770    -75.0000      2.6310    -39.4770    -31.4770      0.1051      0.2102      0.2102      0.6715
   1576.5000      3.0000      2.9680      0.6734   -999.2500      2.2622      0.3266      0.1760      0.4332      0.5078      0.2221      2.9680      1.4612      2.6960    -31.1800    -75.0000      2.6960    -39.1800    -31.1800      0.1066      0.2132      0.2132      0.6734
   1577.0000      3.0000      3.0990      0.6754   -999.2500      2.2718      0.3246      0.1758      0.4327      0.5069      0.2219      3.0990      1.4751      2.7610    -30.8820    -75.0000      2.7610    -38.8820    -30.8820      0.1081      0.2162      0.2162      0.6754
   1577.5000      3.0000      3.2300      0.6781   -999.2500      2.2848      0.3219      0.1756      0.4320      0.5058      0.2216      3.2300      1.4944      2.9090    -30.4760    -75.0000      2.9090    -38.4760    -30.4760      0.1101      0.2202      0.2202      0.6781
   1578.0000      3.0000      3.6610      0.6789   -999.2500      2.2887      0.3211      0.1755      0.4318      0.5055      0.2215      3.6610      1.5002      3.0310    -30.3540    -75.0000      3.0310    -38.3540    -30.3540      0.1107      0.2215      0.2215      0.6789
   1578.5000      3.0000      4.2420      0.6779   -999.2500      2.2835      0.3221      0.1756      0.4321      0.5059      0.2216      4.2420      1.4924      3.1530    -30.5150    -75.0000      3.1530    -38.5150    -30.5150      0.1099      0.2199      0.2199      0.6779
   1579.0000      3.0000      4.7300      0.6770   -999.2500      2.2794      0.3230      0.1757      0.4323      0.5062      0.2217      4.7300      1.4863      3.6960    -30.6430    -75.0000      3.6960    -38.6430    -30.6430      0.1093      0.2186      0.2186      0.6770
   1579.5000      3.0000      5.0210      0.6762   -999.2500      2.2753      0.3238      0.1757      0.4325      0.5066      0.2218      5.0210      1.4802      4.3250    -30.7710    -75.0000      4.3250    -38.7710    -30.7710      0.1086      0.2173      0.2173      0.6762
   1580.0000      3.0000      5.4900      0.6740   -999.2500      2.2645      0.3260      0.1759      0.4330      0.5075      0.2221      5.4900      1.4643      5.3960    -31.1080    -75.0000      5.3960    -39.1080    -31.1080      0.1070      0.2139      0.2139      0.6740
   1580.5000      3.0000      5.9310      0.6718   -999.2500      2.2538      0.3282      0.1761      0.4335      0.5084      0.2223      5.9310      1.4487      6.3450    -31.4440    -75.0000      6.3450    -39.4440    -31.4440      0.1053      0.2106      0.2106      0.6718
   1581.0000      3.0000      6.4750      0.6710   -999.2500      2.2496      0.3290      0.1761      0.4337      0.5087      0.2224      6.4750      1.4426      8.6670    -31.5740    -75.0000      8.6670    -39.5740    -31.5740      0.1046      0.2093      0.2093      0.6710
   1581.5000      3.0000      8.7690      0.6701   -999.2500      2.2455      0.3299      0.1762      0.4339      0.5091      0.2225      8.7690      1.4367      9.3990    -31.7030    -75.0000      9.3990    -39.7030    -31.7030      0.1040      0.2080      0.2080      0.6701
   1582.0000      3.0000      8.8050      0.6725   -999.2500      2.2570      0.3275      0.1760      0.4333      0.5081      0.2222      8.8050      1.4532      9.0780    -31.3440    -75.0000      9.0780    -39.3440    -31.3440      0.1058      0.2116      0.2116      0.6725
   1582.5000      3.0000      7.4780      0.6749   -999.2500      2.2685      0.3251      0.1758      0.4327      0.5071      0.2219      7.4780      1.4699      8.2590    -30.9840    -75.0000      8.2590    -38.9840    -30.9840      0.1076      0.2152      0.2152      0.6749
   1583.0000      3.0000      6.2360      0.6777   -999.2500      2.2821      0.3223      0.1756      0.4320      0.5059      0.2216      6.2360      1.4899      6.1320    -30.5600    -75.0000      6.1320    -38.5600    -30.5600      0.1097      0.2194      0.2194      0.6777
