~V
VERS. 2.00: Ver 2.00
WRAP.   NO:        
~W
 STRT.FT 1040:
 STOP.FT 4600:
 STEP.FT 0.5:
 NULL. -999.250000:
 COMP. Occidental Pet. Co.:Company
 WELL. KCL 18-34:Well
 FLD. :Field
 LOC. S34 T11N R22W:Location
 STAT. CA:State
 SRVC. :Service Company
 SON. :Service Order #
 DATE. :Log Date
 UWI. 3529800:Unique Well ID
~C
 DEPT.FT :
 ILD.OHMM :
 LTHE. :
 MM. :
 PHES. :
 PHTS. :
 PHZC. :
 RD.OHMM :
 ROS. :
 RS.OHMM :
 SBL.MV :
 SCLN. :
 SN.OHMM :
 SP.MV :
 SPN. :
 VCDS. :
 VCLY. :
 VCWS. :
 VSHS. :
~P
~A
# ...
   3000.0000      2.4611      0.4818      2.0692      0.2266      0.3018      0.2955      2.4611   -999.2500      3.9546    -18.3633    -46.6650      3.9546    -40.3633    -30.6055      0.0694      0.1445      0.1445      0.4818
   3000.5000      2.3875      0.5104      2.0967      0.2217      0.3013      0.2947      2.3875   -999.2500      3.7962    -17.9623    -46.7861      3.7962    -39.9623    -29.9372      0.0735      0.1531      0.1531      0.5104
   3001.0000      2.5937      0.5381      2.1233      0.2169      0.3008      0.2938      2.5937   -999.2500      3.7514    -17.7861    -46.9073      3.7514    -39.7861    -29.6435      0.0775      0.1614      0.1614      0.5381
   3001.5000      2.8754      0.5794      2.1630      0.2097      0.3001      0.2926      2.8754   -999.2500      3.8147    -17.4994    -47.0284      3.8147    -39.4994    -29.1656      0.0834      0.1738      0.1738      0.5794
   3002.0000      3.1552      0.6383      2.2195      0.1995      0.2991      0.2908      3.1552   -999.2500      4.0869    -17.0685    -47.1495      4.0869    -39.0685    -28.4476      0.0919      0.1915      0.1915      0.6383
   3002.5000      3.4307      0.7037      2.2824      0.1882      0.2980      0.2889      3.4307   -999.2500      4.5106    -16.5822    -47.2707      4.5106    -38.5822    -27.6370      0.1013      0.2111      0.2111      0.7037
   3003.0000      3.6784      0.7504      2.3272      0.1801      0.2972      0.2875      3.6784   -999.2500      5.1889    -16.2454    -47.3918      5.1889    -38.2454    -27.0757      0.1081      0.2251      0.2251      0.7504
   3003.5000      3.8914      0.5768      2.1606      0.2102      0.3001      0.2927      3.8914   -999.2500      5.7110    -17.7006    -47.5129      5.7110    -39.7006    -29.5011      0.0831      0.1730      0.1730      0.5768
   3004.0000      4.0279      0.4647      2.0530      0.2295      0.3020      0.2960      4.0279   -999.2500      6.1584    -19.0935    -47.6341      6.1584    -41.0935    -31.8225      0.0669      0.1394      0.1394      0.4647
   3004.5000      4.1281      0.3932      1.9843      0.2419      0.3033      0.2982      4.1281   -999.2500      6.4053    -20.6063    -47.7552      6.4053    -42.6063    -34.3438      0.0566      0.1180      0.1180      0.3932
   3005.0000      4.1986      0.3323      1.9266      0.2524      0.3043      0.3000      4.1986   -999.2500      6.5525    -21.9075    -47.8763      6.5525    -43.9075    -36.5125      0.0479      0.0997      0.0997      0.3323
   3005.5000      4.2531      0.2935      1.9150      0.2592      0.3049      0.3011      4.2531   -999.2500      6.6099    -22.7620    -47.9975      6.6099    -44.7620    -37.9366      0.0423      0.0880      0.0880      0.2935
   3006.0000      4.1812      0.3555      1.9483      0.2484      0.3039      0.2993      4.1812   -999.2500      6.4173    -21.5392    -48.1186      6.4173    -43.5392    -35.8987      0.0512      0.1067      0.1067      0.3555
   3006.5000      4.0916      0.4213      2.0114      0.2370      0.3028      0.2973      4.0916   -999.2500      6.1752    -20.2347    -48.2398      6.1752    -42.2347    -33.7245      0.0607      0.1264      0.1264      0.4213
   3007.0000      4.0508      0.5160      2.1024      0.2206      0.3011      0.2945      4.0508   -999.2500      5.8990    -18.5210    -48.3609      5.8990    -40.5210    -30.8683      0.0743      0.1548      0.1548      0.5160
   3007.5000      4.0214      0.6543      2.2352      0.1967      0.2988      0.2903      4.0214   -999.2500      5.5989    -17.4176    -48.4820      5.5989    -39.4176    -29.0294      0.0942      0.1963      0.1963      0.6543
   3008.0000      4.0037      0.7124      2.2910      0.1866      0.2978      0.2885      4.0037   -999.2500      5.7278    -16.9771    -48.6032      5.7278    -38.9771    -28.2952      0.1026      0.2137      0.2137      0.7124
   3008.5000      4.0030      0.7842      2.3600      0.1742      0.2966      0.2864      4.0030   -999.2500      5.9341    -16.4194    -48.7243      5.9341    -38.4194    -27.3657      0.1129      0.2353      0.2353      0.7842
   3009.0000      3.9861      0.8418      2.4490      0.1582      0.2950      0.2836      3.9861   -999.2500      6.0871    -15.6844    -48.8454      6.0871    -37.6844    -26.1406      0.1263      0.2631      0.2631      0.8418
   3009.5000      3.9228      0.8556      2.5254      0.1444      0.2936      0.2812      3.9228   -999.2500      6.1993    -15.0557    -48.9666      6.1993    -37.0557    -25.0928      0.1377      0.2869      0.2869      0.8556
   3010.0000      3.6204      0.8706      2.6085      0.1294      0.2921      0.2786      3.6204   -999.2500      6.0835    -14.3643    -49.0877      6.0835    -36.3643    -23.9405      0.1502      0.3129      0.3129      0.8706
   3010.5000      3.3138      0.8800      2.6606      0.1200      0.2912      0.2770      3.3138   -999.2500      5.7592    -13.9419    -49.2088      5.7592    -35.9419    -23.2364      0.1580      0.3292      0.3292      0.8800
   3011.0000      3.0466      0.8816      2.6695      0.1184      0.2910      0.2767      3.0466   -999.2500      5.2993    -13.8980    -49.3300      5.2993    -35.8980    -23.1633      0.1593      0.3320      0.3320      0.8816
   3011.5000      2.8585      0.6916      2.2712      0.1902      0.2981      0.2891      2.8585   -999.2500      4.8486    -17.4495    -49.4511      4.8486    -39.4495    -29.0825      0.0996      0.2075      0.2075      0.6916
   3012.0000      2.7059      0.4604      2.0493      0.2302      0.3020      0.2961      2.7059   -999.2500      4.5239    -19.9623    -49.5722      4.5239    -41.9623    -33.2705      0.0663      0.1381      0.1381      0.4604
   3012.5000      2.5481      0.3887      1.9805      0.2426      0.3033      0.2982      2.5481   -999.2500      4.2113    -21.5385    -49.6934      4.2113    -43.5385    -35.8975      0.0560      0.1166      0.1166      0.3887
   3013.0000      2.4324      0.3183      1.9228      0.2548      0.3044      0.3003      2.4324   -999.2500      3.8964    -23.0935    -49.8145      3.8964    -45.0935    -38.4892      0.0458      0.0955      0.0955      0.3183
   3013.5000      2.3990      0.2647      1.9068      0.2641      0.3054      0.3019      2.3990   -999.2500      3.5964    -24.2973    -49.9357      3.5964    -46.2973    -40.4955      0.0381      0.0794      0.0794      0.2647
   3014.0000      2.3783      0.2171      1.8925      0.2723      0.3062      0.3033      2.3783   -999.2500      3.3627    -25.3767    -50.0568      3.3627    -47.3767    -42.2945      0.0313      0.0651      0.0651      0.2171
   3014.5000      2.3681      0.2986      1.9170      0.2582      0.3048      0.3009      2.3681   -999.2500      3.1648    -23.6851    -50.1779      3.1648    -45.6851    -39.4752      0.0430      0.0896      0.0896      0.2986
   3015.0000      2.3674      0.3840      1.9761      0.2434      0.3033      0.2983      2.3674   -999.2500      3.0094    -21.9019    -50.2991      3.0094    -43.9019    -36.5032      0.0553      0.1152      0.1152      0.3840
   3015.5000      2.3670      0.4344      2.0245      0.2347      0.3024      0.2968      2.3670   -999.2500      2.9063    -20.8658    -50.4202      2.9063    -42.8658    -34.7763      0.0626      0.1303      0.1303      0.4344
   3016.0000      2.3717      0.4655      2.0544      0.2293      0.3019      0.2959      2.3717   -999.2500      2.9463    -20.2410    -50.5413      2.9463    -42.2410    -33.7350      0.0670      0.1397      0.1397      0.4655
   3016.5000      2.3782      0.5690      2.1538      0.2114      0.3001      0.2928      2.3782   -999.2500      2.9728    -18.9416    -50.6625      2.9728    -40.9416    -31.5693      0.0819      0.1707      0.1707      0.5690
   3017.0000      2.3886      0.8309      2.4053      0.1660      0.2957      0.2849      2.3886   -999.2500      2.9835    -16.7070    -50.7836      2.9835    -38.7070    -27.8450      0.1197      0.2493      0.2493      0.8309
