~V
VERS. 2.00: Ver 2.00
WRAP.   NO:        
~W
 STRT.FT 1040:
 STOP.FT 4600:
 STEP.FT 0.5:
 NULL. -999.250000:
 COMP. Occidental Pet. Co.:Company
 WELL. KCL 18-34:Well
 FLD. :Field
 LOC. S34 T11N R22W:Location
 STAT. CA:State
 SRVC. :Service Company
 SON. :Service Order #
 DATE. :Log Date
 UWI. 3529800:Unique Well ID
~C
 DEPT.FT :
 ILD.OHMM :
 LTHE. :
 MM. :
 PHES. :
 PHTS. :
 PHZC. :
 RD.OHMM :
 ROS. :
 RS.OHMM :
 SBL.MV :
 SCLN. :
 SN.OHMM :
 SP.MV :
 SPN. :
 VCDS. :
 VCLY. :
 VCWS. :
 VSHS. :
~P
~A
# ...
   4575.0000      1.9331      0.6331      2.2214      0.3669      0.4560      0.4524      1.9331      0.6204      2.7067    -24.3157    -95.0000      2.7067    -46.3157    -40.5262      0.0594      0.1486      0.1486      0.3714
   4575.5000      1.9717      0.6352      2.2293      0.3648      0.4554      0.4518      1.9717      0.6258      2.7397    -23.9106    -95.0000      2.7397    -45.9106    -39.8511      0.0604      0.1510      0.1510      0.3775
   4576.0000      2.0103      0.6391      2.2441      0.3609      0.4543      0.4505      2.0103      0.6363      2.7748    -23.5034    -95.0000      2.7748    -45.5034    -39.1724      0.0623      0.1556      0.1556      0.3891
   4576.5000      2.0505      0.6429      2.2583      0.3571      0.4532      0.4493      2.0505      0.6465      2.8099    -23.1164    -95.0000      2.8099    -45.1164    -38.5273      0.0640      0.1600      0.1600      0.4001
   4577.0000      2.0969      0.6355      2.2306      0.3645      0.4553      0.4517      2.0969      0.6266      2.8542    -23.8790    -95.0000      2.8542    -45.8790    -39.7984      0.0605      0.1514      0.1514      0.3784
   4577.5000      2.1268      0.6320      2.2173      0.3680      0.4563      0.4528      2.1268      0.6174      2.9000    -24.6103    -95.0000      2.9000    -46.6103    -41.0172      0.0589      0.1472      0.1472      0.3681
   4578.0000      2.1080      0.6298      2.2090      0.3702      0.4570      0.4535      2.1080      0.6117      2.9426    -25.1831    -95.0000      2.9426    -47.1831    -41.9718      0.0578      0.1446      0.1446      0.3616
   4578.5000      2.0785      0.6282      2.2029      0.3718      0.4574      0.4540      2.0785      0.6075      2.9811    -25.6092    -95.0000      2.9811    -47.6092    -42.6821      0.0571      0.1427      0.1427      0.3567
   4579.0000      2.0384      0.6326      2.2198      0.3674      0.4561      0.4526      2.0384      0.6190      3.0032    -24.4486    -95.0000      3.0032    -46.4486    -40.7477      0.0592      0.1480      0.1480      0.3699
   4579.5000      2.0043      0.6436      2.2613      0.3564      0.4529      0.4491      2.0043      0.6485      2.8657    -23.0386    -95.0000      2.8657    -45.0386    -38.3976      0.0644      0.1609      0.1609      0.4023
   4580.0000      1.9762      0.6541      2.3011      0.3459      0.4499      0.4457      1.9762      0.6785      2.7961    -21.9458    -95.0000      2.7961    -43.9458    -36.5764      0.0693      0.1733      0.1733      0.4334
   4580.5000      1.9462      0.6606      2.3257      0.3394      0.4480      0.4436      1.9462      0.6980      2.7424    -21.2705    -95.0000      2.7424    -43.2705    -35.4508      0.0724      0.1810      0.1810      0.4525
   4581.0000      1.9089      0.6675      2.3518      0.3325      0.4460      0.4414      1.9089      0.7195      2.7083    -20.5532    -95.0000      2.7083    -42.5532    -34.2554      0.0757      0.1892      0.1892      0.4729
   4581.5000      1.8859      0.6597      2.3221      0.3403      0.4483      0.4439      1.8859      0.6950      2.6766    -21.3721    -95.0000      2.6766    -43.3721    -35.6202      0.0719      0.1799      0.1799      0.4497
   4582.0000      1.8836      0.6478      2.2774      0.3522      0.4517      0.4477      1.8836      0.6603      2.6428    -22.6013    -95.0000      2.6428    -44.6013    -37.6689      0.0664      0.1659      0.1659      0.4147
   4582.5000      1.9206      0.6368      2.2356      0.3632      0.4549      0.4512      1.9206      0.6298      2.6503    -23.7535    -95.0000      2.6503    -45.7535    -39.5891      0.0611      0.1528      0.1528      0.3820
   4583.0000      1.9906      0.6319      2.2173      0.3681      0.4563      0.4528      1.9906      0.6170      2.6811    -24.6450    -95.0000      2.6811    -46.6450    -41.0749      0.0588      0.1471      0.1471      0.3677
   4583.5000      2.0475      0.6307      2.2125      0.3693      0.4567      0.4532      2.0475      0.6137      2.7206    -24.9738    -95.0000      2.7206    -46.9738    -41.6230      0.0582      0.1456      0.1456      0.3639
   4584.0000      2.1126      0.6553      2.3056      0.3447      0.4495      0.4453      2.1126      0.6818      2.7890    -21.8306    -95.0000      2.7890    -43.8306    -36.3844      0.0699      0.1747      0.1747      0.4366
   4584.5000      2.1809      0.6768      2.3871      0.3232      0.4433      0.4385      2.1809      0.7496      2.8714    -19.5912    -95.0000      2.8714    -41.5912    -32.6520      0.0800      0.2001      0.2001      0.5002
   4585.0000      2.2514      0.6993      2.4721      0.3007      0.4367      0.4313      2.2514      0.8300      2.9599    -17.2532    -95.0000      2.9599    -39.2532    -28.7554      0.0907      0.2267      0.2267      0.5667
   4585.5000      2.3188      0.7178      2.5423      0.2822      0.4313      0.4254      2.3188      0.9048      3.0530    -15.3242    -95.0000      3.0530    -37.3242    -25.5403      0.0994      0.2486      0.2486      0.6215
   4586.0000      2.3756      0.7379      2.6184      0.2621      0.4255      0.4189      2.3756      0.9959      3.1469    -13.2325    -95.0000      3.1469    -35.2325    -22.0542      0.1089      0.2724      0.2724      0.6809
   4586.5000      2.4363      0.7551      2.6834      0.2449      0.4205      0.4135      2.4363      1.0830      3.2386    -11.4468    -95.0000      3.2386    -33.4468    -19.0780      0.1171      0.2926      0.2926      0.7316
   4587.0000      2.4938      0.7717      2.7460      0.2283      0.4157      0.4082      2.4938      1.1763      3.2774     -9.7254    -95.0000      3.2774    -31.7254    -16.2090      0.1249      0.3122      0.3122      0.7717
   4587.5000      2.4089      0.7870      2.8042      0.2130      0.4112      0.4033      2.4089      1.2720      3.2925     -8.1270    -95.0000      3.2925    -30.1270    -13.5449      0.1322      0.3304      0.3304      0.7870
   4588.0000      2.3417      0.7998      2.8527      0.2002      0.4075      0.3992      2.3417      1.3593      3.2828     -6.7952    -95.0000      3.2828    -28.7952    -11.3253      0.1382      0.3455      0.3455      0.7998
   4588.5000      2.2772      0.7979      2.8455      0.2021      0.4080      0.3998      2.2772      1.3458      3.2522     -6.9937    -95.0000      3.2522    -28.9937    -11.6562      0.1373      0.3433      0.3433      0.7979
   4589.0000      2.2215      0.7901      2.8159      0.2099      0.4103      0.4023      2.2215      1.2922      3.1929     -7.8087    -95.0000      3.1929    -29.8087    -13.0145      0.1336      0.3340      0.3340      0.7901
   4589.5000      2.1781      0.7793      2.7750      0.2207      0.4134      0.4057      2.1781      1.2225      3.1176     -8.9338    -95.0000      3.1176    -30.9338    -14.8896      0.1285      0.3212      0.3212      0.7793
   4590.0000      2.1306      0.7587      2.6971      0.2413      0.4194      0.4123      2.1306      1.1022      3.0463    -11.0764    -95.0000      3.0463    -33.0764    -18.4607      0.1187      0.2969      0.2969      0.7421
   4590.5000      2.1032      0.7490      2.6606      0.2510      0.4222      0.4154      2.1032      1.0509      2.9536    -12.0818    -95.0000      2.9536    -34.0818    -20.1364      0.1142      0.2854      0.2854      0.7136
   4591.0000      2.0746      0.7494      2.6622      0.2506      0.4221      0.4153      2.0746      1.0529      2.8771    -12.0405    -95.0000      2.8771    -34.0405    -20.0674      0.1144      0.2859      0.2859      0.7148
   4591.5000      2.0537      0.7403      2.6278      0.2597      0.4248      0.4182      2.0537      1.0072      2.8262    -12.9882    -95.0000      2.8262    -34.9882    -21.6469      0.1101      0.2751      0.2751      0.6878
   4592.0000      2.0426      0.7213      2.5559      0.2787      0.4303      0.4242      2.0426      0.9195      2.8035    -14.9658    -95.0000      2.8035    -36.9658    -24.9430      0.1011      0.2527      0.2527      0.6317
