~V
VERS. 2.00: Ver 2.00
WRAP.   NO:        
~W
 STRT.FT 1040:
 STOP.FT 4600:
 STEP.FT 0.5:
 NULL. -999.250000:
 COMP. Occidental Pet. Co.:Company
 WELL. KCL 18-34:Well
 FLD. :Field
 LOC. S34 T11N R22W:Location
 STAT. CA:State
 SRVC. :Service Company
 SON. :Service Order #
 DATE. :Log Date
 UWI. 3529800:Unique Well ID
~C
 DEPT.FT :
 ILD.OHMM :
 LTHE. :
 MM. :
 PHES. :
 PHTS. :
 PHZC. :
 RD.OHMM :
 ROS. :
 RS.OHMM :
 SBL.MV :
 SCLN. :
 SN.OHMM :
 SP.MV :
 SPN. :
 VCDS. :
 VCLY. :
 VCWS. :
 VSHS. :
~P
~A
# ...
   4207.5000      3.7352      0.6144      2.1294      0.3856      0.4630      0.4599      3.7352      0.5833      4.8309    -28.6203    -95.0000      4.8309    -50.6204    -47.7006      0.0516      0.1290      0.1290      0.3225
   4208.0000      3.6699      0.6150      2.1319      0.3850      0.4628      0.4597      3.6699      0.5849      4.8662    -28.4500    -95.0000      4.8662    -50.4501    -47.4167      0.0519      0.1298      0.1298      0.3244
   4208.5000      3.4753      0.6162      2.1362      0.3838      0.4625      0.4594      3.4753      0.5876      4.8123    -28.1609    -95.0000      4.8123    -50.1609    -46.9348      0.0524      0.1311      0.1311      0.3277
   4209.0000      3.2642      0.6180      2.1431      0.3820      0.4620      0.4588      3.2642      0.5921      4.7144    -27.6840    -95.0000      4.7144    -49.6840    -46.1399      0.0533      0.1333      0.1333      0.3331
   4209.5000      3.1021      0.6201      2.1512      0.3799      0.4613      0.4581      3.1021      0.5973      4.6000    -27.1292    -95.0000      4.6000    -49.1292    -45.2153      0.0543      0.1358      0.1358      0.3394
   4210.0000      2.9711      0.6215      2.1565      0.3785      0.4609      0.4576      2.9711      0.6008      4.4708    -26.7692    -95.0000      4.4708    -48.7692    -44.6153      0.0550      0.1374      0.1374      0.3435
   4210.5000      2.8905      0.6182      2.1440      0.3818      0.4619      0.4587      2.8905      0.5925      4.3411    -27.6310    -95.0000      4.3411    -49.6310    -46.0516      0.0534      0.1335      0.1335      0.3337
   4211.0000      2.8104      0.6151      2.1325      0.3849      0.4628      0.4597      2.8104      0.5851      4.2127    -28.4259    -95.0000      4.2127    -50.4259    -47.3766      0.0520      0.1299      0.1299      0.3247
   4211.5000      2.7388      0.6115      2.1187      0.3885      0.4638      0.4608      2.7388      0.5763      4.0881    -29.3765    -95.0000      4.0881    -51.3765    -48.9608      0.0502      0.1256      0.1256      0.3139
   4212.0000      2.6713      0.6149      2.1317      0.3851      0.4628      0.4597      2.6713      0.5845      3.9809    -28.4849    -95.0000      3.9809    -50.4849    -47.4748      0.0518      0.1296      0.1296      0.3240
   4212.5000      2.6149      0.6180      2.1434      0.3820      0.4619      0.4587      2.6149      0.5920      3.8754    -27.6863    -95.0000      3.8754    -49.6863    -46.1439      0.0533      0.1332      0.1332      0.3331
   4213.0000      2.5592      0.6192      2.1479      0.3808      0.4616      0.4584      2.5592      0.5949      3.7726    -27.3774    -95.0000      3.7726    -49.3774    -45.6291      0.0539      0.1346      0.1346      0.3366
   4213.5000      2.5054      0.6196      2.1496      0.3804      0.4615      0.4582      2.5054      0.5960      3.6659    -27.2643    -95.0000      3.6659    -49.2643    -45.4406      0.0541      0.1352      0.1352      0.3379
   4214.0000      2.4531      0.6193      2.1485      0.3807      0.4616      0.4583      2.4531      0.5952      3.5676    -27.3424    -95.0000      3.5676    -49.3424    -45.5707      0.0539      0.1348      0.1348      0.3370
   4214.5000      2.4021      0.6190      2.1471      0.3810      0.4617      0.4584      2.4021      0.5943      3.4766    -27.4418    -95.0000      3.4766    -49.4418    -45.7364      0.0537      0.1344      0.1344      0.3359
   4215.0000      2.3562      0.6183      2.1448      0.3817      0.4618      0.4586      2.3562      0.5927      3.3932    -27.6053    -95.0000      3.3932    -49.6053    -46.0088      0.0534      0.1336      0.1336      0.3340
   4215.5000      2.3140      0.6173      2.1409      0.3827      0.4621      0.4590      2.3140      0.5902      3.3306    -27.8748    -95.0000      3.3306    -49.8748    -46.4581      0.0530      0.1324      0.1324      0.3310
   4216.0000      2.2762      0.6164      2.1374      0.3836      0.4624      0.4593      2.2762      0.5879      3.2907    -28.1168    -95.0000      3.2907    -50.1168    -46.8613      0.0525      0.1313      0.1313      0.3282
   4216.5000      2.2572      0.6155      2.1341      0.3845      0.4627      0.4595      2.2572      0.5858      3.2841    -28.3450    -95.0000      3.2841    -50.3450    -47.2416      0.0521      0.1303      0.1303      0.3256
   4217.0000      2.2472      0.6148      2.1314      0.3852      0.4629      0.4598      2.2472      0.5840      3.2836    -28.5345    -95.0000      3.2836    -50.5345    -47.5574      0.0518      0.1294      0.1294      0.3235
   4217.5000      2.2624      0.6142      2.1295      0.3858      0.4630      0.4599      2.2624      0.5827      3.2832    -28.6714    -95.0000      3.2832    -50.6714    -47.7856      0.0515      0.1288      0.1288      0.3219
   4218.0000      2.2980      0.6139      2.1284      0.3861      0.4631      0.4600      2.2980      0.5820      3.2829    -28.7494    -95.0000      3.2829    -50.7494    -47.9157      0.0514      0.1284      0.1284      0.3210
   4218.5000      2.3570      0.6138      2.1278      0.3862      0.4631      0.4601      2.3570      0.5816      3.3089    -28.7905    -95.0000      3.3089    -50.7905    -47.9842      0.0513      0.1282      0.1282      0.3206
   4219.0000      2.4419      0.6214      2.1568      0.3786      0.4609      0.4576      2.4419      0.6003      3.3574    -26.8022    -95.0000      3.3574    -48.8022    -44.6703      0.0549      0.1373      0.1373      0.3432
   4219.5000      2.5461      0.6274      2.1792      0.3726      0.4592      0.4557      2.5461      0.6154      3.4221    -25.2594    -95.0000      3.4221    -47.2594    -42.0991      0.0577      0.1443      0.1443      0.3607
   4220.0000      2.6516      0.6274      2.1792      0.3726      0.4592      0.4557      2.6516      0.6153      3.4928    -25.2618    -95.0000      3.4928    -47.2618    -42.1031      0.0577      0.1443      0.1443      0.3607
   4220.5000      2.7535      0.6272      2.1787      0.3728      0.4592      0.4558      2.7535      0.6149      3.5907    -25.3052    -95.0000      3.5907    -47.3052    -42.1753      0.0576      0.1441      0.1441      0.3602
   4221.0000      2.8568      0.6274      2.1795      0.3726      0.4592      0.4557      2.8568      0.6155      3.7173    -25.2496    -95.0000      3.7173    -47.2496    -42.0826      0.0577      0.1443      0.1443      0.3608
   4221.5000      2.9604      0.6284      2.1832      0.3716      0.4589      0.4554      2.9604      0.6179      3.8484    -25.0013    -95.0000      3.8484    -47.0013    -41.6688      0.0582      0.1454      0.1454      0.3636
   4222.0000      3.0793      0.6313      2.1944      0.3687      0.4580      0.4545      3.0793      0.6257      4.0677    -24.2314    -95.0000      4.0677    -46.2314    -40.3856      0.0596      0.1489      0.1489      0.3724
   4222.5000      3.1945      0.6377      2.2183      0.3623      0.4562      0.4524      3.1945      0.6426      4.3184    -23.4364    -95.0000      4.3184    -45.4364    -39.0606      0.0626      0.1564      0.1564      0.3910
   4223.0000      3.3014      0.6404      2.2286      0.3596      0.4554      0.4516      3.3014      0.6500      4.5815    -23.1553    -95.0000      4.5815    -45.1553    -38.5922      0.0638      0.1596      0.1596      0.3990
   4223.5000      3.4453      0.6371      2.2161      0.3629      0.4564      0.4526      3.4453      0.6409      4.7712    -23.4994    -95.0000      4.7712    -45.4994    -39.1656      0.0623      0.1557      0.1557      0.3892
   4224.0000      3.5466      0.6318      2.1962      0.3682      0.4579      0.4543      3.5466      0.6268      4.9204    -24.1158    -95.0000      4.9204    -46.1158    -40.1930      0.0598      0.1495      0.1495      0.3737
   4224.5000      3.6378      0.6292      2.1865      0.3708      0.4586      0.4551      3.6378      0.6200      5.0634    -24.7908    -95.0000      5.0634    -46.7908    -41.3179      0.0586      0.1464      0.1464      0.3660
