~V
VERS. 2.00: Ver 2.00
WRAP.   NO:        
~W
 STRT.FT 20:
 STOP.FT 3550:
 STEP.FT 0.5:
 NULL. -999.250000:
 COMP. Western Gulf (Chevron):Company
 WELL. KCL SAN EMIGDIO #1:Well
 FLD. Los Lobos:Field
 LOC. S34 T11N R22W:Location
 STAT. CA:State
 SRVC. :Service Company
 SON. :Service Order #
 DATE. :Log Date
 UWI. 2124700:Unique Well ID
~C
 DEPT.FT :
 LAT.OHMM :
 LTHE. :
 MM. :
 NOR.OHMM :
 PHES. :
 PHMX. :
 PHTS. :
 PHZC. :
 RD.OHMM :
 ROS. :
 RS.OHMM :
 SBL.MV :
 SCLN. :
 SP.MV :
 SPN. :
 VCDS. :
 VCLY. :
 VCWS. :
 VSHS. :
~P
~A
# ...
   3114.0000     15.7840      1.7326      2.8111     19.2540      0.0000   -999.2500      0.2703      0.2569     15.7840   -999.2500     19.2540    -10.6949    -69.2309    -28.7690    -17.8249      0.2495      0.5198      0.5198      1.7326
   3114.5000     15.3100      1.6545      2.8003     25.8310      0.0000   -999.2500      0.2581      0.2592     15.3100   -999.2500     25.8310    -12.0849    -69.2312    -30.1960    -20.1415      0.2382      0.4963      0.4963      1.6545
   3115.0000     14.5700      1.5746      2.7893     22.2310      0.0000   -999.2500      0.2456      0.2616     14.5700   -999.2500     22.2310    -13.5069    -69.2315    -31.6550    -22.5114      0.2267      0.4724      0.4724      1.5746
   3115.5000     13.1600      1.5087      2.7802     20.6530      0.0000   -999.2500      0.2354      0.2636     13.1600   -999.2500     20.6530    -14.6808    -69.2318    -32.8660    -24.4680      0.2173      0.4526      0.4526      1.5087
   3116.0000     10.2900      1.4141      2.7671     19.3020      0.0000   -999.2500      0.2206      0.2664     10.2900   -999.2500     19.3020    -15.8548    -69.2321    -34.0770    -26.4246      0.2036      0.4242      0.4242      1.4141
   3116.5000      9.0080      0.8896      2.7136     18.5520      0.1104   -999.2500      0.2893      0.2744      9.0080   -999.2500     18.5520    -19.0297    -69.2324    -37.2890    -31.7162      0.1651      0.3440      0.3440      0.8896
   3117.0000      8.0220      0.8891      2.7110     18.4430      0.1109   -999.2500      0.2893      0.2745      8.0220   -999.2500     18.4430    -19.0627    -69.2327    -37.3590    -31.7712      0.1647      0.3432      0.3432      0.8891
   3117.5000      7.5680      1.3278      2.7552     18.9460      0.0000   -999.2500      0.2071      0.2690      7.5680   -999.2500     18.9460    -16.8797    -69.2330    -35.2130    -28.1328      0.1912      0.3983      0.3983      1.3278
   3118.0000      7.5080      1.4783      2.7761     19.3100      0.0000   -999.2500      0.2306      0.2645      7.5080   -999.2500     19.3100    -15.0936    -69.2334    -33.4640    -25.1561      0.2129      0.4435      0.4435      1.4783
   3118.5000      8.1880      1.5692      2.7887     21.3110      0.0000   -999.2500      0.2448      0.2617      8.1880   -999.2500     21.3110    -13.6046    -69.2337    -32.0120    -22.6743      0.2260      0.4707      0.4707      1.5692
   3119.0000      9.2030      1.6528      2.8003     23.2430      0.0000   -999.2500      0.2578      0.2592      9.2030   -999.2500     23.2430    -12.1156    -69.2340    -30.5600    -20.1926      0.2380      0.4958      0.4958      1.6528
   3119.5000     13.4030      1.6788      2.8040     23.6570      0.0000   -999.2500      0.2619      0.2584     13.4030   -999.2500     23.6570    -11.6525    -69.2343    -30.1340    -19.4209      0.2417      0.5036      0.5036      1.6788
   3120.0000     13.3830      1.7234      2.8102     22.8580      0.0000   -999.2500      0.2689      0.2571     13.3830   -999.2500     22.8580    -10.8585    -69.2346    -29.3770    -18.0975      0.2482      0.5170      0.5170      1.7234
   3120.5000     12.3960      1.7216      2.8099     19.7710      0.0000   -999.2500      0.2686      0.2571     12.3960   -999.2500     19.7710    -10.8914    -69.2349    -29.4470    -18.1524      0.2479      0.5165      0.5165      1.7216
   3121.0000     11.4000      1.7197      2.8097     17.3350      0.0000   -999.2500      0.2683      0.2572     11.4000   -999.2500     17.3350    -10.9244    -69.2352    -29.5170    -18.2073      0.2476      0.5159      0.5159      1.7197
   3121.5000      8.9940      1.6965      2.8065     15.4720      0.0000   -999.2500      0.2646      0.2579      8.9940   -999.2500     15.4720    -11.3384    -69.2355    -29.9680    -18.8973      0.2443      0.5089      0.5089      1.6965
   3122.0000      8.3130      1.6733      2.8033     14.6330      0.0000   -999.2500      0.2610      0.2586      8.3130   -999.2500     14.6330    -11.7513    -69.2359    -30.4180    -19.5856      0.2410      0.5020      0.5020      1.6733
   3122.5000      6.9620      1.7197      2.8098     13.3510      0.0000   -999.2500      0.2683      0.2572      6.9620   -999.2500     13.3510    -10.9243    -69.2362    -29.6280    -18.2072      0.2476      0.5159      0.5159      1.7197
   3123.0000      6.5960      1.7662      2.8162     12.7690      0.0000   -999.2500      0.2755      0.2558      6.5960   -999.2500     12.7690    -10.0973    -69.2365    -28.8380    -16.8288      0.2543      0.5299      0.5299      1.7662
   3123.5000      6.2310      1.8480      2.8276     11.8120      0.0000   -999.2500      0.2773      0.2533      6.2310   -999.2500     11.8120     -8.6412    -69.2368    -27.4190    -14.4020      0.2661      0.5544      0.5434      1.8480
   3124.0000      5.6880      1.8740      2.8312     11.0320      0.0000   -999.2500      0.2768      0.2525      5.6880   -999.2500     11.0320     -8.1782    -69.2371    -26.9930    -13.6303      0.2699      0.5622      0.5467      1.8740
   3124.5000      5.6780      1.9000      2.8348     10.5390      0.0000   -999.2500      0.2764      0.2518      5.6780   -999.2500     10.5390     -7.7151    -69.2374    -26.5670    -12.8586      0.2736      0.5700      0.5500      1.9000
   3125.0000      5.7810      1.9223      2.8380     10.3220      0.0000   -999.2500      0.2760      0.2511      5.7810   -999.2500     10.3220     -7.3181    -69.2377    -26.2070    -12.1969      0.2768      0.5767      0.5528      1.9223
   3125.5000      5.8840      1.9446      2.8411     10.2130      0.0000   -999.2500      0.2756      0.2504      5.8840   -999.2500     10.2130     -6.9211    -69.2381    -25.8470    -11.5351      0.2800      0.5834      0.5556      1.9446
   3126.0000      6.2980      1.9186      2.8375     10.2910      0.0000   -999.2500      0.2760      0.2512      6.2980   -999.2500     10.2910     -7.3840    -69.2384    -26.3470    -12.3067      0.2763      0.5756      0.5523      1.9186
   3126.5000      6.8300      1.8258      2.8247     10.3690      0.0000   -999.2500      0.2776      0.2540      6.8300   -999.2500     10.3690     -9.0370    -69.2387    -28.0370    -15.0617      0.2629      0.5477      0.5405      1.8258
   3127.0000      7.3620      1.7765      2.8179     10.7490      0.0000   -999.2500      0.2771      0.2554      7.3620   -999.2500     10.7490     -9.9140    -69.2390    -28.9510    -16.5233      0.2558      0.5330      0.5330      1.7765
   3127.5000      7.8940      1.7273      2.8111     11.1280      0.0000   -999.2500      0.2695      0.2569      7.8940   -999.2500     11.1280    -10.7899    -69.2393    -29.8640    -17.9832      0.2487      0.5182      0.5182      1.7273
   3128.0000     12.5470      1.6456      2.7998     12.3300      0.0000   -999.2500      0.2567      0.2594     12.5470   -999.2500     12.3300    -12.2449    -69.2396    -31.3560    -20.4081      0.2370      0.4937      0.4937      1.6456
   3128.5000     15.5940      1.6307      2.7978     13.8290      0.0000   -999.2500      0.2544      0.2598     15.5940   -999.2500     13.8290    -12.5099    -69.2399    -31.6580    -20.8498      0.2348      0.4892      0.4892      1.6307
   3129.0000     21.7950      1.6308      2.7978     14.1830      0.0000   -999.2500      0.2544      0.2598     21.7950   -999.2500     14.1830    -12.5088    -69.2402    -31.6940    -20.8480      0.2348      0.4892      0.4892      1.6308
   3129.5000     22.0110      1.6308      2.7978     11.0970      0.0000   -999.2500      0.2544      0.2598     22.0110   -999.2500     11.0970    -12.5088    -69.2406    -31.7310    -20.8480      0.2348      0.4892      0.4892      1.6308
   3130.0000     21.2620      1.5491      2.7865     10.3270      0.0000   -999.2500      0.2417      0.2622     21.2620   -999.2500     10.3270    -13.9637    -69.2409    -33.2230    -23.2729      0.2231      0.4647      0.4647      1.5491
   3130.5000     20.5120      1.4509      2.7730     10.0110      0.0000   -999.2500      0.2263      0.2652     20.5120   -999.2500     10.0110    -15.4197    -69.2412    -34.7160    -25.6995      0.2089      0.4353      0.4353      1.4509
