~V
VERS. 2.00: Ver 2.00
WRAP.   NO:        
~W
 STRT.FT 1040:
 STOP.FT 4600:
 STEP.FT 0.5:
 NULL. -999.250000:
 COMP. Occidental Pet. Co.:Company
 WELL. KCL 18-34:Well
 FLD. :Field
 LOC. S34 T11N R22W:Location
 STAT. CA:State
 SRVC. :Service Company
 SON. :Service Order #
 DATE. :Log Date
 UWI. 3529800:Unique Well ID
~C
 DEPT.FT :
 ILD.OHMM :
 LTHE. :
 MM. :
 PHES. :
 PHTS. :
 PHZC. :
 RD.OHMM :
 ROS. :
 RS.OHMM :
 SBL.MV :
 SCLN. :
 SN.OHMM :
 SP.MV :
 SPN. :
 VCDS. :
 VCLY. :
 VCWS. :
 VSHS. :
~P
~A
# ...
   3122.5000      4.4719      1.1916      2.7367      0.0000      0.1859      0.2730      4.4719   -999.2500      7.1372    -17.1052    -64.0291      7.1372    -39.1052    -28.5087      0.1716      0.3575      0.3575      1.1916
   3123.0000      4.8905      0.8877      2.7035      0.1123      0.2894      0.2747      4.8905   -999.2500      7.1131    -17.7063    -63.9816      7.1131    -39.7063    -29.5105      0.1635      0.3407      0.3407      0.8877
   3123.5000      5.3369      0.8851      2.6890      0.1149      0.2897      0.2751      5.3369   -999.2500      7.2469    -17.8590    -63.9340      7.2469    -39.8590    -29.7650      0.1614      0.3362      0.3362      0.8851
   3124.0000      5.8045      1.2075      2.7389      0.0000      0.1884      0.2725      5.8045   -999.2500      7.9236    -16.8938    -63.8865      7.9236    -38.8938    -28.1563      0.1739      0.3622      0.3622      1.2075
   3124.5000      6.5359      1.3350      2.7566      0.0000      0.2083      0.2687      6.5359   -999.2500      8.9978    -15.4851    -63.8389      8.9978    -37.4851    -25.8085      0.1922      0.4005      0.4005      1.3350
   3125.0000      7.5826      1.4452      2.7719      0.0000      0.2255      0.2654      7.5826   -999.2500     10.0053    -14.2689    -63.7914     10.0053    -36.2689    -23.7814      0.2081      0.4336      0.4336      1.4452
   3125.5000      8.7938      1.5242      2.7829      0.0000      0.2378      0.2630      8.7938   -999.2500     11.6956    -13.2634    -63.7438     11.6956    -35.2634    -22.1057      0.2195      0.4572      0.4572      1.5242
   3126.0000     10.3231      1.5669      2.7888      0.0000      0.2444      0.2617     10.3231   -999.2500     13.6656    -12.5527    -63.6963     13.6656    -34.5527    -20.9211      0.2256      0.4701      0.4701      1.5669
   3126.5000     11.8713      1.4386      2.7711      0.0000      0.2244      0.2656     11.8713   -999.2500     15.3925    -14.3085    -63.6487     15.3925    -36.3085    -23.8476      0.2072      0.4316      0.4316      1.4386
   3127.0000     12.5109      1.3104      2.7533      0.0000      0.2044      0.2694     12.5109   -999.2500     16.3659    -15.6961    -63.6012     16.3659    -37.6961    -26.1601      0.1887      0.3931      0.3931      1.3104
   3127.5000     12.7086      1.2125      2.7398      0.0000      0.1892      0.2723     12.7086   -999.2500     16.5484    -16.7506    -63.5536     16.5484    -38.7506    -27.9177      0.1746      0.3638      0.3638      1.2125
   3128.0000     12.0788      1.1698      2.7339      0.0000      0.1825      0.2736     12.0788   -999.2500     16.4703    -17.2037    -63.5061     16.4703    -39.2037    -28.6728      0.1684      0.3509      0.3509      1.1698
   3128.5000     10.8919      1.1761      2.7348      0.0000      0.1835      0.2734     10.8919   -999.2500     15.8572    -17.1222    -63.4586     15.8572    -39.1222    -28.5371      0.1694      0.3528      0.3528      1.1761
   3129.0000      8.2400      1.1909      2.7369      0.0000      0.1858      0.2730      8.2400   -999.2500     14.0457    -16.9478    -63.4110     14.0457    -38.9479    -28.2464      0.1715      0.3573      0.3573      1.1909
   3129.5000      6.6201      1.2125      2.7399      0.0000      0.1891      0.2723      6.6201   -999.2500     12.1718    -16.7013    -63.3635     12.1718    -38.7013    -27.8355      0.1746      0.3637      0.3637      1.2125
   3130.0000      5.7489      1.2346      2.7430      0.0000      0.1926      0.2717      5.7489   -999.2500     11.2967    -16.4484    -63.3159     11.2967    -38.4484    -27.4139      0.1778      0.3704      0.3704      1.2346
   3130.5000      5.2278      1.2571      2.7461      0.0000      0.1961      0.2710      5.2278   -999.2500     10.2917    -16.1919    -63.2684     10.2917    -38.1919    -26.9865      0.1810      0.3771      0.3771      1.2571
   3131.0000      4.8666      1.2890      2.7506      0.0000      0.2011      0.2700      4.8666   -999.2500      8.3108    -15.8343    -63.2208      8.3108    -37.8343    -26.3905      0.1856      0.3867      0.3867      1.2890
   3131.5000      4.5382      1.3265      2.7558      0.0000      0.2069      0.2689      4.5382   -999.2500      7.4225    -15.4161    -63.1733      7.4225    -37.4161    -25.6936      0.1910      0.3979      0.3979      1.3265
   3132.0000      4.2369      1.3551      2.7598      0.0000      0.2114      0.2680      4.2369   -999.2500      7.1075    -15.0951    -63.1257      7.1075    -37.0951    -25.1585      0.1951      0.4065      0.4065      1.3551
   3132.5000      3.9582      1.3776      2.7629      0.0000      0.2149      0.2673      3.9582   -999.2500      6.9196    -14.8407    -63.0782      6.9196    -36.8407    -24.7345      0.1984      0.4133      0.4133      1.3776
   3133.0000      3.6855      0.8904      2.7184      0.1096      0.2891      0.2742      3.6855   -999.2500      6.7240    -17.2812    -63.0306      6.7240    -39.2812    -28.8020      0.1657      0.3452      0.3452      0.8904
   3133.5000      3.4468      0.8555      2.5248      0.1445      0.2925      0.2802      3.4468   -999.2500      6.4170    -19.4464    -62.9831      6.4170    -41.4464    -32.4106      0.1366      0.2847      0.2847      0.8555
   3134.0000      3.2218      0.5882      1.9689      0.4118      0.4752      0.4727      3.2218      0.5569      5.9796    -21.2870    -62.9355      5.9796    -43.2870    -35.4783      0.0423      0.1057      0.1057      0.2642
   3134.5000      3.0275      0.6355      2.1477      0.3645      0.4615      0.4576      3.0275      0.6775      5.4771    -22.9842    -95.0000      5.4771    -44.9842    -38.3069      0.0646      0.1615      0.1615      0.4039
   3135.0000      2.8566      0.6236      2.1030      0.3764      0.4649      0.4613      2.8566      0.6443      4.9739    -24.5363    -95.0000      4.9739    -46.5363    -40.8939      0.0590      0.1476      0.1476      0.3689
   3135.5000      2.7142      0.6180      2.0815      0.3820      0.4665      0.4632      2.7142      0.6291      4.5990    -26.0147    -95.0000      4.5990    -48.0147    -43.3579      0.0563      0.1408      0.1408      0.3521
   3136.0000      2.5980      0.6130      2.0627      0.3870      0.4680      0.4648      2.5980      0.6161      4.2989    -27.3132    -95.0000      4.2989    -49.3132    -45.5221      0.0540      0.1349      0.1349      0.3373
   3136.5000      2.5294      0.6156      2.0726      0.3844      0.4672      0.4639      2.5294      0.6228      4.0317    -26.6356    -95.0000      4.0317    -48.6356    -44.3927      0.0552      0.1380      0.1380      0.3451
   3137.0000      2.4913      0.6202      2.0900      0.3798      0.4659      0.4624      2.4913      0.6349      3.8237    -25.4402    -95.0000      3.8237    -47.4402    -42.4003      0.0574      0.1435      0.1435      0.3586
   3137.5000      2.4938      0.6244      2.1059      0.3756      0.4647      0.4611      2.4938      0.6462      3.6600    -24.3479    -95.0000      3.6600    -46.3479    -40.5798      0.0594      0.1484      0.1484      0.3710
   3138.0000      2.4978      0.6300      2.1270      0.3700      0.4630      0.4593      2.4978      0.6616      3.5485    -23.5602    -95.0000      3.5485    -45.5602    -39.2669      0.0620      0.1550      0.1550      0.3875
   3138.5000      2.5141      0.6370      2.1535      0.3630      0.4610      0.4571      2.5141      0.6816      3.5054    -22.8324    -95.0000      3.5054    -44.8324    -38.0540      0.0653      0.1633      0.1633      0.4082
   3139.0000      2.5316      0.6436      2.1785      0.3564      0.4591      0.4550      2.5316      0.7012      3.5275    -22.1457    -95.0000      3.5275    -44.1457    -36.9095      0.0684      0.1711      0.1711      0.4277
   3139.5000      2.5433      0.6508      2.2061      0.3492      0.4570      0.4527      2.5433      0.7237      3.5952    -21.3903    -95.0000      3.5952    -43.3903    -35.6505      0.0719      0.1797      0.1797      0.4491
