~V
VERS. 2.00: Ver 2.00
WRAP.   NO:        
~W
 STRT.FT 1040:
 STOP.FT 4600:
 STEP.FT 0.5:
 NULL. -999.250000:
 COMP. Occidental Pet. Co.:Company
 WELL. KCL 18-34:Well
 FLD. :Field
 LOC. S34 T11N R22W:Location
 STAT. CA:State
 SRVC. :Service Company
 SON. :Service Order #
 DATE. :Log Date
 UWI. 3529800:Unique Well ID
~C
 DEPT.FT :
 ILD.OHMM :
 LTHE. :
 MM. :
 PHES. :
 PHTS. :
 PHZC. :
 RD.OHMM :
 ROS. :
 RS.OHMM :
 SBL.MV :
 SCLN. :
 SN.OHMM :
 SP.MV :
 SPN. :
 VCDS. :
 VCLY. :
 VCWS. :
 VSHS. :
~P
~A
# ...
   2755.0000      2.0335   -999.2500   -999.2500   -999.2500   -999.2500   -999.2500      2.0335   -999.2500      2.5309     -7.7774    -37.0000      2.5309    -30.2380    -12.9624   -999.2500   -999.2500   -999.2500   -999.2500
   2755.5000      2.1080   -999.2500   -999.2500   -999.2500   -999.2500   -999.2500      2.1080   -999.2500      2.4931     -6.7328    -37.0000      2.4931    -29.1922    -11.2213   -999.2500   -999.2500   -999.2500   -999.2500
   2756.0000      2.2014   -999.2500   -999.2500   -999.2500   -999.2500   -999.2500      2.2014   -999.2500      2.4980     -5.8537    -37.0000      2.4980    -28.3119     -9.7562   -999.2500   -999.2500   -999.2500   -999.2500
   2756.5000      2.3947   -999.2500   -999.2500   -999.2500   -999.2500   -999.2500      2.3947   -999.2500      2.5263     -5.2620    -37.0000      2.5263    -27.7189     -8.7699   -999.2500   -999.2500   -999.2500   -999.2500
   2757.0000      2.6004   -999.2500   -999.2500   -999.2500   -999.2500   -999.2500      2.6004   -999.2500      2.6248     -5.0548    -37.0000      2.6248    -27.5106     -8.4247   -999.2500   -999.2500   -999.2500   -999.2500
   2757.5000      2.7517   -999.2500   -999.2500   -999.2500   -999.2500   -999.2500      2.7517   -999.2500      2.7636     -5.1458    -37.0000      2.7636    -27.6003     -8.5763   -999.2500   -999.2500   -999.2500   -999.2500
   2758.0000      2.7821   -999.2500   -999.2500   -999.2500   -999.2500   -999.2500      2.7821   -999.2500      2.9393     -5.2916    -37.0000      2.9393    -27.7449     -8.8193   -999.2500   -999.2500   -999.2500   -999.2500
   2758.5000      2.7813   -999.2500   -999.2500   -999.2500   -999.2500   -999.2500      2.7813   -999.2500      3.1128     -5.5911    -37.0000      3.1128    -28.0432     -9.3185   -999.2500   -999.2500   -999.2500   -999.2500
   2759.0000      2.8641   -999.2500   -999.2500   -999.2500   -999.2500   -999.2500      2.8641   -999.2500      3.2435     -5.9013    -37.0000      3.2435    -28.3522     -9.8354   -999.2500   -999.2500   -999.2500   -999.2500
   2759.5000      3.0243   -999.2500   -999.2500   -999.2500   -999.2500   -999.2500      3.0243   -999.2500      3.3190     -6.1640    -37.0000      3.3190    -28.6137    -10.2734   -999.2500   -999.2500   -999.2500   -999.2500
   2760.0000      3.1594   -999.2500   -999.2500   -999.2500   -999.2500   -999.2500      3.1594   -999.2500      3.3183     -6.3848    -37.0000      3.3183    -28.8333    -10.6413   -999.2500   -999.2500   -999.2500   -999.2500
   2760.5000      3.0979   -999.2500   -999.2500   -999.2500   -999.2500   -999.2500      3.0979   -999.2500      3.3164     -6.4545    -37.0000      3.3164    -28.9017    -10.7575   -999.2500   -999.2500   -999.2500   -999.2500
   2761.0000      3.0025   -999.2500   -999.2500   -999.2500   -999.2500   -999.2500      3.0025   -999.2500      3.3101     -6.4921    -37.0000      3.3101    -28.9381    -10.8201   -999.2500   -999.2500   -999.2500   -999.2500
   2761.5000      2.8997   -999.2500   -999.2500   -999.2500   -999.2500   -999.2500      2.8997   -999.2500      3.3072     -6.0211    -37.0000      3.3072    -28.4660    -10.0352   -999.2500   -999.2500   -999.2500   -999.2500
   2762.0000      2.8463   -999.2500   -999.2500   -999.2500   -999.2500   -999.2500      2.8463   -999.2500      3.3157     -5.5783    -37.0000      3.3157    -28.0219     -9.2972   -999.2500   -999.2500   -999.2500   -999.2500
   2762.5000      2.9601   -999.2500   -999.2500   -999.2500   -999.2500   -999.2500      2.9601   -999.2500      3.3287     -5.0453    -37.0000      3.3287    -27.4877     -8.4089   -999.2500   -999.2500   -999.2500   -999.2500
   2763.0000      3.1264   -999.2500   -999.2500   -999.2500   -999.2500   -999.2500      3.1264   -999.2500      3.3287     -6.0934    -37.0000      3.3287    -28.5346    -10.1556   -999.2500   -999.2500   -999.2500   -999.2500
   2763.5000      3.2501   -999.2500   -999.2500   -999.2500   -999.2500   -999.2500      3.2501   -999.2500      3.3430     -7.0445    -37.0000      3.3430    -29.4845    -11.7408   -999.2500   -999.2500   -999.2500   -999.2500
   2764.0000      3.3033   -999.2500   -999.2500   -999.2500   -999.2500   -999.2500      3.3033   -999.2500      3.3668     -7.8409    -37.0000      3.3668    -30.2797    -13.0681   -999.2500   -999.2500   -999.2500   -999.2500
   2764.5000      3.2942   -999.2500   -999.2500   -999.2500   -999.2500   -999.2500      3.2942   -999.2500      3.4637     -6.6319    -37.0000      3.4637    -29.0695    -11.0532   -999.2500   -999.2500   -999.2500   -999.2500
   2765.0000      3.2518   -999.2500   -999.2500   -999.2500   -999.2500   -999.2500      3.2518   -999.2500      3.6035     -5.7773    -37.0000      3.6035    -28.2136     -9.6288   -999.2500   -999.2500   -999.2500   -999.2500
   2765.5000      3.1392   -999.2500   -999.2500   -999.2500   -999.2500   -999.2500      3.1392   -999.2500      3.7296     -5.2804    -37.0000      3.7296    -27.7156     -8.8007   -999.2500   -999.2500   -999.2500   -999.2500
   2766.0000      2.9518   -999.2500   -999.2500   -999.2500   -999.2500   -999.2500      2.9518   -999.2500      3.8604     -8.5778    -37.0000      3.8604    -31.0117    -14.2963   -999.2500   -999.2500   -999.2500   -999.2500
   2766.5000      2.7476   -999.2500   -999.2500   -999.2500   -999.2500   -999.2500      2.7476   -999.2500      3.9840    -11.9111    -37.0000      3.9840    -34.3438    -19.8518   -999.2500   -999.2500   -999.2500   -999.2500
   2767.0000      2.5279   -999.2500   -999.2500   -999.2500   -999.2500   -999.2500      2.5279   -999.2500      4.0354    -15.3735    -37.0000      4.0354    -37.8050    -25.6225   -999.2500   -999.2500   -999.2500   -999.2500
   2767.5000      2.3534   -999.2500   -999.2500   -999.2500   -999.2500   -999.2500      2.3534   -999.2500      3.8794    -18.8540    -37.0000      3.8794    -41.2843    -31.4233   -999.2500   -999.2500   -999.2500   -999.2500
   2768.0000      2.2099   -999.2500   -999.2500   -999.2500   -999.2500   -999.2500      2.2099   -999.2500      2.7949    -20.4692    -37.0000      2.7949    -42.8982    -34.1153   -999.2500   -999.2500   -999.2500   -999.2500
   2768.5000      2.0861   -999.2500   -999.2500   -999.2500   -999.2500   -999.2500      2.0861   -999.2500      2.3504    -20.3168    -37.0000      2.3504    -42.7447    -33.8614   -999.2500   -999.2500   -999.2500   -999.2500
   2769.0000      1.9805   -999.2500   -999.2500   -999.2500   -999.2500   -999.2500      1.9805   -999.2500      2.0885    -19.1538    -37.0000      2.0885    -41.5805    -31.9230   -999.2500   -999.2500   -999.2500   -999.2500
   2769.5000      1.8838   -999.2500   -999.2500   -999.2500   -999.2500   -999.2500      1.8838   -999.2500      1.9218    -16.4233    -37.0000      1.9218    -38.8487    -27.3721   -999.2500   -999.2500   -999.2500   -999.2500
   2770.0000      1.7962      0.7571      2.3212      0.1813      0.2994      0.2896      1.7962   -999.2500      1.8527    -12.6408    -37.0000      1.8527    -35.0650    -21.0680      0.1090      0.2271      0.2271      0.7571
   2770.5000      1.7328      1.2846      2.7308      0.0000      0.2004      0.2738      1.7328   -999.2500      1.8207     -9.2949    -37.0000      1.8207    -31.7179    -15.4915      0.1850      0.3854      0.3854      1.2846
   2771.0000      1.6945      1.4716      2.7567      0.0000      0.2296      0.2681      1.6945   -999.2500      1.7887     -8.1089    -37.0000      1.7887    -30.5307    -13.5148      0.2119      0.4415      0.4415      1.4716
   2771.5000      1.6701      1.5300      2.7648      0.0000      0.2387      0.2664      1.6701   -999.2500      1.7743     -7.6427    -37.0000      1.7743    -30.0633    -12.7379      0.2203      0.4590      0.4590      1.5300
   2772.0000      1.6516      1.5557      2.7684      0.0000      0.2427      0.2656      1.6516   -999.2500      1.7642     -7.3987    -37.0000      1.7642    -29.8181    -12.3311      0.2240      0.4667      0.4667      1.5557
