~V
VERS. 2.00: Ver 2.00
WRAP.   NO:        
~W
 STRT.FT 20:
 STOP.FT 3550:
 STEP.FT 0.5:
 NULL. -999.250000:
 COMP. Western Gulf (Chevron):Company
 WELL. KCL SAN EMIGDIO #1:Well
 FLD. Los Lobos:Field
 LOC. S34 T11N R22W:Location
 STAT. CA:State
 SRVC. :Service Company
 SON. :Service Order #
 DATE. :Log Date
 UWI. 2124700:Unique Well ID
~C
 DEPT.FT :
 LAT.OHMM :
 LTHE. :
 MM. :
 NOR.OHMM :
 PHES. :
 PHMX. :
 PHTS. :
 PHZC. :
 RD.OHMM :
 ROS. :
 RS.OHMM :
 SBL.MV :
 SCLN. :
 SP.MV :
 SPN. :
 VCDS. :
 VCLY. :
 VCWS. :
 VSHS. :
~P
~A
# ...
   3267.0000      3.4020      0.7789      2.6365      3.4260      0.2211      0.1644      0.3766      0.4442      3.4020      1.2127      3.4260    -11.8696    -69.3266    -41.2770    -19.7827      0.1555      0.3110      0.3110      0.7789
   3267.5000      3.3720      0.7908      2.6940      3.3820      0.2092      0.1635      0.3736      0.4393      3.3720      1.3101      3.3820    -10.8736    -69.3269    -40.3180    -18.1226      0.1645      0.3289      0.3289      0.7908
   3268.0000      3.4110      0.7927      2.7028      3.4180      0.2073      0.1634      0.3732      0.4385      3.4110      1.3258      3.4180    -10.7215    -69.3272    -40.2030    -17.8692      0.1658      0.3317      0.3317      0.7927
   3268.5000      3.4950      0.7945      2.7116      3.4540      0.2055      0.1632      0.3727      0.4378      3.4950      1.3416      3.4540    -10.5705    -69.3275    -40.0890    -17.6175      0.1672      0.3344      0.3344      0.7945
   3269.0000      3.5790      0.7997      2.7367      3.4900      0.2003      0.1629      0.3715      0.4357      3.5790      1.3884      3.4900    -10.1364    -69.3278    -39.6920    -16.8941      0.1711      0.3422      0.3422      0.7997
   3269.5000      3.6630      0.8049      2.7616      3.5640      0.1951      0.1625      0.3702      0.4336      3.6630      1.4370      3.5640     -9.7034    -69.3281    -39.2960    -16.1723      0.1750      0.3500      0.3500      0.8049
   3270.0000      3.7470      0.8132      2.7674      3.6380      0.1868      0.1618      0.3681      0.4301      3.7470      1.4743      3.6380     -9.0054    -69.3284    -38.6350    -15.0089      0.1813      0.3626      0.3626      0.8132
   3270.5000      3.9240      0.8148      2.7686      3.7370      0.1852      0.1617      0.3677      0.4295      3.9240      1.4817      3.7370     -8.8703    -69.3288    -38.5370    -14.7839      0.1825      0.3651      0.3651      0.8148
   3271.0000      3.9930      0.7983      2.7299      3.8350      0.2017      0.1629      0.3718      0.4362      3.9930      1.3752      3.8350    -10.2563    -69.3291    -39.9600    -17.0938      0.1700      0.3401      0.3401      0.7983
   3271.5000      3.9690      0.7762      2.6233      3.9340      0.2238      0.1646      0.3771      0.4452      3.9690      1.1909      3.9340    -12.1053    -69.3294    -41.8460    -20.1754      0.1534      0.3067      0.3067      0.7762
   3272.0000      3.9440      0.7664      2.5758      3.8850      0.2336      0.1653      0.3795      0.4492      3.9440      1.1187      3.8850    -12.9292    -69.3297    -42.7070    -21.5487      0.1459      0.2919      0.2919      0.7664
   3272.5000      3.8600      0.7661      2.5741      3.8450      0.2339      0.1653      0.3796      0.4493      3.8600      1.1162      3.8450    -12.9592    -69.3300    -42.7740    -21.5986      0.1457      0.2913      0.2913      0.7661
   3273.0000      3.7760      0.7693      2.5896      3.8060      0.2307      0.1651      0.3788      0.4480      3.7760      1.1389      3.8060    -12.6911    -69.3303    -42.5430    -21.1519      0.1481      0.2962      0.2962      0.7693
   3273.5000      3.6880      0.7725      2.6051      3.7270      0.2275      0.1649      0.3780      0.4467      3.6880      1.1622      3.7270    -12.4241    -69.3306    -42.3130    -20.7069      0.1505      0.3010      0.3010      0.7725
   3274.0000      3.5990      0.7769      2.6263      3.6480      0.2231      0.1645      0.3769      0.4449      3.5990      1.1952      3.6480    -12.0571    -69.3309    -41.9830    -20.0951      0.1538      0.3076      0.3076      0.7769
   3274.5000      3.5300      0.7858      2.6695      3.5790      0.2142      0.1639      0.3747      0.4413      3.5300      1.2661      3.5790    -11.3090    -69.3313    -41.2720    -18.8484      0.1606      0.3211      0.3211      0.7858
   3275.0000      3.5790      0.7947      2.7126      3.5690      0.2053      0.1632      0.3726      0.4376      3.5790      1.3422      3.5690    -10.5620    -69.3316    -40.5620    -17.6033      0.1673      0.3346      0.3346      0.7947
   3275.5000      3.6280      0.7952      2.7148      3.5590      0.2048      0.1632      0.3724      0.4374      3.6280      1.3460      3.5590    -10.5260    -69.3319    -40.5630    -17.5433      0.1676      0.3352      0.3352      0.7952
   3276.0000      3.8750      0.7925      2.7017      3.5050      0.2075      0.1634      0.3731      0.4385      3.8750      1.3221      3.5050    -10.7539    -69.3322    -40.8280    -17.9232      0.1656      0.3311      0.3311      0.7925
   3276.5000      3.9830      0.8040      2.7572      3.4510      0.1960      0.1625      0.3703      0.4338      3.9830      1.4267      3.4510     -9.7919    -69.3325    -39.9030    -16.3198      0.1742      0.3485      0.3485      0.8040
   3277.0000      4.0720      0.8133      2.7679      3.3520      0.1867      0.1618      0.3680      0.4300      4.0720      1.4736      3.3520     -9.0119    -69.3328    -39.1600    -15.0198      0.1813      0.3625      0.3625      0.8133
   3277.5000      4.1120      0.8227      2.7745      3.2540      0.1773      0.1611      0.3656      0.4262      4.1120      1.5169      3.2540     -8.2308    -69.3331    -38.4160    -13.7180      0.1883      0.3766      0.3766      0.8227
   3278.0000      4.1120      0.8219      2.7740      3.1650      0.1781      0.1612      0.3658      0.4265      4.1120      1.5133      3.1650     -8.2938    -69.3335    -38.5160    -13.8230      0.1877      0.3755      0.3755      0.8219
   3278.5000      4.0920      0.8212      2.7735      3.1520      0.1788      0.1612      0.3660      0.4268      4.0920      1.5096      3.1520     -8.3577    -69.3338    -38.6170    -13.9296      0.1872      0.3743      0.3743      0.8212
   3279.0000      4.0430      0.8141      2.7686      3.1390      0.1859      0.1618      0.3677      0.4297      4.0430      1.4768      3.1390     -8.9497    -69.3341    -39.2460    -14.9162      0.1818      0.3636      0.3636      0.8141
   3279.5000      3.9740      0.8070      2.7637      3.1250      0.1930      0.1623      0.3695      0.4325      3.9740      1.4450      3.1250     -9.5417    -69.3344    -39.8750    -15.9028      0.1765      0.3530      0.3530      0.8070
   3280.0000      3.8550      0.8035      2.7550      3.1650      0.1965      0.1625      0.3703      0.4340      3.8550      1.4216      3.1650     -9.8356    -69.3347    -40.2060    -16.3927      0.1738      0.3477      0.3477      0.8035
   3280.5000      3.7170      0.7996      2.7361      3.2040      0.2004      0.1628      0.3713      0.4356      3.7170      1.3849      3.2040    -10.1636    -69.3350    -40.5710    -16.9393      0.1709      0.3418      0.3418      0.7996
   3281.0000      3.6040      0.8005      2.7401      3.2780      0.1995      0.1628      0.3710      0.4352      3.6040      1.3925      3.2780    -10.0946    -69.3353    -40.5390    -16.8243      0.1715      0.3430      0.3430      0.8005
   3281.5000      3.4900      0.8013      2.7441      3.3520      0.1987      0.1627      0.3708      0.4349      3.4900      1.4001      3.3520    -10.0255    -69.3356    -40.5070    -16.7092      0.1721      0.3443      0.3443      0.8013
   3282.0000      3.3130      0.8223      2.7745      3.3520      0.1777      0.1611      0.3656      0.4263      3.3130      1.5145      3.3520     -8.2685    -69.3360    -38.7870    -13.7808      0.1880      0.3759      0.3759      0.8223
   3282.5000      3.3030      0.8833      2.8168      3.3330      0.1167      0.1566      0.3505      0.4016      3.3030      1.8420      3.3330     -2.7084    -69.3363    -33.2640     -4.5141      0.2337      0.4674      0.4674      0.8833
   3283.0000      3.3030      0.8905      2.8218      3.3130      0.1095      0.1561      0.3486      0.3987      3.3030      1.8866      3.3130     -1.8124    -69.3366    -32.4050     -3.0207      0.2391      0.4782      0.4782      0.8905
   3283.5000      3.3030      0.8685      2.8067      3.3230      0.1315      0.1577      0.3541      0.4075      3.3030      1.7544      3.3230     -4.4224    -69.3369    -35.0520     -7.3706      0.2226      0.4453      0.4453      0.8685
