~V
VERS. 2.00: Ver 2.00
WRAP.   NO:        
~W
 STRT.FT 20:
 STOP.FT 3550:
 STEP.FT 0.5:
 NULL. -999.250000:
 COMP. Western Gulf (Chevron):Company
 WELL. KCL SAN EMIGDIO #1:Well
 FLD. Los Lobos:Field
 LOC. S34 T11N R22W:Location
 STAT. CA:State
 SRVC. :Service Company
 SON. :Service Order #
 DATE. :Log Date
 UWI. 2124700:Unique Well ID
~C
 DEPT.FT :
 LAT.OHMM :
 LTHE. :
 MM. :
 NOR.OHMM :
 PHES. :
 PHMX. :
 PHTS. :
 PHZC. :
 RD.OHMM :
 ROS. :
 RS.OHMM :
 SBL.MV :
 SCLN. :
 SP.MV :
 SPN. :
 VCDS. :
 VCLY. :
 VCWS. :
 VSHS. :
~P
~A
# ...
   3012.0000      3.8350      1.4556      2.7673      1.9030      0.0000   -999.2500      0.2271      0.2662      3.8350   -999.2500      1.9030    -15.3481    -69.1670    -37.4860    -25.5801      0.2096      0.4367      0.4367      1.4556
   3012.5000      3.9350      1.3890      2.7581      1.9630      0.0000   -999.2500      0.2167      0.2682      3.9350   -999.2500      1.9630    -16.1376    -69.1674    -38.2410    -26.8959      0.2000      0.4167      0.4167      1.3890
   3013.0000      4.0340      1.4674      2.7690      2.0230      0.0000   -999.2500      0.2289      0.2658      4.0340   -999.2500      2.0230    -15.2080    -69.1677    -37.2770    -25.3467      0.2113      0.4402      0.4402      1.4674
   3013.5000      3.9460      1.5147      2.7756      2.0530      0.0000   -999.2500      0.2363      0.2644      3.9460   -999.2500      2.0530    -14.5595    -69.1680    -36.5940    -24.2659      0.2181      0.4544      0.4544      1.5147
   3014.0000      3.8040      1.5512      2.7807      2.0840      0.0000   -999.2500      0.2420      0.2633      3.8040   -999.2500      2.0840    -13.9110    -69.1683    -35.9110    -23.1850      0.2234      0.4654      0.4654      1.5512
   3014.5000      3.6620      1.6705      2.7972      2.1140      0.0000   -999.2500      0.2606      0.2597      3.6620   -999.2500      2.1140    -11.7895    -69.1686    -33.7550    -19.6491      0.2406      0.5011      0.5011      1.6705
   3015.0000      3.5810      1.7041      2.8019      2.1450      0.0000   -999.2500      0.2658      0.2587      3.5810   -999.2500      2.1450    -11.1910    -69.1689    -33.1220    -18.6516      0.2454      0.5112      0.5112      1.7041
   3015.5000      3.5000      1.7090      2.8026      2.1410      0.0000   -999.2500      0.2666      0.2586      3.5000   -999.2500      2.1410    -11.1044    -69.1692    -33.0010    -18.5074      0.2461      0.5127      0.5127      1.7090
   3016.0000      3.4180      1.7139      2.8033      2.1370      0.0000   -999.2500      0.2674      0.2584      3.4180   -999.2500      2.1370    -11.0179    -69.1695    -32.8800    -18.3632      0.2468      0.5142      0.5142      1.7139
   3016.5000      3.2320      1.7048      2.8021      2.1080      0.0000   -999.2500      0.2659      0.2587      3.2320   -999.2500      2.1080    -11.1794    -69.1699    -33.0070    -18.6324      0.2455      0.5114      0.5114      1.7048
   3017.0000      3.1290      1.6622      2.7962      2.0790      0.0000   -999.2500      0.2593      0.2600      3.1290   -999.2500      2.0790    -11.9369    -69.1702    -33.7300    -19.8948      0.2394      0.4987      0.4987      1.6622
   3017.5000      3.0270      1.6383      2.7929      2.0510      0.0000   -999.2500      0.2556      0.2607      3.0270   -999.2500      2.0510    -12.3624    -69.1705    -34.1210    -20.6040      0.2359      0.4915      0.4915      1.6383
   3018.0000      2.8990      1.7835      2.8130      2.0220      0.0000   -999.2500      0.2782      0.2563      2.8990   -999.2500      2.0220     -9.7799    -69.1708    -31.5040    -16.2998      0.2568      0.5350      0.5350      1.7835
   3018.5000      2.7720      1.7186      2.8041      2.0100      0.0000   -999.2500      0.2681      0.2583      2.7720   -999.2500      2.0100    -10.9333    -69.1711    -32.6230    -18.2222      0.2475      0.5156      0.5156      1.7186
   3019.0000      2.6690      1.6873      2.7998      1.9970      0.0000   -999.2500      0.2632      0.2592      2.6690   -999.2500      1.9970    -11.4918    -69.1714    -33.1470    -19.1530      0.2430      0.5062      0.5062      1.6873
   3019.5000      2.5670      1.7953      2.8148      1.9850      0.0000   -999.2500      0.2792      0.2559      2.5670   -999.2500      1.9850     -9.5693    -69.1717    -31.1900    -15.9489      0.2585      0.5386      0.5377      1.7953
   3020.0000      2.4840      1.8253      2.8189      1.9830      0.0000   -999.2500      0.2787      0.2550      2.4840   -999.2500      1.9830     -9.0368    -69.1720    -30.6230    -15.0613      0.2628      0.5476      0.5415      1.8253
   3020.5000      2.4010      1.7828      2.8131      1.9800      0.0000   -999.2500      0.2781      0.2563      2.4010   -999.2500      1.9800     -9.7933    -69.1724    -31.3450    -16.3221      0.2567      0.5348      0.5348      1.7828
   3021.0000      2.3460      1.7457      2.8080      1.9780      0.0000   -999.2500      0.2723      0.2574      2.3460   -999.2500      1.9780    -10.4518    -69.1727    -31.9690    -17.4196      0.2514      0.5237      0.5237      1.7457
   3021.5000      2.2910      1.7143      2.8036      1.9790      0.0000   -999.2500      0.2674      0.2584      2.2910   -999.2500      1.9790    -11.0102    -69.1730    -32.4930    -18.3504      0.2469      0.5143      0.5143      1.7143
   3022.0000      2.2360      1.6996      2.8016      1.9800      0.0000   -999.2500      0.2651      0.2588      2.2360   -999.2500      1.9800    -11.2717    -69.1733    -32.7200    -18.7862      0.2447      0.5099      0.5099      1.6996
   3022.5000      2.1480      1.8375      2.8207      1.9810      0.0000   -999.2500      0.2785      0.2547      2.1480   -999.2500      1.9810     -8.8202    -69.1736    -30.2340    -14.7003      0.2646      0.5512      0.5430      1.8375
   3023.0000      2.1340      1.8730      2.8257      1.9770      0.0000   -999.2500      0.2778      0.2536      2.1340   -999.2500      1.9770     -8.1877    -69.1739    -29.5670    -13.6461      0.2697      0.5619      0.5476      1.8730
   3023.5000      2.1200      1.8863      2.8276      1.9730      0.0000   -999.2500      0.2776      0.2532      2.1200   -999.2500      1.9730     -7.9522    -69.1742    -29.2970    -13.2536      0.2716      0.5659      0.5492      1.8863
   3024.0000      2.1380      1.9088      2.8307      1.9830      0.0000   -999.2500      0.2772      0.2525      2.1380   -999.2500      1.9830     -7.5517    -69.1745    -28.8620    -12.5861      0.2749      0.5726      0.5521      1.9088
   3024.5000      2.1550      1.9239      2.8328      1.9940      0.0000   -999.2500      0.2770      0.2520      2.1550   -999.2500      1.9940     -7.2831    -69.1749    -28.5590    -12.1386      0.2770      0.5772      0.5540      1.9239
   3025.0000      2.1720      1.9343      2.8343      2.0200      0.0000   -999.2500      0.2768      0.2517      2.1720   -999.2500      2.0200     -7.0976    -69.1752    -28.3390    -11.8294      0.2785      0.5803      0.5553      1.9343
   3025.5000      2.2080      1.9447      2.8358      2.0450      0.0000   -999.2500      0.2766      0.2514      2.2080   -999.2500      2.0450     -6.9131    -69.1755    -28.1200    -11.5218      0.2800      0.5834      0.5566      1.9447
   3026.0000      2.2430      1.9579      2.8376      2.0800      0.0000   -999.2500      0.2764      0.2510      2.2430   -999.2500      2.0800     -6.6776    -69.1758    -27.8500    -11.1293      0.2819      0.5874      0.5583      1.9579
   3026.5000      2.3230      1.9414      2.8354      2.1160      0.0000   -999.2500      0.2766      0.2515      2.3230   -999.2500      2.1160     -6.9711    -69.1761    -28.1090    -11.6184      0.2796      0.5824      0.5562      1.9414
   3027.0000      2.3630      1.9035      2.8301      2.1460      0.0000   -999.2500      0.2773      0.2526      2.3630   -999.2500      2.1460     -7.6456    -69.1764    -28.7490    -12.7426      0.2741      0.5711      0.5514      1.9035
   3027.5000      2.4030      1.8656      2.8249      2.1960      0.0000   -999.2500      0.2779      0.2538      2.4030   -999.2500      2.1960     -8.3200    -69.1767    -29.3890    -13.8667      0.2686      0.5597      0.5466      1.8656
   3028.0000      2.4490      1.8091      2.8171      2.2470      0.0000   -999.2500      0.2789      0.2554      2.4490   -999.2500      2.2470     -9.3255    -69.1770    -30.3600    -15.5425      0.2605      0.5427      0.5394      1.8091
   3028.5000      2.4940      1.7526      2.8093      2.3860      0.0000   -999.2500      0.2734      0.2571      2.4940   -999.2500      2.3860    -10.3300    -69.1774    -31.3300    -17.2167      0.2524      0.5258      0.5258      1.7526
