~V
VERS. 2.00: Ver 2.00
WRAP.   NO:        
~W
 STRT.FT 20:
 STOP.FT 3550:
 STEP.FT 0.5:
 NULL. -999.250000:
 COMP. Western Gulf (Chevron):Company
 WELL. KCL SAN EMIGDIO #1:Well
 FLD. Los Lobos:Field
 LOC. S34 T11N R22W:Location
 STAT. CA:State
 SRVC. :Service Company
 SON. :Service Order #
 DATE. :Log Date
 UWI. 2124700:Unique Well ID
~C
 DEPT.FT :
 LAT.OHMM :
 LTHE. :
 MM. :
 NOR.OHMM :
 PHES. :
 PHMX. :
 PHTS. :
 PHZC. :
 RD.OHMM :
 ROS. :
 RS.OHMM :
 SBL.MV :
 SCLN. :
 SP.MV :
 SPN. :
 VCDS. :
 VCLY. :
 VCWS. :
 VSHS. :
~P
~A
# ...
   3488.0000      3.5030      0.7122      2.3042      2.3640      0.2878      0.1689      0.3887      0.4688      3.5030      0.7752      2.3640    -17.9710    -69.4648    -58.9710    -29.9517      0.1008      0.2016      0.2016      0.6721
   3488.5000      3.5220      0.7112      2.2994      2.3100      0.2888      0.1689      0.3889      0.4692      3.5220      0.7708      2.3100    -18.0550    -69.4651    -59.0550    -30.0917      0.1001      0.2001      0.2001      0.6670
   3489.0000      3.5520      0.7129      2.3079      2.2500      0.2871      0.1688      0.3885      0.4685      3.5520      0.7785      2.2500    -17.9080    -69.4655    -58.9080    -29.8467      0.1014      0.2028      0.2028      0.6758
   3489.5000      3.5420      0.7147      2.3164      2.1910      0.2853      0.1687      0.3880      0.4678      3.5420      0.7864      2.1910    -17.7610    -69.4658    -58.7610    -29.6017      0.1027      0.2054      0.2054      0.6847
   3490.0000      3.5320      0.7182      2.3336      2.1810      0.2818      0.1684      0.3872      0.4663      3.5320      0.8025      2.1810    -17.4640    -69.4661    -58.4640    -29.1067      0.1054      0.2107      0.2107      0.7025
   3490.5000      3.4630      0.6947      2.2193      2.1710      0.3053      0.1702      0.3928      0.4760      3.4630      0.7020      2.1710    -19.4500    -69.4664    -60.4500    -32.4167      0.0875      0.1750      0.1750      0.5834
   3491.0000      3.4040      0.6854      2.1735      2.1810      0.3146      0.1709      0.3950      0.4798      3.4040      0.6664      2.1810    -20.2450    -69.4667    -61.2450    -33.7417      0.0804      0.1607      0.1607      0.5357
   3491.5000      3.3440      0.6782      2.1385      2.1960      0.3218      0.1714      0.3967      0.4828      3.3440      0.6406      2.1960    -20.8750    -69.4670    -61.8750    -34.7917      0.0749      0.1497      0.1497      0.4992
   3492.0000      3.1870      0.6767      2.1309      2.2100      0.3233      0.1715      0.3970      0.4834      3.1870      0.6352      2.2100    -21.2080    -69.4673    -62.2080    -35.3467      0.0737      0.1474      0.1474      0.4912
   3492.5000      3.0680      0.6784      2.1393      2.2790      0.3216      0.1714      0.3966      0.4827      3.0680      0.6411      2.2790    -20.8450    -69.4677    -61.8450    -34.7417      0.0750      0.1500      0.1500      0.4999
   3493.0000      2.9990      0.6889      2.1905      2.3480      0.3111      0.1706      0.3941      0.4783      2.9990      0.6791      2.3480    -19.9530    -69.4680    -60.9530    -33.2550      0.0830      0.1660      0.1660      0.5532
   3493.5000      2.9000      0.6902      2.1971      2.3930      0.3098      0.1705      0.3938      0.4778      2.9000      0.6842      2.3930    -19.8390    -69.4683    -60.8390    -33.0650      0.0840      0.1680      0.1680      0.5601
   3494.0000      2.8410      0.6916      2.2038      2.4370      0.3084      0.1704      0.3934      0.4772      2.8410      0.6893      2.4370    -19.7250    -69.4686    -60.7250    -32.8750      0.0850      0.1701      0.1701      0.5669
   3494.5000      2.7720      0.6926      2.2085      2.5250      0.3074      0.1703      0.3932      0.4768      2.7720      0.6930      2.5250    -19.6440    -69.4689    -60.6440    -32.7400      0.0858      0.1715      0.1715      0.5718
   3495.0000      2.7030      0.6935      2.2132      2.5550      0.3065      0.1703      0.3930      0.4764      2.7030      0.6967      2.5550    -19.5630    -69.4692    -60.5630    -32.6050      0.0865      0.1730      0.1730      0.5766
   3495.5000      2.6530      0.6963      2.2265      2.5840      0.3037      0.1700      0.3923      0.4753      2.6530      0.7074      2.5840    -19.3320    -69.4695    -60.3320    -32.2200      0.0886      0.1771      0.1771      0.5905
   3496.0000      2.8010      0.6978      2.2340      2.6340      0.3022      0.1699      0.3919      0.4746      2.8010      0.7135      2.6340    -19.2020    -69.4698    -60.2020    -32.0033      0.0897      0.1795      0.1795      0.5983
   3496.5000      2.9790      0.6986      2.2378      2.6380      0.3014      0.1699      0.3917      0.4743      2.9790      0.7166      2.6380    -19.1370    -69.4702    -60.1370    -31.8950      0.0903      0.1807      0.1807      0.6022
   3497.0000      3.1260      0.6994      2.2416      2.6430      0.3006      0.1698      0.3915      0.4740      3.1260      0.7197      2.6430    -19.0730    -69.4705    -60.0730    -31.7883      0.0909      0.1818      0.1818      0.6060
   3497.5000      3.2450      0.7005      2.2473      2.6230      0.2995      0.1697      0.3913      0.4735      3.2450      0.7244      2.6230    -18.9750    -69.4708    -59.9750    -31.6250      0.0918      0.1836      0.1836      0.6119
   3498.0000      3.3090      0.6784      2.1394      2.6040      0.3216      0.1714      0.3965      0.4826      3.3090      0.6407      2.6040    -20.8610    -69.4711    -61.8610    -34.7683      0.0749      0.1499      0.1499      0.4995
   3498.5000      3.3730      0.6750      2.1226      2.5840      0.3250      0.1716      0.3973      0.4840      3.3730      0.6289      2.5840    -21.5900    -69.4714    -62.5900    -35.9833      0.0723      0.1446      0.1446      0.4820
   3499.0000      3.4120      0.6775      2.1348      2.5440      0.3225      0.1714      0.3967      0.4830      3.4120      0.6374      2.5440    -21.0630    -69.4717    -62.0630    -35.1050      0.0742      0.1484      0.1484      0.4947
   3499.5000      3.3720      0.6791      2.1424      2.5050      0.3209      0.1713      0.3963      0.4823      3.3720      0.6428      2.5050    -20.8000    -69.4720    -61.8000    -34.6667      0.0754      0.1507      0.1507      0.5025
   3500.0000      3.3080      0.6752      2.1234      2.4750      0.3248      0.1716      0.3972      0.4839      3.3080      0.6293      2.4750    -21.5620    -69.4723    -62.5620    -35.9367      0.0724      0.1448      0.1448      0.4827
   3500.5000      3.2440      0.6716      2.1059      2.4450      0.3284      0.1719      0.3981      0.4854      3.2440      0.6172      2.4450    -22.3240    -69.4727    -63.3240    -37.2067      0.0697      0.1393      0.1393      0.4644
   3501.0000      3.1160      0.6718      2.1067      2.4110      0.3282      0.1719      0.3980      0.4853      3.1160      0.6177      2.4110    -22.2920    -69.4730    -63.2920    -37.1533      0.0698      0.1396      0.1396      0.4652
   3501.5000      2.9920      0.6729      2.1120      2.3760      0.3271      0.1718      0.3977      0.4848      2.9920      0.6213      2.3760    -22.0630    -69.4733    -63.0630    -36.7717      0.0706      0.1412      0.1412      0.4707
   3502.0000      2.8690      0.6740      2.1173      2.2970      0.3260      0.1717      0.3975      0.4844      2.8690      0.6249      2.2970    -21.8330    -69.4736    -62.8330    -36.3883      0.0714      0.1429      0.1429      0.4762
   3502.5000      2.7060      0.6772      2.1334      2.2720      0.3228      0.1715      0.3967      0.4830      2.7060      0.6361      2.2720    -21.1390    -69.4739    -62.1390    -35.2317      0.0739      0.1479      0.1479      0.4929
   3503.0000      2.5430      0.6822      2.1574      2.2480      0.3178      0.1711      0.3955      0.4810      2.5430      0.6534      2.2480    -20.5450    -69.4742    -61.5450    -34.2417      0.0777      0.1553      0.1553      0.5178
   3503.5000      2.4350      0.6849      2.1706      2.2230      0.3151      0.1709      0.3949      0.4799      2.4350      0.6632      2.2230    -20.3150    -69.4745    -61.3150    -33.8583      0.0797      0.1595      0.1595      0.5316
   3504.0000      2.3260      0.6892      2.1915      2.1980      0.3108      0.1706      0.3938      0.4781      2.3260      0.6790      2.1980    -19.9530    -69.4748    -60.9530    -33.2550      0.0830      0.1660      0.1660      0.5533
   3504.5000      2.3010      0.6934      2.2124      2.2080      0.3066      0.1702      0.3928      0.4763      2.3010      0.6953      2.2080    -19.5910    -69.4752    -60.5910    -32.6517      0.0863      0.1725      0.1725      0.5751
