~V
VERS. 2.00: Ver 2.00
WRAP.   NO:        
~W
 STRT.FT 20:
 STOP.FT 3550:
 STEP.FT 0.5:
 NULL. -999.250000:
 COMP. Western Gulf (Chevron):Company
 WELL. KCL SAN EMIGDIO #1:Well
 FLD. Los Lobos:Field
 LOC. S34 T11N R22W:Location
 STAT. CA:State
 SRVC. :Service Company
 SON. :Service Order #
 DATE. :Log Date
 UWI. 2124700:Unique Well ID
~C
 DEPT.FT :
 LAT.OHMM :
 LTHE. :
 MM. :
 NOR.OHMM :
 PHES. :
 PHMX. :
 PHTS. :
 PHZC. :
 RD.OHMM :
 ROS. :
 RS.OHMM :
 SBL.MV :
 SCLN. :
 SP.MV :
 SPN. :
 VCDS. :
 VCLY. :
 VCWS. :
 VSHS. :
~P
~A
# ...
   3063.0000      4.4980      2.1695      2.8689      4.4780      0.0000   -999.2500      0.2724      0.2443      4.4980   -999.2500      4.4780     -2.9151    -69.1989    -21.8160     -4.8585      0.3124      0.6509      0.5848      2.1695
   3063.5000      4.2520      2.1934      2.8722      3.9660      0.0000   -999.2500      0.2720      0.2436      4.2520   -999.2500      3.9660     -2.4891    -69.1993    -21.3810     -4.1485      0.3159      0.6580      0.5878      2.1934
   3064.0000      4.0060      2.1988      2.8730      3.8880      0.0000   -999.2500      0.2719      0.2434      4.0060   -999.2500      3.8880     -2.3931    -69.1996    -21.2760     -3.9885      0.3166      0.6597      0.5885      2.1988
   3064.5000      3.6870      2.1865      2.8713      3.8100      0.0000   -999.2500      0.2721      0.2438      3.6870   -999.2500      3.8100     -2.6121    -69.1999    -21.4860     -4.3535      0.3149      0.6560      0.5869      2.1865
   3065.0000      3.3670      2.1742      2.8696      4.0570      0.0000   -999.2500      0.2723      0.2441      3.3670   -999.2500      4.0570     -2.8311    -69.2002    -21.6960     -4.7186      0.3131      0.6523      0.5854      2.1742
   3065.5000      3.0230      2.1424      2.8653      4.3050      0.0000   -999.2500      0.2728      0.2451      3.0230   -999.2500      4.3050     -3.3981    -69.2005    -22.2540     -5.6636      0.3085      0.6427      0.5813      2.1424
   3066.0000      2.6790      2.1106      2.8609      4.2960      0.0000   -999.2500      0.2734      0.2460      2.6790   -999.2500      4.2960     -3.9642    -69.2008    -22.8110     -6.6069      0.3039      0.6332      0.5773      2.1106
   3066.5000      2.5120      2.0025      2.8460      4.2480      0.0000   -999.2500      0.2752      0.2493      2.5120   -999.2500      4.2480     -5.8862    -69.2011    -24.7240     -9.8103      0.2884      0.6008      0.5636      2.0025
   3067.0000      2.6510      1.8499      2.8248      4.5940      0.0000   -999.2500      0.2778      0.2538      2.6510   -999.2500      4.5940     -8.6022    -69.2014    -27.4310    -14.3370      0.2664      0.5550      0.5442      1.8499
   3067.5000      2.7900      1.5021      2.7767      5.5610      0.0000   -999.2500      0.2343      0.2643      2.7900   -999.2500      5.5610    -14.7912    -69.2018    -33.6110    -24.6520      0.2163      0.4506      0.4506      1.5021
   3068.0000      3.4810      0.8803      2.6623      6.4980      0.1197   -999.2500      0.2906      0.2764      3.4810   -999.2500      6.4980    -19.6242    -69.2021    -38.4350    -32.7070      0.1578      0.3287      0.3287      0.8803
   3068.5000      4.1920      0.4125      2.0064      7.0070      0.2379   -999.2500      0.3023      0.2969      4.1920   -999.2500      7.0070    -29.2862    -69.2024    -48.0880    -48.8103      0.0594      0.1238      0.1238      0.4125
   3069.0000      5.1690      0.3589      1.9549      7.5150      0.2472   -999.2500      0.3032      0.2985      5.1690   -999.2500      7.5150    -30.8782    -69.2027    -49.6710    -51.4637      0.0517      0.1077      0.1077      0.3589
   3069.5000      6.1750      0.3141      1.9246     10.2870      0.2549   -999.2500      0.3040      0.2999      6.1750   -999.2500     10.2870    -32.2052    -69.2030    -50.9890    -53.6754      0.0452      0.0942      0.0942      0.3141
   3070.0000      6.5120      0.2984      1.9199      9.3020      0.2577   -999.2500      0.3042      0.3003      6.5120   -999.2500      9.3020    -32.6722    -69.2033    -51.4470    -54.4537      0.0430      0.0895      0.0895      0.2984
   3070.5000      5.9210      0.3072      1.9226      8.7700      0.2561   -999.2500      0.3041      0.3001      5.9210   -999.2500      8.7700    -32.4112    -69.2036    -51.1770    -54.0187      0.0442      0.0922      0.0922      0.3072
   3071.0000      5.2510      0.6338      2.2189      8.5250      0.1996   -999.2500      0.2985      0.2903      5.2510   -999.2500      8.5250    -25.1052    -69.2039    -43.8620    -41.8421      0.0913      0.1901      0.1901      0.6338
   3071.5000      4.9020      0.6628      2.2467      8.5550      0.1946   -999.2500      0.2980      0.2894      4.9020   -999.2500      8.5550    -24.7623    -69.2043    -43.5100    -41.2704      0.0954      0.1988      0.1988      0.6628
   3072.0000      4.5530      0.6917      2.2745      9.1870      0.1896   -999.2500      0.2975      0.2885      4.5530   -999.2500      9.1870    -24.4193    -69.2046    -43.1580    -40.6988      0.0996      0.2075      0.2075      0.6917
   3072.5000      4.0410      0.4851      2.0763     12.9350      0.2253   -999.2500      0.3010      0.2947      4.0410   -999.2500     12.9350    -27.1343    -69.2049    -45.8640    -45.2238      0.0699      0.1455      0.1455      0.4851
   3073.0000      4.2540      0.4337      2.0269     14.0790      0.2342   -999.2500      0.3019      0.2963      4.2540   -999.2500     14.0790    -28.6603    -69.2052    -47.3810    -47.7671      0.0625      0.1301      0.1301      0.4337
   3073.5000      4.4670      0.3700      1.9658     14.5930      0.2452   -999.2500      0.3030      0.2982      4.4670   -999.2500     14.5930    -30.5493    -69.2055    -49.2610    -50.9155      0.0533      0.1110      0.1110      0.3700
   3074.0000      7.0220      0.3141      1.9249     14.8010      0.2549   -999.2500      0.3039      0.2998      7.0220   -999.2500     14.8010    -32.2063    -69.2058    -50.9090    -53.6772      0.0452      0.0942      0.0942      0.3141
   3074.5000      7.7230      0.3106      1.9238     14.9200      0.2555   -999.2500      0.3040      0.2999      7.7230   -999.2500     14.9200    -32.3103    -69.2061    -51.0040    -53.8505      0.0447      0.0932      0.0932      0.3106
   3075.0000      8.1080      0.3183      1.9262     14.3890      0.2542   -999.2500      0.3038      0.2997      8.1080   -999.2500     14.3890    -32.0823    -69.2065    -50.7670    -53.4705      0.0458      0.0955      0.0955      0.3183
   3075.5000      8.2670      0.3204      1.9268     13.7190      0.2538   -999.2500      0.3038      0.2996      8.2670   -999.2500     13.7190    -32.0203    -69.2068    -50.6960    -53.3672      0.0461      0.0961      0.0961      0.3204
   3076.0000      8.3370      0.3147      1.9251     12.5570      0.2548   -999.2500      0.3039      0.2998      8.3370   -999.2500     12.5570    -32.1893    -69.2071    -50.8560    -53.6489      0.0453      0.0944      0.0944      0.3147
   3076.5000      8.2930      0.3034      1.9218     11.6600      0.2567   -999.2500      0.3041      0.3001      8.2930   -999.2500     11.6600    -32.5243    -69.2074    -51.1820    -54.2072      0.0437      0.0910      0.0910      0.3034
   3077.0000      8.2490      0.2921      1.9184     10.2120      0.2587   -999.2500      0.3043      0.3005      8.2490   -999.2500     10.2120    -32.8594    -69.2077    -51.5080    -54.7656      0.0421      0.0876      0.0876      0.2921
   3077.5000      7.6690      0.2915      1.9182      9.1480      0.2588   -999.2500      0.3043      0.3005      7.6690   -999.2500      9.1480    -32.8794    -69.2080    -51.5190    -54.7989      0.0420      0.0874      0.0874      0.2915
   3078.0000      7.2060      0.2908      1.9181      8.6650      0.2589   -999.2500      0.3043      0.3005      7.2060   -999.2500      8.6650    -32.8994    -69.2083    -51.5300    -54.8323      0.0419      0.0872      0.0872      0.2908
   3078.5000      6.7440      0.3286      1.9294      8.0650      0.2524   -999.2500      0.3036      0.2994      6.7440   -999.2500      8.0650    -31.7794    -69.2086    -50.4010    -52.9656      0.0473      0.0986      0.0986      0.3286
   3079.0000      6.1730      0.3864      1.9819      7.2420      0.2423   -999.2500      0.3026      0.2976      6.1730   -999.2500      7.2420    -30.0634    -69.2090    -48.6760    -50.1056      0.0556      0.1159      0.1159      0.3864
   3079.5000      5.6020      0.5001      2.0910      6.4200      0.2227   -999.2500      0.3007      0.2942      5.6020   -999.2500      6.4200    -26.6934    -69.2093    -45.2970    -44.4890      0.0720      0.1500      0.1500      0.5001
