~V
VERS. 2.00: Ver 2.00
WRAP.   NO:        
~W
 STRT.FT 20:
 STOP.FT 3550:
 STEP.FT 0.5:
 NULL. -999.250000:
 COMP. Western Gulf (Chevron):Company
 WELL. KCL SAN EMIGDIO #1:Well
 FLD. Los Lobos:Field
 LOC. S34 T11N R22W:Location
 STAT. CA:State
 SRVC. :Service Company
 SON. :Service Order #
 DATE. :Log Date
 UWI. 2124700:Unique Well ID
~C
 DEPT.FT :
 LAT.OHMM :
 LTHE. :
 MM. :
 NOR.OHMM :
 PHES. :
 PHMX. :
 PHTS. :
 PHZC. :
 RD.OHMM :
 ROS. :
 RS.OHMM :
 SBL.MV :
 SCLN. :
 SP.MV :
 SPN. :
 VCDS. :
 VCLY. :
 VCWS. :
 VSHS. :
~P
~A
# ...
   3386.0000     13.1920      0.6692      2.0983      4.1260      0.3308      0.1723      0.4007      0.4878     13.1920      0.6208      4.1260    -22.2331    -69.4010    -58.5610    -37.0552      0.0699      0.1398      0.1398      0.4661
   3386.5000     11.2990      0.6683      2.0940      4.0620      0.3317      0.1724      0.4009      0.4881     11.2990      0.6178      4.0620    -22.4198    -69.4013    -58.7750    -37.3663      0.0692      0.1385      0.1385      0.4616
   3387.0000     10.4610      0.6703      2.1039      4.0030      0.3297      0.1722      0.4004      0.4873     10.4610      0.6246      4.0030    -21.9935    -69.4016    -58.3760    -36.6558      0.0708      0.1415      0.1415      0.4718
   3387.5000      5.7290      0.6776      2.1394      3.9150      0.3224      0.1717      0.3987      0.4843      5.7290      0.6497      3.9150    -20.6742    -69.4020    -57.0840    -34.4569      0.0763      0.1526      0.1526      0.5088
   3388.0000      4.5360      0.6822      2.1621      3.8070      0.3178      0.1713      0.3976      0.4823      4.5360      0.6664      3.8070    -20.2818    -69.4023    -56.7190    -33.8031      0.0799      0.1597      0.1597      0.5324
   3388.5000      3.2940      0.6842      2.1714      3.6790      0.3158      0.1712      0.3971      0.4815      3.2940      0.6734      3.6790    -20.1205    -69.4026    -56.5850    -33.5342      0.0813      0.1626      0.1626      0.5420
   3389.0000      2.5950      0.6884      2.1922      3.5560      0.3116      0.1709      0.3961      0.4798      2.5950      0.6894      3.5560    -19.7612    -69.4029    -56.2530    -32.9353      0.0845      0.1691      0.1691      0.5636
   3389.5000      2.1320      0.6946      2.2225      3.4330      0.3054      0.1704      0.3946      0.4772      2.1320      0.7138      3.4330    -19.2359    -69.4032    -55.7550    -32.0598      0.0893      0.1785      0.1785      0.5952
   3390.0000      1.9450      0.7005      2.2509      3.3350      0.2995      0.1700      0.3932      0.4748      1.9450      0.7375      3.3350    -18.7446    -69.4035    -55.2910    -31.2409      0.0937      0.1874      0.1874      0.6247
   3390.5000      1.7580      0.7012      2.2545      3.3110      0.2988      0.1699      0.3931      0.4745      1.7580      0.7406      3.3110    -18.6832    -69.4038    -55.2570    -31.1387      0.0943      0.1885      0.1885      0.6284
   3391.0000      1.7580      0.7019      2.2581      3.2860      0.2981      0.1699      0.3929      0.4742      1.7580      0.7437      3.2860    -18.6209    -69.4041    -55.2220    -31.0348      0.0948      0.1896      0.1896      0.6321
   3391.5000      1.9800      0.6962      2.2303      3.2470      0.3038      0.1703      0.3942      0.4765      1.9800      0.7200      3.2470    -19.1046    -69.4045    -55.7330    -31.8410      0.0905      0.1809      0.1809      0.6031
   3392.0000      2.2020      0.6905      2.2024      3.3020      0.3095      0.1707      0.3956      0.4789      2.2020      0.6973      3.3020    -19.5883    -69.4048    -56.2440    -32.6471      0.0861      0.1722      0.1722      0.5740
   3392.5000      2.4690      0.6837      2.1688      3.3560      0.3163      0.1712      0.3972      0.4817      2.4690      0.6711      3.3560    -20.1719    -69.4051    -56.8550    -33.6199      0.0808      0.1617      0.1617      0.5390
   3393.0000      2.7850      0.6768      2.1353      3.4750      0.3232      0.1717      0.3988      0.4845      2.7850      0.6462      3.4750    -20.7546    -69.4054    -57.4650    -34.5910      0.0756      0.1512      0.1512      0.5040
   3393.5000      3.1010      0.6756      2.1295      3.5940      0.3244      0.1718      0.3991      0.4850      3.1010      0.6420      3.5940    -20.9083    -69.4057    -57.6460    -34.8472      0.0747      0.1494      0.1494      0.4979
   3394.0000      4.0480      0.6749      2.1260      3.6430      0.3251      0.1719      0.3992      0.4853      4.0480      0.6395      3.6430    -21.0610    -69.4060    -57.8260    -35.1016      0.0741      0.1483      0.1483      0.4943
   3394.5000      4.9940      0.6837      2.1690      3.5940      0.3163      0.1712      0.3971      0.4817      4.9940      0.6711      3.5940    -20.1717    -69.4063    -56.9640    -33.6194      0.0809      0.1617      0.1617      0.5390
   3395.0000      6.8090      0.6864      2.1821      3.5550      0.3136      0.1710      0.3965      0.4805      6.8090      0.6811      3.5550    -19.9453    -69.4066    -56.7650    -33.2422      0.0829      0.1658      0.1658      0.5526
   3395.5000      8.3870      0.6891      2.1953      3.6250      0.3109      0.1708      0.3958      0.4794      8.3870      0.6913      3.6250    -19.7180    -69.4070    -56.5650    -32.8633      0.0849      0.1699      0.1699      0.5663
   3396.0000     10.0930      0.6920      2.2094      3.6890      0.3080      0.1706      0.3951      0.4782     10.0930      0.7025      3.6890    -19.4737    -69.4073    -56.3480    -32.4561      0.0871      0.1743      0.1743      0.5810
   3396.5000     11.5820      0.6949      2.2235      3.7530      0.3051      0.1704      0.3944      0.4770     11.5820      0.7139      3.7530    -19.2304    -69.4076    -56.1320    -32.0506      0.0893      0.1787      0.1787      0.5956
   3397.0000     11.2080      0.7062      2.2786      3.9210      0.2938      0.1695      0.3917      0.4724     11.2080      0.7611      3.9210    -18.2750    -69.4079    -55.2040    -30.4584      0.0979      0.1959      0.1959      0.6529
   3397.5000      9.8670      0.7159      2.3260      3.9860      0.2841      0.1688      0.3894      0.4684      9.8670      0.8050      3.9860    -17.4527    -69.4082    -54.4090    -29.0879      0.1053      0.2107      0.2107      0.7023
   3398.0000      8.0440      0.7183      2.3372      4.0500      0.2817      0.1686      0.3888      0.4674      8.0440      0.8158      4.0500    -17.2584    -69.4085    -54.2420    -28.7640      0.1071      0.2142      0.2142      0.7140
   3398.5000      5.9830      0.7206      2.3485      3.9370      0.2794      0.1684      0.3883      0.4665      5.9830      0.8269      3.9370    -17.0641    -69.4088    -54.0750    -28.4401      0.1088      0.2177      0.2177      0.7206
   3399.0000      4.6520      0.7178      2.3349      3.8240      0.2822      0.1687      0.3889      0.4676      4.6520      0.8135      3.8240    -17.2998    -69.4091    -54.3380    -28.8329      0.1067      0.2134      0.2134      0.7115
   3399.5000      3.3910      0.7150      2.3214      3.6620      0.2850      0.1689      0.3896      0.4687      3.3910      0.8004      3.6620    -17.5354    -69.4095    -54.6010    -29.2257      0.1046      0.2092      0.2092      0.6973
   3400.0000      2.4540      0.7099      2.2964      3.4990      0.2901      0.1692      0.3908      0.4708      2.4540      0.7769      3.4990    -17.9701    -69.4098    -55.0630    -29.9502      0.1007      0.2014      0.2014      0.6713
   3400.5000      2.1000      0.7349      2.4182      3.2630      0.2651      0.1674      0.3848      0.4605      2.1000      0.8998      3.2630    -15.8578    -69.4101    -52.9780    -26.4296      0.1197      0.2394      0.2394      0.7349
   3401.0000      1.8440      0.7431      2.4579      3.1160      0.2569      0.1668      0.3828      0.4572      1.8440      0.9452      3.1160    -15.1685    -69.4104    -52.3160    -25.2808      0.1259      0.2518      0.2518      0.7431
   3401.5000      1.7940      0.7513      2.4977      3.0170      0.2487      0.1661      0.3808      0.4538      1.7940      0.9935      3.0170    -14.4801    -69.4107    -51.6550    -24.1336      0.1321      0.2642      0.2642      0.7513
   3402.0000      1.7450      0.7557      2.5192      2.9080      0.2443      0.1658      0.3797      0.4520      1.7450      1.0210      2.9080    -14.1068    -69.4110    -51.3090    -23.5114      0.1355      0.2710      0.2710      0.7557
   3402.5000      1.8680      0.7602      2.5408      2.8490      0.2398      0.1655      0.3787      0.4502      1.8680      1.0494      2.8490    -13.7335    -69.4113    -50.9630    -22.8892      0.1388      0.2777      0.2777      0.7602
