~V
VERS. 2.00: Ver 2.00
WRAP.   NO:        
~W
 STRT.FT 1040:
 STOP.FT 4600:
 STEP.FT 0.5:
 NULL. -999.250000:
 COMP. Occidental Pet. Co.:Company
 WELL. KCL 18-34:Well
 FLD. :Field
 LOC. S34 T11N R22W:Location
 STAT. CA:State
 SRVC. :Service Company
 SON. :Service Order #
 DATE. :Log Date
 UWI. 3529800:Unique Well ID
~C
 DEPT.FT :
 ILD.OHMM :
 LTHE. :
 MM. :
 PHES. :
 PHTS. :
 PHZC. :
 RD.OHMM :
 ROS. :
 RS.OHMM :
 SBL.MV :
 SCLN. :
 SN.OHMM :
 SP.MV :
 SPN. :
 VCDS. :
 VCLY. :
 VCWS. :
 VSHS. :
~P
~A
# ...
   4452.5000      2.0566      0.6291      2.1993      0.3709      0.4577      0.4542      2.0566      0.6133      2.9902    -25.1626    -95.0000      2.9902    -47.1626    -41.9377      0.0579      0.1447      0.1447      0.3618
   4453.0000      2.0903      0.6317      2.2088      0.3683      0.4570      0.4534      2.0903      0.6198      3.0145    -24.5102    -95.0000      3.0145    -46.5102    -40.8503      0.0591      0.1477      0.1477      0.3692
   4453.5000      2.1204      0.6349      2.2211      0.3651      0.4560      0.4524      2.1204      0.6284      3.0401    -23.8669    -95.0000      3.0401    -45.8669    -39.7782      0.0606      0.1515      0.1515      0.3788
   4454.0000      2.1505      0.6380      2.2329      0.3620      0.4551      0.4514      2.1505      0.6366      3.0657    -23.5451    -95.0000      3.0657    -45.5451    -39.2419      0.0621      0.1552      0.1552      0.3879
   4454.5000      2.1835      0.6284      2.1967      0.3716      0.4579      0.4544      2.1835      0.6114      3.0951    -25.3501    -95.0000      3.0951    -47.3502    -42.2502      0.0575      0.1439      0.1439      0.3597
   4455.0000      2.2145      0.6266      2.1897      0.3734      0.4584      0.4550      2.2145      0.6067      3.1272    -25.8364    -95.0000      3.1272    -47.8364    -43.0606      0.0567      0.1417      0.1417      0.3541
   4455.5000      2.2430      0.6270      2.1912      0.3730      0.4583      0.4549      2.2430      0.6077      3.1577    -25.7333    -95.0000      3.1577    -47.7333    -42.8888      0.0568      0.1421      0.1421      0.3553
   4456.0000      2.2655      0.6307      2.2053      0.3693      0.4572      0.4537      2.2655      0.6172      3.1806    -24.7652    -95.0000      3.1806    -46.7652    -41.2753      0.0586      0.1465      0.1465      0.3663
   4456.5000      2.2817      0.6470      2.2672      0.3530      0.4525      0.4485      2.2817      0.6616      3.2017    -22.6071    -95.0000      3.2017    -44.6071    -37.6786      0.0663      0.1658      0.1658      0.4146
   4457.0000      2.2810      0.6685      2.3482      0.3315      0.4462      0.4416      2.2810      0.7264      3.2146    -20.3787    -95.0000      3.2146    -42.3787    -33.9645      0.0765      0.1912      0.1912      0.4779
   4457.5000      2.2727      0.6898      2.4291      0.3102      0.4400      0.4348      2.2727      0.7994      3.2000    -18.1559    -95.0000      3.2000    -40.1559    -30.2598      0.0866      0.2164      0.2164      0.5410
   4458.0000      2.2541      0.7078      2.4972      0.2922      0.4348      0.4291      2.2541      0.8683      3.1732    -16.2853    -95.0000      3.1732    -38.2853    -27.1422      0.0951      0.2377      0.2377      0.5942
   4458.5000      2.2323      0.7210      2.5471      0.2790      0.4310      0.4249      2.2323      0.9237      3.1439    -14.9144    -95.0000      3.1439    -36.9144    -24.8573      0.1013      0.2532      0.2532      0.6331
   4459.0000      2.2056      0.7324      2.5902      0.2676      0.4276      0.4212      2.2056      0.9753      3.1116    -13.7292    -95.0000      3.1116    -35.7292    -22.8820      0.1067      0.2667      0.2667      0.6668
   4459.5000      2.1618      0.7414      2.6241      0.2586      0.4250      0.4184      2.1618      1.0184      3.0821    -12.7972    -95.0000      3.0821    -34.7972    -21.3287      0.1109      0.2773      0.2773      0.6933
   4460.0000      2.1130      0.7500      2.6569      0.2500      0.4225      0.4156      2.1130      1.0622      3.0668    -11.8984    -95.0000      3.0668    -33.8984    -19.8307      0.1150      0.2875      0.2875      0.7188
   4460.5000      2.0764      0.7596      2.6931      0.2404      0.4197      0.4126      2.0764      1.1136      3.0515    -10.9031    -95.0000      3.0515    -32.9031    -18.1719      0.1195      0.2988      0.2988      0.7471
   4461.0000      2.0620      0.7657      2.7165      0.2343      0.4179      0.4106      2.0620      1.1485      3.0434    -10.2612    -95.0000      3.0434    -32.2612    -17.1020      0.1224      0.3061      0.3061      0.7653
   4461.5000      2.0611      0.7506      2.6590      0.2494      0.4223      0.4154      2.0611      1.0650      3.0463    -11.8421    -95.0000      3.0463    -33.8421    -19.7368      0.1153      0.2882      0.2882      0.7204
   4462.0000      2.0719      0.7220      2.5512      0.2780      0.4306      0.4245      2.0719      0.9282      3.0482    -14.8074    -95.0000      3.0482    -36.8074    -24.6791      0.1018      0.2545      0.2545      0.6362
   4462.5000      2.0909      0.7041      2.4835      0.2959      0.4358      0.4302      2.0909      0.8534      3.0505    -16.6718    -95.0000      3.0505    -38.6718    -27.7863      0.0933      0.2333      0.2333      0.5832
   4463.0000      2.1109      0.6970      2.4567      0.3030      0.4379      0.4325      2.1109      0.8259      3.0531    -17.4104    -95.0000      3.0531    -39.4104    -29.0174      0.0900      0.2249      0.2249      0.5622
   4463.5000      2.1339      0.6939      2.4448      0.3061      0.4388      0.4335      2.1339      0.8141      3.0566    -17.7374    -95.0000      3.0566    -39.7374    -29.5623      0.0885      0.2212      0.2212      0.5529
   4464.0000      2.1595      0.6929      2.4413      0.3071      0.4391      0.4338      2.1595      0.8106      3.0765    -17.8356    -95.0000      3.0765    -39.8356    -29.7259      0.0880      0.2201      0.2201      0.5501
   4464.5000      2.1809      0.7142      2.5217      0.2858      0.4329      0.4270      2.1809      0.8943      3.0964    -15.6261    -95.0000      3.0964    -37.6261    -26.0434      0.0981      0.2452      0.2452      0.6129
   4465.0000      2.2018      0.7320      2.5892      0.2680      0.4277      0.4213      2.2018      0.9733      3.1211    -13.7711    -95.0000      3.1211    -35.7711    -22.9519      0.1065      0.2662      0.2662      0.6656
   4465.5000      2.2208      0.7450      2.6384      0.2550      0.4239      0.4172      2.2208      1.0364      3.1476    -12.4191    -95.0000      3.1476    -34.4191    -20.6985      0.1126      0.2816      0.2816      0.7040
   4466.0000      2.2396      0.7544      2.6739      0.2456      0.4212      0.4142      2.2396      1.0853      3.1741    -11.4432    -95.0000      3.1741    -33.4432    -19.0721      0.1171      0.2927      0.2927      0.7317
   4466.5000      2.2571      0.7638      2.7094      0.2362      0.4185      0.4112      2.2571      1.1370      3.1950    -10.4678    -95.0000      3.1950    -32.4678    -17.4463      0.1215      0.3038      0.3038      0.7594
   4467.0000      2.2746      0.7724      2.7419      0.2276      0.4160      0.4084      2.2746      1.1870      3.2147     -9.5759    -95.0000      3.2147    -31.5759    -15.9598      0.1256      0.3139      0.3139      0.7724
   4467.5000      2.2916      0.7797      2.7697      0.2203      0.4138      0.4061      2.2916      1.2321      3.2352     -8.8125    -95.0000      3.2352    -30.8125    -14.6875      0.1290      0.3226      0.3226      0.7797
   4468.0000      2.3080      0.7621      2.7032      0.2379      0.4190      0.4117      2.3080      1.1275      3.2620    -10.6421    -95.0000      3.2620    -32.6421    -17.7369      0.1207      0.3018      0.3018      0.7545
   4468.5000      2.3275      0.7435      2.6329      0.2565      0.4244      0.4176      2.3275      1.0288      3.2887    -12.5748    -95.0000      3.2887    -34.5748    -20.9580      0.1119      0.2798      0.2798      0.6996
   4469.0000      2.3583      0.7242      2.5598      0.2758      0.4300      0.4238      2.3583      0.9374      3.3249    -14.5870    -95.0000      3.3249    -36.5870    -24.3116      0.1028      0.2570      0.2570      0.6424
   4469.5000      2.3895      0.7070      2.4946      0.2930      0.4350      0.4293      2.3895      0.8645      3.3635    -16.3805    -95.0000      3.3635    -38.3805    -27.3008      0.0946      0.2366      0.2366      0.5915
