~V
VERS. 2.00: Ver 2.00
WRAP.   NO:        
~W
 STRT.FT 1040:
 STOP.FT 4600:
 STEP.FT 0.5:
 NULL. -999.250000:
 COMP. Occidental Pet. Co.:Company
 WELL. KCL 18-34:Well
 FLD. :Field
 LOC. S34 T11N R22W:Location
 STAT. CA:State
 SRVC. :Service Company
 SON. :Service Order #
 DATE. :Log Date
 UWI. 3529800:Unique Well ID
~C
 DEPT.FT :
 ILD.OHMM :
 LTHE. :
 MM. :
 PHES. :
 PHTS. :
 PHZC. :
 RD.OHMM :
 ROS. :
 RS.OHMM :
 SBL.MV :
 SCLN. :
 SN.OHMM :
 SP.MV :
 SPN. :
 VCDS. :
 VCLY. :
 VCWS. :
 VSHS. :
~P
~A
# ...
   3717.5000      2.2543      0.6852      2.3693      0.3148      0.4445      0.4393      2.2543      0.8134      3.1571    -18.1718    -95.0000      3.1571    -40.1719    -30.2864      0.0865      0.2162      0.2162      0.5406
   3718.0000      2.2004      0.6708      2.3147      0.3292      0.4487      0.4439      2.2004      0.7623      3.1672    -19.6743    -95.0000      3.1672    -41.6743    -32.7905      0.0797      0.1992      0.1992      0.4979
   3718.5000      2.1870      0.6595      2.2721      0.3405      0.4520      0.4475      2.1870      0.7252      3.0236    -20.8469    -95.0000      3.0236    -42.8469    -34.7448      0.0743      0.1858      0.1858      0.4646
   3719.0000      2.1858      0.6543      2.2524      0.3457      0.4535      0.4492      2.1858      0.7087      2.9313    -21.3920    -95.0000      2.9313    -43.3920    -35.6534      0.0719      0.1796      0.1796      0.4491
   3719.5000      2.1966      0.6512      2.2407      0.3488      0.4544      0.4502      2.1966      0.6993      2.8816    -21.7123    -95.0000      2.8816    -43.7123    -36.1872      0.0704      0.1760      0.1760      0.4400
   3720.0000      2.2062      0.6480      2.2285      0.3520      0.4553      0.4512      2.2062      0.6895      2.9289    -22.0513    -95.0000      2.9289    -44.0513    -36.7522      0.0689      0.1721      0.1721      0.4304
   3720.5000      2.2222      0.6445      2.2155      0.3555      0.4563      0.4523      2.2222      0.6793      2.9767    -22.4085    -95.0000      2.9767    -44.4085    -37.3476      0.0672      0.1681      0.1681      0.4202
   3721.0000      2.2703      0.6412      2.2031      0.3588      0.4573      0.4533      2.2703      0.6698      3.0297    -22.7515    -95.0000      3.0297    -44.7515    -37.9192      0.0657      0.1642      0.1642      0.4105
   3721.5000      2.3369      0.6367      2.1861      0.3633      0.4586      0.4548      2.3369      0.6570      3.0784    -23.2195    -95.0000      3.0784    -45.2195    -38.6991      0.0635      0.1589      0.1589      0.3972
   3722.0000      2.4115      0.6418      2.2054      0.3582      0.4571      0.4531      2.4115      0.6715      3.1256    -22.6891    -95.0000      3.1256    -44.6891    -37.8152      0.0660      0.1649      0.1649      0.4122
   3722.5000      2.4823      0.6472      2.2259      0.3528      0.4555      0.4514      2.4823      0.6872      3.1716    -22.1274    -95.0000      3.1716    -44.1274    -36.8791      0.0685      0.1713      0.1713      0.4282
   3723.0000      2.5424      0.6525      2.2460      0.3475      0.4540      0.4497      2.5424      0.7032      3.2194    -21.5768    -95.0000      3.2194    -43.5768    -35.9613      0.0710      0.1775      0.1775      0.4438
   3723.5000      2.5975      0.6575      2.2647      0.3425      0.4525      0.4481      2.5975      0.7185      3.2691    -21.0613    -95.0000      3.2691    -43.0613    -35.1022      0.0734      0.1834      0.1834      0.4585
   3724.0000      2.6604      0.6622      2.2826      0.3378      0.4512      0.4466      2.6604      0.7336      3.3151    -20.5714    -95.0000      3.3151    -42.5714    -34.2857      0.0756      0.1890      0.1890      0.4724
   3724.5000      2.6956      0.6674      2.3021      0.3326      0.4497      0.4450      2.6956      0.7505      3.3631    -20.0349    -95.0000      3.3631    -42.0349    -33.3914      0.0780      0.1951      0.1951      0.4876
   3725.0000      2.7205      0.6726      2.3219      0.3274      0.4481      0.4433      2.7205      0.7681      3.4167    -19.4924    -95.0000      3.4167    -41.4924    -32.4873      0.0805      0.2012      0.2012      0.5031
   3725.5000      2.7203      0.6778      2.3418      0.3222      0.4466      0.4416      2.7203      0.7863      3.4688    -18.9474    -95.0000      3.4688    -40.9474    -31.5790      0.0830      0.2074      0.2074      0.5185
   3726.0000      2.7049      0.6837      2.3641      0.3163      0.4449      0.4398      2.7049      0.8074      3.5111    -18.3358    -95.0000      3.5111    -40.3358    -30.5597      0.0857      0.2144      0.2144      0.5359
   3726.5000      2.6847      0.6902      2.3888      0.3098      0.4430      0.4377      2.6847      0.8317      3.4817    -17.6571    -95.0000      3.4817    -39.6572    -29.4286      0.0888      0.2221      0.2221      0.5552
   3727.0000      2.6412      0.6958      2.4099      0.3042      0.4414      0.4359      2.6412      0.8532      3.4333    -17.0774    -95.0000      3.4333    -39.0774    -28.4623      0.0915      0.2287      0.2287      0.5717
   3727.5000      2.5921      0.7031      2.4374      0.2969      0.4393      0.4336      2.5921      0.8823      3.3713    -16.3231    -95.0000      3.3713    -38.3231    -27.2051      0.0949      0.2372      0.2372      0.5931
   3728.0000      2.5354      0.6937      2.4019      0.3063      0.4420      0.4366      2.5354      0.8448      3.3107    -17.3005    -95.0000      3.3107    -39.3005    -28.8341      0.0905      0.2261      0.2261      0.5653
   3728.5000      2.4694      0.6839      2.3650      0.3161      0.4448      0.4397      2.4694      0.8080      3.2322    -18.3160    -95.0000      3.2322    -40.3160    -30.5266      0.0858      0.2146      0.2146      0.5365
   3729.0000      2.3972      0.6758      2.3341      0.3242      0.4472      0.4423      2.3972      0.7788      3.1796    -19.1656    -95.0000      3.1796    -41.1656    -31.9427      0.0820      0.2049      0.2049      0.5123
   3729.5000      2.3860      0.6661      2.2976      0.3339      0.4500      0.4454      2.3860      0.7460      3.1340    -20.1713    -95.0000      3.1340    -42.1713    -33.6189      0.0774      0.1935      0.1935      0.4838
   3730.0000      2.4001      0.6598      2.2738      0.3402      0.4519      0.4474      2.4001      0.7255      3.1010    -20.8272    -95.0000      3.1010    -42.8272    -34.7119      0.0744      0.1861      0.1861      0.4651
   3730.5000      2.4249      0.6557      2.2583      0.3443      0.4530      0.4487      2.4249      0.7126      3.0897    -21.2526    -95.0000      3.0897    -43.2526    -35.4211      0.0725      0.1812      0.1812      0.4530
   3731.0000      2.4438      0.6656      2.2960      0.3344      0.4501      0.4455      2.4438      0.7445      3.1114    -20.2175    -95.0000      3.1114    -42.2175    -33.6959      0.0772      0.1930      0.1930      0.4825
   3731.5000      2.4619      0.6778      2.3421      0.3222      0.4466      0.4416      2.4619      0.7860      3.1535    -18.9521    -95.0000      3.1535    -40.9521    -31.5868      0.0829      0.2074      0.2074      0.5184
   3732.0000      2.4875      0.6889      2.3839      0.3111      0.4434      0.4381      2.4875      0.8262      3.1978    -17.8040    -95.0000      3.1978    -39.8040    -29.6733      0.0882      0.2204      0.2204      0.5510
   3732.5000      2.4643      0.7014      2.4312      0.2986      0.4397      0.4341      2.4643      0.8751      3.2412    -16.5023    -95.0000      3.2412    -38.5023    -27.5038      0.0941      0.2352      0.2352      0.5880
   3733.0000      2.4027      0.6951      2.4075      0.3049      0.4416      0.4361      2.4027      0.8501      3.2854    -17.1555    -95.0000      3.2854    -39.1555    -28.5925      0.0911      0.2278      0.2278      0.5694
   3733.5000      2.3321      0.6858      2.3722      0.3142      0.4443      0.4391      2.3321      0.8146      3.3326    -18.1282    -95.0000      3.3326    -40.1282    -30.2136      0.0867      0.2167      0.2167      0.5418
   3734.0000      2.2745      0.6821      2.3584      0.3179      0.4453      0.4403      2.2745      0.8011      3.3647    -18.5100    -95.0000      3.3647    -40.5100    -30.8500      0.0850      0.2124      0.2124      0.5310
   3734.5000      2.2064      0.6815      2.3560      0.3185      0.4455      0.4404      2.2064      0.7988      3.2182    -18.5755    -95.0000      3.2182    -40.5755    -30.9591      0.0847      0.2116      0.2116      0.5291
