~V
VERS. 2.00: Ver 2.00
WRAP.   NO:        
~W
 STRT.FT 20:
 STOP.FT 3550:
 STEP.FT 0.5:
 NULL. -999.250000:
 COMP. Western Gulf (Chevron):Company
 WELL. KCL SAN EMIGDIO #1:Well
 FLD. Los Lobos:Field
 LOC. S34 T11N R22W:Location
 STAT. CA:State
 SRVC. :Service Company
 SON. :Service Order #
 DATE. :Log Date
 UWI. 2124700:Unique Well ID
~C
 DEPT.FT :
 LAT.OHMM :
 LTHE. :
 MM. :
 NOR.OHMM :
 PHES. :
 PHMX. :
 PHTS. :
 PHZC. :
 RD.OHMM :
 ROS. :
 RS.OHMM :
 SBL.MV :
 SCLN. :
 SP.MV :
 SPN. :
 VCDS. :
 VCLY. :
 VCWS. :
 VSHS. :
~P
~A
# ...
   3216.0000      3.0660      0.7576      2.5353      2.8000      0.2424      0.1661      0.3827      0.4535      3.0660      1.0702      2.8000    -13.5464    -69.2947    -39.1760    -22.5773      0.1403      0.2806      0.2806      0.7576
   3216.5000      3.0960      0.7565      2.5298      2.8690      0.2435      0.1662      0.3829      0.4539      3.0960      1.0625      2.8690    -13.6423    -69.2950    -39.3090    -22.7372      0.1395      0.2789      0.2789      0.7565
   3217.0000      3.1250      0.7578      2.5358      2.9830      0.2422      0.1661      0.3826      0.4534      3.1250      1.0707      2.9830    -13.5393    -69.2953    -39.2430    -22.5655      0.1404      0.2808      0.2808      0.7578
   3217.5000      3.1900      0.7570      2.5322      3.0960      0.2430      0.1661      0.3828      0.4537      3.1900      1.0657      3.0960    -13.6023    -69.2956    -39.3430    -22.6704      0.1398      0.2796      0.2796      0.7570
   3218.0000      3.2540      0.7527      2.5114      3.2140      0.2473      0.1664      0.3838      0.4555      3.2540      1.0376      3.2140    -13.9632    -69.2959    -39.7410    -23.2720      0.1366      0.2731      0.2731      0.7527
   3218.5000      3.2780      0.7473      2.4849      3.3520      0.2527      0.1669      0.3851      0.4577      3.2780      1.0031      3.3520    -14.4232    -69.2962    -40.2380    -24.0386      0.1324      0.2648      0.2648      0.7473
   3219.0000      3.3030      0.7430      2.4641      3.3870      0.2570      0.1672      0.3862      0.4594      3.3030      0.9770      3.3870    -14.7842    -69.2965    -40.6360    -24.6403      0.1292      0.2583      0.2583      0.7430
   3219.5000      3.2930      0.7513      2.5045      3.4210      0.2487      0.1666      0.3841      0.4560      3.2930      1.0282      3.4210    -14.0861    -69.2969    -39.9750    -23.4768      0.1355      0.2709      0.2709      0.7513
   3220.0000      3.1850      0.7604      2.5486      3.4210      0.2396      0.1659      0.3819      0.4523      3.1850      1.0881      3.4210    -13.3221    -69.2972    -39.2480    -22.2035      0.1423      0.2847      0.2847      0.7604
   3220.5000      3.1160      0.7628      2.5603      3.3920      0.2372      0.1657      0.3813      0.4513      3.1160      1.1045      3.3920    -13.1210    -69.2975    -39.0840    -21.8684      0.1442      0.2883      0.2883      0.7628
   3221.0000      3.0470      0.7631      2.5615      3.3520      0.2369      0.1657      0.3813      0.4512      3.0470      1.1062      3.3520    -13.1010    -69.2978    -39.1010    -21.8350      0.1443      0.2887      0.2887      0.7631
   3221.5000      3.0760      0.7633      2.5626      3.3130      0.2367      0.1657      0.3812      0.4511      3.0760      1.1077      3.3130    -13.0820    -69.2981    -39.1190    -21.8033      0.1445      0.2890      0.2890      0.7633
   3222.0000      3.1750      0.7535      2.5151      3.2930      0.2465      0.1664      0.3836      0.4551      3.1750      1.0419      3.2930    -13.9049    -69.2984    -39.9790    -23.1749      0.1371      0.2742      0.2742      0.7535
   3222.5000      3.3330      0.7493      2.4944      3.2640      0.2507      0.1667      0.3846      0.4568      3.3330      1.0146      3.2640    -14.2659    -69.2987    -40.3770    -23.7765      0.1338      0.2677      0.2677      0.7493
   3223.0000      3.4900      0.7450      2.4736      3.2190      0.2550      0.1670      0.3856      0.4586      3.4900      0.9881      3.2190    -14.6269    -69.2990    -40.7750    -24.3781      0.1306      0.2612      0.2612      0.7450
   3223.5000      3.7810      0.7501      2.4986      3.1750      0.2499      0.1666      0.3844      0.4565      3.7810      1.0199      3.1750    -14.1938    -69.2994    -40.3790    -23.6564      0.1345      0.2690      0.2690      0.7501
   3224.0000      4.0720      0.7518      2.5065      3.0610      0.2482      0.1665      0.3839      0.4558      4.0720      1.0302      3.0610    -14.0578    -69.2997    -40.2800    -23.4296      0.1357      0.2714      0.2714      0.7518
   3224.5000      4.6140      0.7491      2.4933      2.9480      0.2509      0.1667      0.3846      0.4569      4.6140      1.0130      2.9480    -14.2867    -69.3000    -40.5460    -23.8112      0.1337      0.2673      0.2673      0.7491
   3225.0000      4.9200      0.7464      2.4802      2.8740      0.2536      0.1669      0.3852      0.4580      4.9200      0.9962      2.8740    -14.5147    -69.3003    -40.8110    -24.1912      0.1316      0.2632      0.2632      0.7464
   3225.5000      5.0090      0.7382      2.4404      2.8000      0.2618      0.1675      0.3872      0.4613      5.0090      0.9475      2.8000    -15.2057    -69.3006    -41.5390    -25.3428      0.1254      0.2507      0.2507      0.7382
   3226.0000      4.7820      0.7319      2.4101      2.8790      0.2681      0.1680      0.3887      0.4639      4.7820      0.9125      2.8790    -15.7316    -69.3009    -42.1020    -26.2194      0.1206      0.2412      0.2412      0.7319
   3226.5000      4.3830      0.7367      2.4332      2.9580      0.2633      0.1676      0.3875      0.4619      4.3830      0.9389      2.9580    -15.3316    -69.3012    -41.7390    -25.5527      0.1242      0.2485      0.2485      0.7367
   3227.0000      3.9830      0.7395      2.4467      3.0220      0.2605      0.1674      0.3869      0.4608      3.9830      0.9549      3.0220    -15.0976    -69.3015    -41.5420    -25.1626      0.1263      0.2527      0.2527      0.7395
   3227.5000      3.1650      0.7391      2.4451      3.0860      0.2609      0.1674      0.3869      0.4609      3.1650      0.9528      3.0860    -15.1275    -69.3019    -41.6090    -25.2125      0.1261      0.2521      0.2521      0.7391
   3228.0000      2.8890      0.7356      2.4281      3.1750      0.2644      0.1677      0.3878      0.4623      2.8890      0.9328      3.1750    -15.4225    -69.3022    -41.9410    -25.7041      0.1234      0.2468      0.2468      0.7356
   3228.5000      2.7610      0.7314      2.4073      3.2630      0.2686      0.1680      0.3888      0.4641      2.7610      0.9091      3.2630    -15.7824    -69.3025    -42.3380    -26.3041      0.1202      0.2403      0.2403      0.7314
   3229.0000      2.6320      0.7271      2.3866      3.4020      0.2729      0.1683      0.3898      0.4658      2.6320      0.8861      3.4020    -16.1434    -69.3028    -42.7360    -26.9057      0.1169      0.2338      0.2338      0.7271
   3229.5000      2.7510      0.7193      2.3486      3.5400      0.2807      0.1689      0.3917      0.4690      2.7510      0.8461      3.5400    -16.8014    -69.3031    -43.4310    -28.0023      0.1110      0.2220      0.2220      0.7193
   3230.0000      2.7610      0.7410      2.4538      3.6880      0.2590      0.1673      0.3865      0.4601      2.7610      0.9630      3.6880    -14.9793    -69.3034    -41.6460    -24.9656      0.1274      0.2548      0.2548      0.7410
   3230.5000      2.7210      0.7375      2.4369      3.8350      0.2625      0.1676      0.3873      0.4616      2.7210      0.9427      3.8350    -15.2743    -69.3037    -41.9780    -25.4572      0.1248      0.2495      0.2495      0.7375
   3231.0000      2.6820      0.7340      2.4199      4.0430      0.2660      0.1678      0.3881      0.4630      2.6820      0.9230      4.0430    -15.5693    -69.3040    -42.3100    -25.9488      0.1221      0.2442      0.2442      0.7340
   3231.5000      2.6520      0.7423      2.4602      4.1460      0.2577      0.1672      0.3861      0.4596      2.6520      0.9705      4.1460    -14.8712    -69.3044    -41.6490    -24.7854      0.1284      0.2568      0.2568      0.7423
   3232.0000      2.6230      0.7506      2.5005      4.2490      0.2494      0.1666      0.3841      0.4562      2.6230      1.0212      4.2490    -14.1732    -69.3047    -40.9880    -23.6220      0.1347      0.2694      0.2694      0.7506
   3232.5000      3.3520      0.7885      2.6841      4.4170      0.2115      0.1638      0.3749      0.4407      3.3520      1.2993      4.4170    -10.9942    -69.3050    -37.8460    -18.3236      0.1634      0.3267      0.3267      0.7885
