~V
VERS. 2.00: Ver 2.00
WRAP.   NO:        
~W
 STRT.FT 20:
 STOP.FT 3550:
 STEP.FT 0.5:
 NULL. -999.250000:
 COMP. Western Gulf (Chevron):Company
 WELL. KCL SAN EMIGDIO #1:Well
 FLD. Los Lobos:Field
 LOC. S34 T11N R22W:Location
 STAT. CA:State
 SRVC. :Service Company
 SON. :Service Order #
 DATE. :Log Date
 UWI. 2124700:Unique Well ID
~C
 DEPT.FT :
 LAT.OHMM :
 LTHE. :
 MM. :
 NOR.OHMM :
 PHES. :
 PHMX. :
 PHTS. :
 PHZC. :
 RD.OHMM :
 ROS. :
 RS.OHMM :
 SBL.MV :
 SCLN. :
 SP.MV :
 SPN. :
 VCDS. :
 VCLY. :
 VCWS. :
 VSHS. :
~P
~A
# ...
   3437.0000      2.0240      0.7253      2.3703      2.5270      0.2747      0.1680      0.3864      0.4640      2.0240      0.8445      2.5270    -16.7452    -69.4329    -55.8600    -27.9087      0.1118      0.2235      0.2235      0.7253
   3437.5000      2.1420      0.7159      2.3241      2.4280      0.2841      0.1687      0.3887      0.4679      2.1420      0.7990      2.4280    -17.5469    -69.4332    -56.6890    -29.2449      0.1046      0.2091      0.2091      0.6970
   3438.0000      2.2900      0.7109      2.2999      2.3990      0.2891      0.1691      0.3899      0.4700      2.2900      0.7763      2.3990    -17.9676    -69.4335    -57.1370    -29.9460      0.1008      0.2015      0.2015      0.6718
   3438.5000      2.4380      0.7059      2.2758      2.3590      0.2941      0.1695      0.3910      0.4720      2.4380      0.7545      2.3590    -18.3883    -69.4339    -57.5850    -30.6471      0.0970      0.1940      0.1940      0.6465
   3439.0000      2.6650      0.7076      2.2839      2.3190      0.2924      0.1693      0.3906      0.4713      2.6650      0.7617      2.3190    -18.2470    -69.4342    -57.4710    -30.4116      0.0983      0.1965      0.1965      0.6550
   3439.5000      2.9210      0.7093      2.2921      2.2900      0.2907      0.1692      0.3902      0.4706      2.9210      0.7691      2.2900    -18.1056    -69.4345    -57.3570    -30.1761      0.0995      0.1991      0.1991      0.6635
   3440.0000      3.0290      0.7222      2.3547      2.2800      0.2778      0.1682      0.3871      0.4653      3.0290      0.8285      2.2800    -17.0203    -69.4348    -56.2990    -28.3672      0.1093      0.2186      0.2186      0.7222
   3440.5000      3.1370      0.7268      2.3772      2.3040      0.2732      0.1679      0.3860      0.4634      3.1370      0.8512      2.3040    -16.6310    -69.4351    -55.9370    -27.7183      0.1128      0.2256      0.2256      0.7268
   3441.0000      3.1870      0.7287      2.3863      2.3290      0.2713      0.1677      0.3856      0.4626      3.1870      0.8607      2.3290    -16.4727    -69.4354    -55.8060    -27.4544      0.1142      0.2285      0.2285      0.7287
   3441.5000      3.1320      0.7268      2.3774      2.3980      0.2732      0.1679      0.3860      0.4634      3.1320      0.8514      2.3980    -16.6283    -69.4357    -55.9890    -27.7139      0.1128      0.2257      0.2257      0.7268
   3442.0000      3.0780      0.7250      2.3684      2.4670      0.2750      0.1680      0.3864      0.4641      3.0780      0.8421      2.4670    -16.7850    -69.4361    -56.1730    -27.9750      0.1114      0.2228      0.2228      0.7250
   3442.5000      2.8810      0.7210      2.3490      2.6640      0.2790      0.1683      0.3874      0.4657      2.8810      0.8226      2.6640    -17.1227    -69.4364    -56.5380    -28.5378      0.1084      0.2168      0.2168      0.7210
   3443.0000      2.7430      0.7170      2.3296      2.8310      0.2830      0.1686      0.3883      0.4674      2.7430      0.8036      2.8310    -17.4604    -69.4367    -56.9030    -29.1006      0.1053      0.2107      0.2107      0.7023
   3443.5000      2.6440      0.7107      2.2987      2.9890      0.2893      0.1691      0.3898      0.4700      2.6440      0.7747      2.9890    -17.9971    -69.4370    -57.4670    -29.9951      0.1005      0.2010      0.2010      0.6701
   3444.0000      2.6140      0.7114      2.3021      3.3540      0.2886      0.1690      0.3896      0.4697      2.6140      0.7777      3.3540    -17.9387    -69.4373    -57.4360    -29.8979      0.1010      0.2021      0.2021      0.6736
   3444.5000      2.6440      0.7121      2.3056      3.5410      0.2879      0.1690      0.3895      0.4694      2.6440      0.7809      3.5410    -17.8794    -69.4376    -57.4040    -29.7990      0.1016      0.2031      0.2031      0.6771
   3445.0000      2.8010      0.7144      2.3167      3.6790      0.2856      0.1688      0.3889      0.4684      2.8010      0.7911      3.6790    -17.6881    -69.4379    -57.2400    -29.4801      0.1033      0.2066      0.2066      0.6886
   3445.5000      3.0180      0.7096      2.2935      3.8370      0.2904      0.1692      0.3900      0.4704      3.0180      0.7697      3.8370    -18.0918    -69.4382    -57.6710    -30.1529      0.0997      0.1993      0.1993      0.6644
   3446.0000      4.0530      0.7025      2.2588      3.9150      0.2975      0.1697      0.3917      0.4733      4.0530      0.7390      3.9150    -18.6944    -69.4386    -58.3010    -31.1574      0.0942      0.1885      0.1885      0.6282
   3446.5000      5.4630      0.6927      2.2108      3.9450      0.3073      0.1704      0.3941      0.4773      5.4630      0.6991      3.9450    -19.5291    -69.4389    -59.1630    -32.5485      0.0867      0.1734      0.1734      0.5782
   3447.0000      6.7250      0.6906      2.2009      3.9740      0.3094      0.1706      0.3945      0.4782      6.7250      0.6912      3.9740    -19.7018    -69.4392    -59.3630    -32.8363      0.0852      0.1703      0.1703      0.5678
   3447.5000      6.9520      0.6921      2.2081      3.7970      0.3079      0.1705      0.3942      0.4776      6.9520      0.6969      3.7970    -19.5765    -69.4395    -59.2650    -32.6275      0.0863      0.1726      0.1726      0.5753
   3448.0000      7.1780      0.6953      2.2236      3.6440      0.3047      0.1702      0.3934      0.4762      7.1780      0.7093      3.6440    -19.3082    -69.4398    -59.0240    -32.1803      0.0887      0.1774      0.1774      0.5914
   3448.5000      7.4350      0.6985      2.2391      3.4910      0.3015      0.1700      0.3926      0.4749      7.4350      0.7221      3.4910    -19.0398    -69.4401    -58.7830    -31.7331      0.0911      0.1823      0.1823      0.6075
   3449.0000      7.3560      0.7017      2.2546      3.4910      0.2983      0.1697      0.3919      0.4736      7.3560      0.7351      3.4910    -18.7715    -69.4404    -58.5420    -31.2858      0.0935      0.1871      0.1871      0.6236
   3449.5000      6.5970      0.7102      2.2962      3.4910      0.2898      0.1691      0.3898      0.4701      6.5970      0.7717      3.4910    -18.0512    -69.4408    -57.8490    -30.0853      0.1000      0.2001      0.2001      0.6669
   3450.0000      5.9560      0.7152      2.3206      3.5890      0.2848      0.1687      0.3886      0.4680      5.9560      0.7943      3.5890    -17.6279    -69.4411    -57.4530    -29.3798      0.1038      0.2077      0.2077      0.6923
   3450.5000      4.5460      0.7202      2.3450      3.6190      0.2798      0.1684      0.3874      0.4660      4.5460      0.8177      3.6190    -17.2055    -69.4414    -57.0580    -28.6759      0.1076      0.2153      0.2153      0.7176
   3451.0000      3.7070      0.7253      2.3694      3.5990      0.2747      0.1680      0.3862      0.4639      3.7070      0.8421      3.5990    -16.7822    -69.4417    -56.6620    -27.9704      0.1115      0.2229      0.2229      0.7253
   3451.5000      2.8790      0.7307      2.3957      3.0170      0.2693      0.1676      0.3849      0.4617      2.8790      0.8693      3.0170    -16.3269    -69.4420    -56.2340    -27.2115      0.1156      0.2311      0.2311      0.7307
   3452.0000      2.3960      0.7349      2.4162      2.8200      0.2651      0.1673      0.3839      0.4599      2.3960      0.8914      2.8200    -15.9706    -69.4423    -55.9050    -26.6176      0.1188      0.2375      0.2375      0.7349
   3452.5000      2.1340      0.7380      2.4311      2.7800      0.2620      0.1670      0.3831      0.4587      2.1340      0.9078      2.7800    -15.7133    -69.4426    -55.6750    -26.1888      0.1211      0.2422      0.2422      0.7380
   3453.0000      1.8730      0.7305      2.3946      2.7410      0.2695      0.1676      0.3849      0.4617      1.8730      0.8680      2.7410    -16.3479    -69.4429    -56.3370    -27.2466      0.1154      0.2307      0.2307      0.7305
   3453.5000      1.6460      0.7120      2.3047      2.7160      0.2880      0.1690      0.3893      0.4693      1.6460      0.7791      2.7160    -17.9096    -69.4433    -57.9260    -29.8493      0.1013      0.2026      0.2026      0.6754
