~V
VERS. 2.00: Ver 2.00
WRAP.   NO:        
~W
 STRT.FT 20:
 STOP.FT 3550:
 STEP.FT 0.5:
 NULL. -999.250000:
 COMP. Western Gulf (Chevron):Company
 WELL. KCL SAN EMIGDIO #1:Well
 FLD. Los Lobos:Field
 LOC. S34 T11N R22W:Location
 STAT. CA:State
 SRVC. :Service Company
 SON. :Service Order #
 DATE. :Log Date
 UWI. 2124700:Unique Well ID
~C
 DEPT.FT :
 LAT.OHMM :
 LTHE. :
 MM. :
 NOR.OHMM :
 PHES. :
 PHMX. :
 PHTS. :
 PHZC. :
 RD.OHMM :
 ROS. :
 RS.OHMM :
 SBL.MV :
 SCLN. :
 SP.MV :
 SPN. :
 VCDS. :
 VCLY. :
 VCWS. :
 VSHS. :
~P
~A
# ...
   2842.0000      1.8770      2.0503      2.8406      1.8270      0.0000   -999.2500      0.2766      0.2501      1.8770   -999.2500      1.8270     -5.0263    -69.0607    -29.4010     -8.3772      0.2952      0.6151      0.5719      2.0503
   2842.5000      1.8670      2.0264      2.8373      1.8410      0.0000   -999.2500      0.2770      0.2508      1.8670   -999.2500      1.8410     -5.4509    -69.0610    -29.8280     -9.0848      0.2918      0.6079      0.5688      2.0264
   2843.0000      1.8750      1.9969      2.8333      1.8550      0.0000   -999.2500      0.2775      0.2517      1.8750   -999.2500      1.8550     -5.9744    -69.0613    -30.3540     -9.9574      0.2876      0.5991      0.5651      1.9969
   2843.5000      1.8820      1.9619      2.8284      1.8690      0.0000   -999.2500      0.2781      0.2527      1.8820   -999.2500      1.8690     -6.5960    -69.0616    -30.9780    -10.9933      0.2825      0.5886      0.5606      1.9619
   2844.0000      1.8890      1.9492      2.8267      1.8960      0.0000   -999.2500      0.2783      0.2531      1.8890   -999.2500      1.8960     -6.8226    -69.0619    -31.2070    -11.3710      0.2807      0.5847      0.5590      1.9492
   2844.5000      1.8990      1.9365      2.8250      1.9240      0.0000   -999.2500      0.2785      0.2535      1.8990   -999.2500      1.9240     -7.0481    -69.0623    -31.4350    -11.7469      0.2788      0.5809      0.5574      1.9365
   2845.0000      1.9100      1.9145      2.8219      1.9520      0.0000   -999.2500      0.2789      0.2541      1.9100   -999.2500      1.9520     -7.4387    -69.0626    -31.8280    -12.3978      0.2757      0.5743      0.5546      1.9145
   2845.5000      1.9400      1.8980      2.8197      1.9800      0.0000   -999.2500      0.2792      0.2546      1.9400   -999.2500      1.9800     -7.7303    -69.0629    -32.1220    -12.8838      0.2733      0.5694      0.5525      1.8980
   2846.0000      1.9700      1.8779      2.8169      2.0070      0.0000   -999.2500      0.2795      0.2552      1.9700   -999.2500      2.0070     -8.0888    -69.0632    -32.4830    -13.4814      0.2704      0.5634      0.5499      1.8779
   2846.5000      2.0060      1.8586      2.8143      2.0340      0.0000   -999.2500      0.2799      0.2558      2.0060   -999.2500      2.0340     -8.4304    -69.0635    -32.8270    -14.0507      0.2676      0.5576      0.5475      1.8586
   2847.0000      2.0410      1.8394      2.8117      2.0600      0.0000   -999.2500      0.2802      0.2563      2.0410   -999.2500      2.0600     -8.7720    -69.0638    -33.1710    -14.6200      0.2649      0.5518      0.5450      1.8394
   2847.5000      2.0640      1.9292      2.8241      2.0910      0.0000   -999.2500      0.2786      0.2536      2.0640   -999.2500      2.0910     -7.1775    -69.0641    -31.5790    -11.9626      0.2778      0.5788      0.5564      1.9292
   2848.0000      2.0880      1.9630      2.8288      2.1210      0.0000   -999.2500      0.2781      0.2526      2.0880   -999.2500      2.1210     -6.5761    -69.0644    -30.9800    -10.9602      0.2827      0.5889      0.5607      1.9630
   2848.5000      2.1120      1.9605      2.8285      2.1460      0.0000   -999.2500      0.2781      0.2527      2.1120   -999.2500      2.1460     -6.6207    -69.0648    -31.0270    -11.0345      0.2823      0.5882      0.5604      1.9605
   2849.0000      2.1270      1.9581      2.8282      2.1720      0.0000   -999.2500      0.2781      0.2528      2.1270   -999.2500      2.1720     -6.6642    -69.0651    -31.0730    -11.1071      0.2820      0.5874      0.5601      1.9581
   2849.5000      2.1430      1.9901      2.8327      2.1720      0.0000   -999.2500      0.2776      0.2518      2.1430   -999.2500      2.1720     -6.0958    -69.0654    -30.5070    -10.1597      0.2866      0.5970      0.5642      1.9901
   2850.0000      2.1580      2.0221      2.8371      2.1730      0.0000   -999.2500      0.2770      0.2508      2.1580   -999.2500      2.1730     -5.5274    -69.0657    -29.9410     -9.2123      0.2912      0.6066      0.5682      2.0221
   2850.5000      2.1730      2.0373      2.8392      2.1730      0.0000   -999.2500      0.2768      0.2504      2.1730   -999.2500      2.1730     -5.2569    -69.0660    -29.6730     -8.7616      0.2934      0.6112      0.5701      2.0373
   2851.0000      2.1710      2.0526      2.8414      2.1740      0.0000   -999.2500      0.2765      0.2499      2.1710   -999.2500      2.1740     -4.9865    -69.0663    -29.4050     -8.3108      0.2956      0.6158      0.5721      2.0526
   2851.5000      2.1680      2.0678      2.8435      2.1750      0.0000   -999.2500      0.2762      0.2495      2.1680   -999.2500      2.1750     -4.7161    -69.0666    -29.1370     -7.8601      0.2978      0.6203      0.5740      2.0678
   2852.0000      2.1660      2.0718      2.8441      2.1560      0.0000   -999.2500      0.2762      0.2493      2.1660   -999.2500      2.1560     -4.6446    -69.0669    -29.0680     -7.7411      0.2983      0.6215      0.5745      2.0718
   2852.5000      2.1600      2.0554      2.8419      2.1370      0.0000   -999.2500      0.2764      0.2498      2.1600   -999.2500      2.1370     -4.9362    -69.0673    -29.3620     -8.2270      0.2960      0.6166      0.5724      2.0554
   2853.0000      2.1540      2.0390      2.8396      2.1180      0.0000   -999.2500      0.2767      0.2503      2.1540   -999.2500      2.1180     -5.2278    -69.0676    -29.6560     -8.7130      0.2936      0.6117      0.5703      2.0390
   2853.5000      2.1480      2.0486      2.8410      2.0980      0.0000   -999.2500      0.2765      0.2500      2.1480   -999.2500      2.0980     -5.0563    -69.0679    -29.4870     -8.4272      0.2950      0.6146      0.5715      2.0486
   2854.0000      2.1410      2.0899      2.8467      2.0740      0.0000   -999.2500      0.2758      0.2488      2.1410   -999.2500      2.0740     -4.3229    -69.0682    -28.7560     -7.2049      0.3010      0.6270      0.5768      2.0899
   2854.5000      2.1340      2.0986      2.8479      2.0500      0.0000   -999.2500      0.2757      0.2485      2.1340   -999.2500      2.0500     -4.1685    -69.0685    -28.6040     -6.9475      0.3022      0.6296      0.5779      2.0986
   2855.0000      2.1270      2.1073      2.8492      2.0260      0.0000   -999.2500      0.2755      0.2482      2.1270   -999.2500      2.0260     -4.0140    -69.0688    -28.4520     -6.6901      0.3035      0.6322      0.5790      2.1073
   2855.5000      2.1210      2.1114      2.8498      2.0020      0.0000   -999.2500      0.2755      0.2481      2.1210   -999.2500      2.0020     -3.9416    -69.0691    -28.3820     -6.5694      0.3040      0.6334      0.5795      2.1114
   2856.0000      2.1150      2.0950      2.8475      1.9930      0.0000   -999.2500      0.2757      0.2486      2.1150   -999.2500      1.9930     -4.2332    -69.0694    -28.6760     -7.0553      0.3017      0.6285      0.5774      2.0950
   2856.5000      2.1090      2.1186      2.8508      1.9840      0.0000   -999.2500      0.2753      0.2479      2.1090   -999.2500      1.9840     -3.8137    -69.0698    -28.2590     -6.3562      0.3051      0.6356      0.5804      2.1186
   2857.0000      2.1030      2.1422      2.8541      1.9750      0.0000   -999.2500      0.2749      0.2472      2.1030   -999.2500      1.9750     -3.3953    -69.0701    -27.8430     -5.6589      0.3085      0.6426      0.5834      2.1422
   2857.5000      2.0970      2.1667      2.8575      1.9700      0.0000   -999.2500      0.2745      0.2464      2.0970   -999.2500      1.9700     -2.9589    -69.0704    -27.4090     -4.9315      0.3120      0.6500      0.5865      2.1667
   2858.0000      2.0910      2.1913      2.8610      1.9660      0.0000   -999.2500      0.2741      0.2457      2.0910   -999.2500      1.9660     -2.5224    -69.0707    -26.9750     -4.2041      0.3155      0.6574      0.5896      2.1913
   2858.5000      2.0850      2.1925      2.8612      1.9670      0.0000   -999.2500      0.2740      0.2456      2.0850   -999.2500      1.9670     -2.5010    -69.0710    -26.9560     -4.1684      0.3157      0.6578      0.5898      2.1925
