~V
VERS. 2.00: Ver 2.00
WRAP.   NO:        
~W
 STRT.FT 20:
 STOP.FT 3550:
 STEP.FT 0.5:
 NULL. -999.250000:
 COMP. Western Gulf (Chevron):Company
 WELL. KCL SAN EMIGDIO #1:Well
 FLD. Los Lobos:Field
 LOC. S34 T11N R22W:Location
 STAT. CA:State
 SRVC. :Service Company
 SON. :Service Order #
 DATE. :Log Date
 UWI. 2124700:Unique Well ID
~C
 DEPT.FT :
 LAT.OHMM :
 LTHE. :
 MM. :
 NOR.OHMM :
 PHES. :
 PHMX. :
 PHTS. :
 PHZC. :
 RD.OHMM :
 ROS. :
 RS.OHMM :
 SBL.MV :
 SCLN. :
 SP.MV :
 SPN. :
 VCDS. :
 VCLY. :
 VCWS. :
 VSHS. :
~P
~A
# ...
   3318.0000      4.0640      0.7789      2.6347      4.4490      0.2211      0.1643      0.3756      0.4435      4.0640      1.2007      4.4490    -11.9780    -69.3585    -44.5900    -19.9633      0.1546      0.3091      0.3091      0.7789
   3318.5000      3.5120      0.8002      2.7375      4.2120      0.1998      0.1627      0.3704      0.4349      3.5120      1.3796      4.2120    -10.1957    -69.3588    -42.8350    -16.9928      0.1706      0.3413      0.3413      0.8002
   3319.0000      2.9610      0.8097      2.7681      4.0060      0.1903      0.1620      0.3681      0.4310      2.9610      1.4501      4.0060     -9.4053    -69.3591    -42.0720    -15.6756      0.1777      0.3555      0.3555      0.8097
   3319.5000      2.7930      0.8130      2.7704      3.8480      0.1870      0.1618      0.3673      0.4296      2.7930      1.4648      3.8480     -9.1290    -69.3594    -41.8230    -15.2150      0.1802      0.3605      0.3605      0.8130
   3320.0000      2.8030      0.8163      2.7727      3.7400      0.1837      0.1615      0.3664      0.4283      2.8030      1.4798      3.7400     -8.8527    -69.3597    -41.5740    -14.7545      0.1827      0.3655      0.3655      0.8163
   3320.5000      2.8930      0.8107      2.7689      3.6670      0.1893      0.1619      0.3678      0.4305      2.8930      1.4546      3.6670     -9.3194    -69.3600    -42.0680    -15.5323      0.1785      0.3570      0.3570      0.8107
   3321.0000      3.0800      0.7921      2.6983      3.5930      0.2079      0.1633      0.3724      0.4381      3.0800      1.3073      3.5930    -10.8780    -69.3604    -43.6540    -18.1301      0.1645      0.3290      0.3290      0.7921
   3321.5000      3.1590      0.7773      2.6266      3.4850      0.2227      0.1644      0.3760      0.4442      3.1590      1.1874      3.4850    -12.1227    -69.3607    -44.9260    -20.2045      0.1533      0.3065      0.3065      0.7773
   3322.0000      3.2390      0.7625      2.5549      3.3570      0.2375      0.1655      0.3796      0.4502      3.2390      1.0809      3.3570    -13.3674    -69.3610    -46.1980    -22.2790      0.1420      0.2841      0.2841      0.7625
   3322.5000      3.1310      0.7628      2.5565      3.2540      0.2372      0.1655      0.3795      0.4501      3.1310      1.0832      3.2540    -13.3391    -69.3613    -46.1970    -22.2318      0.1423      0.2846      0.2846      0.7628
   3323.0000      3.0620      0.7632      2.5582      3.1500      0.2368      0.1654      0.3794      0.4499      3.0620      1.0855      3.1500    -13.3108    -69.3616    -46.1960    -22.1846      0.1426      0.2851      0.2851      0.7632
   3323.5000      3.0330      0.7880      2.6782      3.0370      0.2120      0.1636      0.3733      0.4398      3.0330      1.2718      3.0370    -11.2304    -69.3619    -44.1430    -18.7174      0.1613      0.3226      0.3226      0.7880
   3324.0000      3.0030      0.7887      2.6819      2.9240      0.2113      0.1635      0.3731      0.4395      3.0030      1.2779      2.9240    -11.1681    -69.3622    -44.1080    -18.6135      0.1619      0.3237      0.3237      0.7887
   3324.5000      2.8210      0.7836      2.6569      2.8460      0.2164      0.1639      0.3744      0.4416      2.8210      1.2356      2.8460    -11.6028    -69.3625    -44.5700    -19.3380      0.1580      0.3159      0.3159      0.7836
   3325.0000      2.6390      0.7749      2.6147      2.7670      0.2251      0.1646      0.3765      0.4451      2.6390      1.1682      2.7670    -12.3345    -69.3629    -45.3290    -20.5574      0.1514      0.3027      0.3027      0.7749
   3325.5000      2.5210      0.7481      2.4848      2.7180      0.2519      0.1666      0.3830      0.4561      2.5210      0.9878      2.7180    -14.5881    -69.3632    -47.6100    -24.3136      0.1311      0.2621      0.2621      0.7481
   3326.0000      2.5610      0.7331      2.4121      2.6690      0.2669      0.1677      0.3866      0.4622      2.5610      0.9022      2.6690    -15.8498    -69.3635    -48.8990    -26.4164      0.1197      0.2394      0.2394      0.7331
   3326.5000      2.6500      0.7236      2.3661      2.6700      0.2764      0.1684      0.3889      0.4661      2.6500      0.8528      2.6700    -16.6475    -69.3638    -49.7240    -27.7458      0.1125      0.2250      0.2250      0.7236
   3327.0000      2.9460      0.7142      2.3201      2.6700      0.2858      0.1691      0.3911      0.4699      2.9460      0.8069      2.6700    -17.4462    -69.3641    -50.5500    -29.0770      0.1053      0.2106      0.2106      0.7020
   3327.5000      3.1240      0.7081      2.2903      2.6710      0.2919      0.1695      0.3926      0.4724      3.1240      0.7788      2.6710    -17.9629    -69.3644    -51.0940    -29.9381      0.1006      0.2013      0.2013      0.6710
   3328.0000      3.1510      0.7020      2.2606      2.6760      0.2980      0.1700      0.3940      0.4749      3.1510      0.7520      2.6760    -18.4795    -69.3647    -51.6380    -30.7992      0.0960      0.1920      0.1920      0.6400
   3328.5000      3.1770      0.6974      2.2385      2.6810      0.3026      0.1703      0.3951      0.4768      3.1770      0.7328      2.6810    -18.8642    -69.3651    -52.0500    -31.4403      0.0925      0.1851      0.1851      0.6169
   3329.0000      3.2040      0.6929      2.2163      2.7210      0.3071      0.1707      0.3962      0.4787      3.2040      0.7143      2.7210    -19.2489    -69.3654    -52.4620    -32.0815      0.0891      0.1781      0.1781      0.5938
   3329.5000      3.2440      0.6882      2.1932      2.7610      0.3118      0.1710      0.3973      0.4806      3.2440      0.6955      2.7610    -19.6506    -69.3657    -52.8910    -32.7509      0.0854      0.1709      0.1709      0.5696
   3330.0000      3.2840      0.6835      2.1701      2.8000      0.3165      0.1714      0.3984      0.4825      3.2840      0.6775      2.8000    -20.0512    -69.3660    -53.3190    -33.4187      0.0818      0.1637      0.1637      0.5456
   3330.5000      3.3920      0.7022      2.2615      2.8650      0.2978      0.1700      0.3939      0.4748      3.3920      0.7525      2.8650    -18.4679    -69.3663    -51.7630    -30.7799      0.0961      0.1922      0.1922      0.6407
   3331.0000      3.5010      0.7209      2.3528      2.9290      0.2791      0.1686      0.3894      0.4671      3.5010      0.8388      2.9290    -16.8846    -69.3666    -50.2070    -28.1410      0.1104      0.2207      0.2207      0.7209
   3331.5000      3.7780      0.7227      2.3613      2.9840      0.2773      0.1684      0.3890      0.4664      3.7780      0.8473      2.9840    -16.7393    -69.3669    -50.0890    -27.8988      0.1117      0.2234      0.2234      0.7227
   3332.0000      4.3500      0.7244      2.3696      3.0380      0.2756      0.1683      0.3886      0.4657      4.3500      0.8559      3.0380    -16.5950    -69.3672    -49.9720    -27.6583      0.1130      0.2260      0.2260      0.7244
   3332.5000      4.9020      0.7228      2.3618      3.1670      0.2772      0.1684      0.3890      0.4663      4.9020      0.8477      3.1670    -16.7316    -69.3676    -50.1360    -27.8861      0.1117      0.2235      0.2235      0.7228
   3333.0000      6.5000      0.7165      2.3311      3.2710      0.2835      0.1689      0.3905      0.4689      6.5000      0.8169      3.2710    -17.2653    -69.3679    -50.6970    -28.7755      0.1069      0.2139      0.2139      0.7129
   3333.5000      7.8910      0.7024      2.2622      3.3750      0.2976      0.1700      0.3938      0.4747      7.8910      0.7529      3.3750    -18.4600    -69.3682    -51.9190    -30.7666      0.0962      0.1924      0.1924      0.6412
   3334.0000      8.2560      0.6988      2.2449      3.7890      0.3012      0.1702      0.3947      0.4762      8.2560      0.7378      3.7890    -18.7617    -69.3685    -52.2480    -31.2694      0.0935      0.1869      0.1869      0.6231
   3334.5000      8.5030      0.6952      2.2275      4.1150      0.3048      0.1705      0.3955      0.4776      8.5030      0.7230      4.1150    -19.0643    -69.3688    -52.5780    -31.7739      0.0907      0.1815      0.1815      0.6049
