~V
VERS. 2.00: Ver 2.00
WRAP.   NO:        
~W
 STRT.FT 1040:
 STOP.FT 4600:
 STEP.FT 0.5:
 NULL. -999.250000:
 COMP. Occidental Pet. Co.:Company
 WELL. KCL 18-34:Well
 FLD. :Field
 LOC. S34 T11N R22W:Location
 STAT. CA:State
 SRVC. :Service Company
 SON. :Service Order #
 DATE. :Log Date
 UWI. 3529800:Unique Well ID
~C
 DEPT.FT :
 ILD.OHMM :
 LTHE. :
 MM. :
 PHES. :
 PHTS. :
 PHZC. :
 RD.OHMM :
 ROS. :
 RS.OHMM :
 SBL.MV :
 SCLN. :
 SN.OHMM :
 SP.MV :
 SPN. :
 VCDS. :
 VCLY. :
 VCWS. :
 VSHS. :
~P
~A
# ...
   4085.0000      6.4772      0.6278      2.1733      0.3722      0.4596      0.4561      6.4772      0.6207      8.7439    -24.9265    -95.0000      8.7439    -46.9265    -41.5441      0.0583      0.1458      0.1458      0.3645
   4085.5000      6.5248      0.6278      2.1732      0.3722      0.4596      0.4561      6.5248      0.6206      8.9860    -24.9346    -95.0000      8.9860    -46.9346    -41.5577      0.0583      0.1458      0.1458      0.3644
   4086.0000      6.5756      0.6273      2.1714      0.3727      0.4598      0.4563      6.5756      0.6193      9.1958    -25.0675    -95.0000      9.1958    -47.0675    -41.7791      0.0581      0.1451      0.1451      0.3629
   4086.5000      6.6391      0.6263      2.1675      0.3737      0.4601      0.4566      6.6391      0.6166      9.3742    -25.3376    -95.0000      9.3742    -47.3376    -42.2294      0.0576      0.1439      0.1439      0.3598
   4087.0000      6.7099      0.6251      2.1629      0.3749      0.4604      0.4570      6.7099      0.6134      9.5414    -25.6556    -95.0000      9.5414    -47.6556    -42.7594      0.0570      0.1425      0.1425      0.3562
   4087.5000      6.7947      0.6237      2.1577      0.3763      0.4608      0.4574      6.7947      0.6099      9.7045    -26.0148    -95.0000      9.7045    -48.0148    -43.3581      0.0563      0.1408      0.1408      0.3521
   4088.0000      6.9176      0.6219      2.1510      0.3781      0.4613      0.4580      6.9176      0.6054      9.8410    -26.4758    -95.0000      9.8410    -48.4758    -44.1263      0.0555      0.1387      0.1387      0.3469
   4088.5000      7.0979      0.6200      2.1439      0.3800      0.4619      0.4586      7.0979      0.6006      9.9478    -26.9706    -95.0000      9.9478    -48.9706    -44.9509      0.0546      0.1365      0.1365      0.3412
   4089.0000      7.3375      0.6178      2.1356      0.3822      0.4625      0.4593      7.3375      0.5951     10.0467    -27.5444    -95.0000     10.0467    -49.5444    -45.9073      0.0536      0.1339      0.1339      0.3347
   4089.5000      7.4529      0.6155      2.1268      0.3845      0.4632      0.4601      7.4529      0.5894     10.1349    -28.1490    -95.0000     10.1349    -50.1490    -46.9150      0.0525      0.1311      0.1311      0.3279
   4090.0000      7.5121      0.6137      2.1200      0.3863      0.4637      0.4606      7.5121      0.5850     10.2061    -28.6213    -95.0000     10.2061    -50.6213    -47.7021      0.0516      0.1290      0.1290      0.3225
   4090.5000      7.4983      0.6117      2.1126      0.3883      0.4643      0.4613      7.4983      0.5802     10.2725    -29.1337    -95.0000     10.2725    -51.1337    -48.5561      0.0507      0.1267      0.1267      0.3167
   4091.0000      7.2854      0.6097      2.1050      0.3903      0.4649      0.4619      7.2854      0.5755      9.7179    -29.6548    -95.0000      9.7179    -51.6548    -49.4247      0.0497      0.1243      0.1243      0.3107
   4091.5000      6.8865      0.6074      2.0963      0.3926      0.4655      0.4626      6.8865      0.5700      9.1946    -30.2573    -95.0000      9.1946    -52.2573    -50.4288      0.0486      0.1216      0.1216      0.3039
   4092.0000      6.5042      0.6050      2.0874      0.3950      0.4662      0.4634      6.5042      0.5645      8.9142    -30.8731    -95.0000      8.9142    -52.8731    -51.4552      0.0475      0.1188      0.1188      0.2969
   4092.5000      6.1953      0.6028      2.0788      0.3972      0.4669      0.4641      6.1953      0.5593      8.6060    -31.4640    -95.0000      8.6060    -53.4640    -52.4400      0.0464      0.1161      0.1161      0.2902
   4093.0000      5.9122      0.6003      2.0695      0.3997      0.4676      0.4649      5.9122      0.5537      8.4177    -32.1108    -95.0000      8.4177    -54.1108    -53.5180      0.0453      0.1131      0.1131      0.2828
   4093.5000      5.6310      0.5978      2.0600      0.4022      0.4683      0.4657      5.6310      0.5481      8.3768    -32.7608    -95.0000      8.3768    -54.7608    -54.6014      0.0441      0.1102      0.1102      0.2754
   4094.0000      5.3893      0.5951      2.0500      0.4049      0.4691      0.4665      5.3893      0.5423      8.3171    -33.4537    -95.0000      8.3171    -55.4537    -55.7561      0.0428      0.1070      0.1070      0.2676
   4094.5000      5.1677      0.5928      2.0413      0.4072      0.4698      0.4673      5.1677      0.5373      8.2223    -34.0524    -95.0000      8.2223    -56.0524    -56.7540      0.0417      0.1043      0.1043      0.2608
   4095.0000      4.9386      0.5923      2.0394      0.4077      0.4699      0.4674      4.9386      0.5362      8.0938    -34.1883    -95.0000      8.0938    -56.1883    -56.9805      0.0415      0.1037      0.1037      0.2592
   4095.5000      4.7302      0.5931      2.0426      0.4069      0.4697      0.4672      4.7302      0.5379      7.9578    -33.9716    -95.0000      7.9578    -55.9716    -56.6194      0.0419      0.1047      0.1047      0.2617
   4096.0000      4.5906      0.5941      2.0461      0.4059      0.4694      0.4669      4.5906      0.5399      7.8488    -33.7302    -95.0000      7.8488    -55.7302    -56.2170      0.0423      0.1058      0.1058      0.2644
   4096.5000      4.4787      0.5952      2.0506      0.4048      0.4691      0.4665      4.4787      0.5424      7.7684    -33.4300    -95.0000      7.7684    -55.4300    -55.7167      0.0429      0.1071      0.1071      0.2678
   4097.0000      4.4500      0.5964      2.0551      0.4036      0.4687      0.4661      4.4500      0.5450      7.7333    -33.1222    -95.0000      7.7333    -55.1222    -55.2036      0.0434      0.1085      0.1085      0.2713
   4097.5000      4.6693      0.5977      2.0598      0.4023      0.4684      0.4657      4.6693      0.5478      8.1968    -32.7975    -95.0000      8.1968    -54.7975    -54.6626      0.0440      0.1100      0.1100      0.2750
   4098.0000      4.9414      0.6001      2.0690      0.3999      0.4676      0.4649      4.9414      0.5531      8.6067    -32.1706    -95.0000      8.6067    -54.1706    -53.6176      0.0451      0.1129      0.1129      0.2822
   4098.5000      5.3139      0.6016      2.0749      0.3984      0.4672      0.4644      5.3139      0.5566      9.0363    -31.7702    -95.0000      9.0363    -53.7702    -52.9504      0.0459      0.1147      0.1147      0.2867
   4099.0000      5.8984      0.6003      2.0700      0.3997      0.4676      0.4649      5.8984      0.5537      9.6637    -32.1073    -95.0000      9.6637    -54.1073    -53.5121      0.0453      0.1131      0.1131      0.2829
   4099.5000      6.4963      0.5991      2.0655      0.4009      0.4679      0.4652      6.4963      0.5510     10.4507    -32.4217    -95.0000     10.4507    -54.4217    -54.0361      0.0447      0.1117      0.1117      0.2793
   4100.0000      7.0370      0.5984      2.0628      0.4016      0.4681      0.4655      7.0370      0.5494     11.6894    -32.6067    -95.0000     11.6894    -54.6067    -54.3445      0.0444      0.1109      0.1109      0.2772
   4100.5000      7.6508      0.5988      2.0643      0.4012      0.4680      0.4653      7.6508      0.5502     13.1552    -32.5072    -95.0000     13.1552    -54.5072    -54.1786      0.0445      0.1113      0.1113      0.2783
   4101.0000      8.5630      0.5996      2.0674      0.4004      0.4678      0.4651      8.5630      0.5520     23.6710    -32.2963    -95.0000     23.6710    -54.2963    -53.8272      0.0449      0.1123      0.1123      0.2807
   4101.5000      9.7723      0.6004      2.0703      0.3996      0.4675      0.4648      9.7723      0.5537     27.7522    -32.0978    -95.0000     27.7522    -54.0978    -53.4964      0.0453      0.1132      0.1132      0.2830
   4102.0000     18.1388      1.0000      2.0723      0.0000      0.0527      0.0500     18.1388     47.2236     31.8135    -31.9648    -95.0000     31.8135    -53.9648    -53.2746      0.0455      0.1138      0.0982      0.2845
