~V
VERS. 2.00: Ver 2.00
WRAP.   NO:        
~W
 STRT.FT 20:
 STOP.FT 3550:
 STEP.FT 0.5:
 NULL. -999.250000:
 COMP. Western Gulf (Chevron):Company
 WELL. KCL SAN EMIGDIO #1:Well
 FLD. Los Lobos:Field
 LOC. S34 T11N R22W:Location
 STAT. CA:State
 SRVC. :Service Company
 SON. :Service Order #
 DATE. :Log Date
 UWI. 2124700:Unique Well ID
~C
 DEPT.FT :
 LAT.OHMM :
 LTHE. :
 MM. :
 NOR.OHMM :
 PHES. :
 PHMX. :
 PHTS. :
 PHZC. :
 RD.OHMM :
 ROS. :
 RS.OHMM :
 SBL.MV :
 SCLN. :
 SP.MV :
 SPN. :
 VCDS. :
 VCLY. :
 VCWS. :
 VSHS. :
~P
~A
# ...
   2961.0000      1.4240      1.9493      2.8330      2.3510      0.0000   -999.2500      0.2772      0.2519      1.4240   -999.2500      2.3510     -6.8272    -69.1351    -31.7810    -11.3787      0.2807      0.5848      0.5579      1.9493
   2961.5000      1.5670      1.9793      2.8371      2.3410      0.0000   -999.2500      0.2766      0.2510      1.5670   -999.2500      2.3410     -6.2938    -69.1355    -31.2500    -10.4897      0.2850      0.5938      0.5617      1.9793
   2962.0000      1.7110      2.0112      2.8416      2.3320      0.0000   -999.2500      0.2761      0.2500      1.7110   -999.2500      2.3320     -5.7264    -69.1358    -30.6850     -9.5439      0.2896      0.6034      0.5657      2.0112
   2962.5000      1.8440      2.0431      2.8460      2.3120      0.0000   -999.2500      0.2756      0.2491      1.8440   -999.2500      2.3120     -5.1599    -69.1361    -30.1210     -8.5999      0.2942      0.6129      0.5698      2.0431
   2963.0000      1.9780      2.0917      2.8528      2.2640      0.0000   -999.2500      0.2747      0.2476      1.9780   -999.2500      2.2640     -4.2955    -69.1364    -29.2590     -7.1592      0.3012      0.6275      0.5759      2.0917
   2963.5000      2.1650      2.1106      2.8554      2.2200      0.0000   -999.2500      0.2744      0.2470      2.1650   -999.2500      2.2200     -3.9601    -69.1367    -28.9260     -6.6001      0.3039      0.6332      0.5783      2.1106
   2964.0000      2.1120      2.1220      2.8570      2.1760      0.0000   -999.2500      0.2742      0.2467      2.1120   -999.2500      2.1760     -3.7566    -69.1370    -28.7250     -6.2611      0.3056      0.6366      0.5798      2.1220
   2964.5000      2.0580      2.0888      2.8524      2.1610      0.0000   -999.2500      0.2748      0.2477      2.0580   -999.2500      2.1610     -4.3482    -69.1373    -29.3190     -7.2470      0.3008      0.6266      0.5755      2.0888
   2965.0000      1.9450      2.0072      2.8412      2.1470      0.0000   -999.2500      0.2761      0.2501      1.9450   -999.2500      2.1470     -5.7988    -69.1376    -30.7720     -9.6646      0.2890      0.6021      0.5652      2.0072
   2965.5000      1.8320      1.9442      2.8325      2.2210      0.0000   -999.2500      0.2772      0.2520      1.8320   -999.2500      2.2210     -6.9183    -69.1380    -31.8940    -11.5306      0.2800      0.5833      0.5572      1.9442
   2966.0000      1.7140      1.8812      2.8238      2.2960      0.0000   -999.2500      0.2783      0.2539      1.7140   -999.2500      2.2960     -8.0389    -69.1383    -33.0170    -13.3982      0.2709      0.5643      0.5492      1.8812
   2966.5000      1.7050      1.8852      2.8244      2.3310      0.0000   -999.2500      0.2782      0.2538      1.7050   -999.2500      2.3310     -7.9675    -69.1386    -32.9480    -13.2791      0.2715      0.5656      0.5497      1.8852
   2967.0000      1.6950      2.0286      2.8443      2.3660      0.0000   -999.2500      0.2758      0.2495      1.6950   -999.2500      2.3660     -5.4170    -69.1389    -30.4000     -9.0284      0.2921      0.6086      0.5679      2.0286
   2967.5000      1.7700      2.1554      2.8618      2.3710      0.0000   -999.2500      0.2736      0.2457      1.7700   -999.2500      2.3710     -3.1626    -69.1392    -28.1480     -5.2710      0.3104      0.6466      0.5840      2.1554
   2968.0000      1.8440      2.2059      2.8689      2.3770      0.0000   -999.2500      0.2727      0.2441      1.8440   -999.2500      2.3770     -2.2652    -69.1395    -27.2530     -3.7753      0.3177      0.6618      0.5904      2.2059
   2968.5000      2.0810      2.2192      2.8707      2.3870      0.0000   -999.2500      0.2725      0.2437      2.0810   -999.2500      2.3870     -2.0287    -69.1398    -27.0190     -3.3812      0.3196      0.6658      0.5921      2.2192
   2969.0000      2.1110      2.1897      2.8667      2.3970      0.0000   -999.2500      0.2730      0.2446      2.1110   -999.2500      2.3970     -2.5533    -69.1401    -27.5460     -4.2555      0.3153      0.6569      0.5883      2.1897
   2969.5000      2.0430      2.1341      2.8590      2.4470      0.0000   -999.2500      0.2739      0.2463      2.0430   -999.2500      2.4470     -3.5419    -69.1405    -28.5370     -5.9031      0.3073      0.6402      0.5812      2.1341
   2970.0000      1.9740      2.1046      2.8549      2.5460      0.0000   -999.2500      0.2744      0.2472      1.9740   -999.2500      2.5460     -4.0664    -69.1408    -29.0640     -6.7774      0.3031      0.6314      0.5775      2.1046
   2970.5000      1.9150      2.1263      2.8580      2.6450      0.0000   -999.2500      0.2741      0.2465      1.9150   -999.2500      2.6450     -3.6810    -69.1411    -28.6810     -6.1350      0.3062      0.6379      0.5802      2.1263
   2971.0000      1.8810      2.1458      2.8607      2.7740      0.0000   -999.2500      0.2737      0.2459      1.8810   -999.2500      2.7740     -3.3335    -69.1414    -28.2990     -5.5558      0.3090      0.6438      0.5827      2.1458
   2971.5000      1.8470      2.1757      2.8649      2.9020      0.0000   -999.2500      0.2732      0.2450      1.8470   -999.2500      2.9020     -2.8030    -69.1417    -27.7340     -4.6716      0.3133      0.6527      0.5865      2.1757
   2972.0000      1.7590      2.1850      2.8662      3.0260      0.0000   -999.2500      0.2730      0.2447      1.7590   -999.2500      3.0260     -2.6374    -69.1420    -27.5340     -4.3957      0.3146      0.6555      0.5877      2.1850
   2972.5000      1.7990      2.1832      2.8660      3.1490      0.0000   -999.2500      0.2731      0.2448      1.7990   -999.2500      3.1490     -2.6689    -69.1423    -27.5310     -4.4482      0.3144      0.6550      0.5874      2.1832
   2973.0000      1.8390      2.1609      2.8629      3.4950      0.0000   -999.2500      0.2734      0.2454      1.8390   -999.2500      3.4950     -3.0654    -69.1426    -27.8930     -5.1090      0.3112      0.6483      0.5846      2.1609
   2973.5000      2.0460      2.0103      2.8421      4.0770      0.0000   -999.2500      0.2760      0.2500      2.0460   -999.2500      4.0770     -5.7439    -69.1430    -30.5370     -9.5732      0.2895      0.6031      0.5655      2.0103
   2974.0000      2.2540      1.5936      2.7844      4.9850      0.0000   -999.2500      0.2486      0.2625      2.2540   -999.2500      4.9850    -13.1524    -69.1433    -37.9110    -21.9206      0.2295      0.4781      0.4781      1.5936
   2974.5000      3.5950      1.2275      2.7337      6.1290      0.0000   -999.2500      0.1915      0.2734      3.5950   -999.2500      6.1290    -18.0469    -69.1436    -42.7710    -30.0781      0.1768      0.3682      0.3682      1.2275
   2975.0000      4.8180      0.8491      2.4891      7.3920      0.1509   -999.2500      0.2946      0.2826      4.8180   -999.2500      7.3920    -21.6843    -69.1439    -46.3740    -36.1406      0.1326      0.2762      0.2762      0.8491
   2975.5000      5.8830      0.7476      2.3231      8.8020      0.1809   -999.2500      0.2975      0.2878      5.8830   -999.2500      8.8020    -23.7348    -69.1442    -48.3900    -39.5580      0.1077      0.2243      0.2243      0.7476
   2976.0000      6.5540      0.4830      2.0691      9.7390      0.2267   -999.2500      0.3020      0.2957      6.5540   -999.2500      9.7390    -27.1733    -69.1445    -51.7940    -45.2888      0.0696      0.1449      0.1449      0.4830
   2976.5000     10.1830      0.3949      1.9845      9.8180      0.2419   -999.2500      0.3035      0.2984     10.1830   -999.2500      9.8180    -29.7858    -69.1448    -54.3720    -49.6430      0.0569      0.1185      0.1185      0.3949
   2977.0000     10.6770      0.3631      1.9540      7.1370      0.2474   -999.2500      0.3040      0.2993     10.6770   -999.2500      7.1370    -30.7283    -69.1451    -55.2800    -51.2138      0.0523      0.1089      0.1089      0.3631
   2977.5000     10.9530      0.3313      1.9248      6.2600      0.2529   -999.2500      0.3046      0.3003     10.9530   -999.2500      6.2600    -31.6708    -69.1455    -56.1880    -52.7846      0.0477      0.0994      0.0994      0.3313
