~V
VERS. 2.00: Ver 2.00
WRAP.   NO:        
~W
 STRT.FT 20:
 STOP.FT 3550:
 STEP.FT 0.5:
 NULL. -999.250000:
 COMP. Western Gulf (Chevron):Company
 WELL. KCL SAN EMIGDIO #1:Well
 FLD. Los Lobos:Field
 LOC. S34 T11N R22W:Location
 STAT. CA:State
 SRVC. :Service Company
 SON. :Service Order #
 DATE. :Log Date
 UWI. 2124700:Unique Well ID
~C
 DEPT.FT :
 LAT.OHMM :
 LTHE. :
 MM. :
 NOR.OHMM :
 PHES. :
 PHMX. :
 PHTS. :
 PHZC. :
 RD.OHMM :
 ROS. :
 RS.OHMM :
 SBL.MV :
 SCLN. :
 SP.MV :
 SPN. :
 VCDS. :
 VCLY. :
 VCWS. :
 VSHS. :
~P
~A
# ...
   3165.0000      3.8480      0.7228      2.3680      3.3300      0.2772      0.1688      0.3920      0.4684      3.8480      0.8740      3.3300    -16.3661    -69.2628    -38.2180    -27.2769      0.1148      0.2296      0.2296      0.7228
   3165.5000      3.7780      0.7393      2.4484      3.1770      0.2607      0.1676      0.3880      0.4616      3.7780      0.9652      3.1770    -14.9761    -69.2631    -36.8650    -24.9602      0.1274      0.2547      0.2547      0.7393
   3166.0000      3.7480      0.7523      2.5114      3.0880      0.2477      0.1666      0.3849      0.4563      3.7480      1.0453      3.0880    -13.8851    -69.2634    -35.8110    -23.1418      0.1372      0.2744      0.2744      0.7523
   3166.5000      3.7180      0.7535      2.5172      2.9980      0.2465      0.1665      0.3846      0.4558      3.7180      1.0531      2.9980    -13.7850    -69.2637    -35.7480    -22.9751      0.1381      0.2762      0.2762      0.7535
   3167.0000      3.6240      0.7512      2.5058      2.9090      0.2488      0.1667      0.3851      0.4567      3.6240      1.0377      2.9090    -13.9840    -69.2640    -35.9840    -23.3067      0.1363      0.2726      0.2726      0.7512
   3167.5000      3.5300      0.7508      2.5040      2.8200      0.2492      0.1667      0.3852      0.4569      3.5300      1.0352      2.8200    -14.0160    -69.2643    -36.0530    -23.3599      0.1360      0.2721      0.2721      0.7508
   3168.0000      3.4950      0.7515      2.5072      2.7950      0.2485      0.1667      0.3850      0.4566      3.4950      1.0394      2.7950    -13.9609    -69.2646    -36.0350    -23.2682      0.1365      0.2731      0.2731      0.7515
   3168.5000      3.4600      0.7522      2.5104      2.7700      0.2478      0.1666      0.3849      0.4563      3.4600      1.0436      2.7700    -13.9059    -69.2650    -36.0170    -23.1765      0.1370      0.2740      0.2740      0.7522
   3169.0000      3.4990      0.7528      2.5136      2.7690      0.2472      0.1665      0.3847      0.4560      3.4990      1.0479      2.7690    -13.8509    -69.2653    -35.9990    -23.0848      0.1375      0.2750      0.2750      0.7528
   3169.5000      3.5580      0.7580      2.5385      2.7690      0.2420      0.1662      0.3834      0.4539      3.5580      1.0819      2.7690    -13.4208    -69.2656    -35.6060    -22.3680      0.1414      0.2828      0.2828      0.7580
   3170.0000      3.6160      0.7596      2.5463      2.8080      0.2404      0.1660      0.3830      0.4533      3.6160      1.0927      2.8080    -13.2878    -69.2659    -35.5100    -22.1463      0.1426      0.2852      0.2852      0.7596
   3170.5000      3.7490      0.7541      2.5196      2.8470      0.2459      0.1665      0.3844      0.4555      3.7490      1.0556      2.8470    -13.7507    -69.2662    -36.0100    -22.9179      0.1384      0.2768      0.2768      0.7541
   3171.0000      3.8820      0.7486      2.4929      2.9150      0.2514      0.1669      0.3857      0.4577      3.8820      1.0202      2.9150    -14.2137    -69.2665    -36.5100    -23.6895      0.1342      0.2685      0.2685      0.7486
   3171.5000      4.0000      0.7155      2.3325      2.9840      0.2845      0.1693      0.3936      0.4713      4.0000      0.8364      2.9840    -16.9917    -69.2668    -39.3250    -28.3194      0.1092      0.2184      0.2184      0.7155
   3172.0000      4.0680      0.7073      2.2924      3.0380      0.2927      0.1699      0.3956      0.4746      4.0680      0.7972      3.0380    -17.6866    -69.2671    -40.0570    -29.4777      0.1029      0.2058      0.2058      0.6861
   3172.5000      4.0680      0.7309      2.4071      3.0920      0.2691      0.1682      0.3899      0.4650      4.0680      0.9160      3.0920    -15.7016    -69.2675    -38.1090    -26.1693      0.1208      0.2416      0.2416      0.7309
   3173.0000      4.1710      0.7337      2.4205      3.4360      0.2663      0.1680      0.3893      0.4638      4.1710      0.9313      3.4360    -15.4696    -69.2678    -37.9140    -25.7826      0.1229      0.2458      0.2458      0.7337
   3173.5000      4.2740      0.7301      2.4034      3.6040      0.2699      0.1682      0.3901      0.4653      4.2740      0.9116      3.6040    -15.7675    -69.2681    -38.2490    -26.2792      0.1202      0.2405      0.2405      0.7301
   3174.0000      4.6090      0.7129      2.3194      3.7610      0.2871      0.1695      0.3942      0.4723      4.6090      0.8231      3.7610    -17.2225    -69.2684    -39.7410    -28.7041      0.1071      0.2142      0.2142      0.7129
   3174.5000      4.9630      0.7031      2.2717      3.7360      0.2969      0.1702      0.3966      0.4764      4.9630      0.7776      3.7360    -18.0494    -69.2687    -40.6050    -30.0824      0.0996      0.1993      0.1993      0.6643
   3175.0000      5.4460      0.6953      2.2336      3.7110      0.3047      0.1708      0.3984      0.4796      5.4460      0.7436      3.7110    -18.7104    -69.2690    -41.3030    -31.1840      0.0937      0.1874      0.1874      0.6245
   3175.5000      5.9390      0.6874      2.1954      3.6510      0.3126      0.1714      0.4003      0.4828      5.9390      0.7114      3.6510    -19.3724    -69.2693    -42.0020    -32.2873      0.0877      0.1754      0.1754      0.5847
   3176.0000      6.0470      0.6828      2.1726      3.7000      0.3172      0.1718      0.4014      0.4847      6.0470      0.6931      3.7000    -19.7683    -69.2696    -42.4350    -32.9472      0.0841      0.1683      0.1683      0.5609
   3176.5000      5.3860      0.6978      2.2461      3.7490      0.3022      0.1706      0.3978      0.4785      5.3860      0.7544      3.7490    -18.4953    -69.2700    -41.1990    -30.8255      0.0956      0.1912      0.1912      0.6375
   3177.0000      5.0790      0.7130      2.3197      3.9950      0.2870      0.1695      0.3942      0.4723      5.0790      0.8231      3.9950    -17.2213    -69.2703    -39.9620    -28.7021      0.1071      0.2142      0.2142      0.7130
   3177.5000      4.7730      0.7263      2.3847      4.1320      0.2737      0.1685      0.3909      0.4668      4.7730      0.8904      4.1320    -16.0972    -69.2706    -38.8750    -26.8287      0.1173      0.2345      0.2345      0.7263
   3178.0000      4.4670      0.7397      2.4497      4.2400      0.2603      0.1675      0.3877      0.4613      4.4670      0.9651      4.2400    -14.9722    -69.2709    -37.7870    -24.9536      0.1274      0.2548      0.2548      0.7397
   3178.5000      4.3680      0.7515      2.5071      4.3480      0.2485      0.1666      0.3848      0.4564      4.3680      1.0377      4.3480    -13.9792    -69.2712    -36.8310    -23.2986      0.1364      0.2727      0.2727      0.7515
   3179.0000      4.6040      0.7579      2.5377      4.3910      0.2421      0.1662      0.3833      0.4538      4.6040      1.0792      4.3910    -13.4501    -69.2715    -36.3390    -22.4169      0.1411      0.2823      0.2823      0.7579
   3179.5000      4.9690      0.7520      2.5091      4.4330      0.2480      0.1666      0.3847      0.4562      4.9690      1.0402      4.4330    -13.9461    -69.2718    -36.8720    -23.2435      0.1367      0.2733      0.2733      0.7520
   3180.0000      5.2440      0.7386      2.4442      4.4750      0.2614      0.1676      0.3879      0.4617      5.2440      0.9582      4.4750    -15.0700    -69.2721    -38.0330    -25.1167      0.1265      0.2531      0.2531      0.7386
   3180.5000      5.6280      0.7335      2.4194      4.5780      0.2665      0.1680      0.3892      0.4638      5.6280      0.9290      4.5780    -15.5000    -69.2725    -38.5000    -25.8333      0.1227      0.2453      0.2453      0.7335
   3181.0000      5.7710      0.7268      2.3870      4.6810      0.2732      0.1685      0.3908      0.4665      5.7710      0.8925      4.6810    -16.0620    -69.2728    -39.0990    -26.7699      0.1176      0.2352      0.2352      0.7268
   3181.5000      5.9130      0.7241      2.3737      4.8240      0.2759      0.1687      0.3914      0.4676      5.9130      0.8780      4.8240    -16.2939    -69.2731    -39.3680    -27.1565      0.1155      0.2310      0.2310      0.7241
