~V
VERS. 2.00: Ver 2.00
WRAP.   NO:        
~W
 STRT.FT 20:
 STOP.FT 3550:
 STEP.FT 0.5:
 NULL. -999.250000:
 COMP. Western Gulf (Chevron):Company
 WELL. KCL SAN EMIGDIO #1:Well
 FLD. Los Lobos:Field
 LOC. S34 T11N R22W:Location
 STAT. CA:State
 SRVC. :Service Company
 SON. :Service Order #
 DATE. :Log Date
 UWI. 2124700:Unique Well ID
~C
 DEPT.FT :
 LAT.OHMM :
 LTHE. :
 MM. :
 NOR.OHMM :
 PHES. :
 PHMX. :
 PHTS. :
 PHZC. :
 RD.OHMM :
 ROS. :
 RS.OHMM :
 SBL.MV :
 SCLN. :
 SP.MV :
 SPN. :
 VCDS. :
 VCLY. :
 VCWS. :
 VSHS. :
~P
~A
# ...
   2740.0000      3.5220   -999.2500   -999.2500      5.4540   -999.2500   -999.2500   -999.2500   -999.2500      3.5220   -999.2500      5.4540    -23.5094   -999.2500    -47.1370    -39.1824   -999.2500   -999.2500   -999.2500   -999.2500
   2740.5000      3.8670   -999.2500   -999.2500      5.8590   -999.2500   -999.2500   -999.2500   -999.2500      3.8670   -999.2500      5.8590    -27.3050   -999.2500    -50.9400    -45.5083   -999.2500   -999.2500   -999.2500   -999.2500
   2741.0000      4.2120   -999.2500   -999.2500      6.1640   -999.2500   -999.2500   -999.2500   -999.2500      4.2120   -999.2500      6.1640    -30.2415   -999.2500    -53.8840    -50.4026   -999.2500   -999.2500   -999.2500   -999.2500
   2741.5000      4.7550   -999.2500   -999.2500      6.2930   -999.2500   -999.2500   -999.2500   -999.2500      4.7550   -999.2500      6.2930    -32.6151   -999.2500    -56.2650    -54.3585   -999.2500   -999.2500   -999.2500   -999.2500
   2742.0000      5.0010   -999.2500   -999.2500      6.3170   -999.2500   -999.2500   -999.2500   -999.2500      5.0010   -999.2500      6.3170    -34.9226   -999.2500    -58.5800    -58.2044   -999.2500   -999.2500   -999.2500   -999.2500
   2742.5000      5.2180   -999.2500   -999.2500      6.3420   -999.2500   -999.2500   -999.2500   -999.2500      5.2180   -999.2500      6.3420    -35.1142   -999.2500    -58.7790    -58.5237   -999.2500   -999.2500   -999.2500   -999.2500
   2743.0000      5.4110   -999.2500   -999.2500      6.0860   -999.2500   -999.2500   -999.2500   -999.2500      5.4110   -999.2500      6.0860    -34.7428   -999.2500    -58.4150    -57.9046   -999.2500   -999.2500   -999.2500   -999.2500
   2743.5000      5.6030   -999.2500   -999.2500      5.6620   -999.2500   -999.2500   -999.2500   -999.2500      5.6030   -999.2500      5.6620    -33.7423   -999.2500    -57.4220    -56.2372   -999.2500   -999.2500   -999.2500   -999.2500
   2744.0000      5.9980   -999.2500   -999.2500      5.3910   -999.2500   -999.2500   -999.2500   -999.2500      5.9980   -999.2500      5.3910    -25.8959   -999.2500    -49.5830    -43.1598   -999.2500   -999.2500   -999.2500   -999.2500
   2744.5000      6.1460   -999.2500   -999.2500      5.1200   -999.2500   -999.2500   -999.2500   -999.2500      6.1460   -999.2500      5.1200     -7.5974   -999.2500    -31.2920    -12.6623   -999.2500   -999.2500   -999.2500   -999.2500
   2745.0000      6.1260      2.0491      2.8353      4.1340      0.0000   -999.2500      0.2776      0.2511      6.1260   -999.2500      4.1340     -5.0430    -69.0000    -28.7450     -8.4049      0.2951      0.6147      0.5727      2.0491
   2745.5000      5.8900      2.0729      2.8386      3.7400      0.0000   -999.2500      0.2772      0.2504      5.8900   -999.2500      3.7400     -4.6215    -69.0003    -28.3310     -7.7025      0.2985      0.6219      0.5757      2.0729
   2746.0000      5.1700      2.0966      2.8419      3.3460      0.0000   -999.2500      0.2768      0.2496      5.1700   -999.2500      3.3460     -4.2011    -69.0006    -27.9180     -7.0018      0.3019      0.6290      0.5787      2.0966
   2746.5000      4.4210      2.1035      2.8429      2.5870      0.0000   -999.2500      0.2767      0.2494      4.4210   -999.2500      2.5870     -4.0776    -69.0009    -27.8020     -6.7960      0.3029      0.6311      0.5796      2.1035
   2747.0000      3.9770      2.1105      2.8439      2.3410      0.0000   -999.2500      0.2766      0.2492      3.9770   -999.2500      2.3410     -3.9542    -69.0013    -27.6860     -6.5903      0.3039      0.6331      0.5805      2.1105
   2747.5000      3.4650      2.1174      2.8448      2.1340      0.0000   -999.2500      0.2764      0.2490      3.4650   -999.2500      2.1340     -3.8307    -69.0016    -27.5700     -6.3845      0.3049      0.6352      0.5813      2.1174
   2748.0000      3.1690      2.1244      2.8458      1.9370      0.0000   -999.2500      0.2763      0.2488      3.1690   -999.2500      1.9370     -3.7073    -69.0019    -27.4540     -6.1788      0.3059      0.6373      0.5822      2.1244
   2748.5000      2.9670      2.1295      2.8466      1.8680      0.0000   -999.2500      0.2762      0.2486      2.9670   -999.2500      1.8680     -3.6168    -69.0022    -27.3710     -6.0280      0.3066      0.6388      0.5829      2.1295
   2749.0000      2.7650      2.1346      2.8473      1.7100      0.0000   -999.2500      0.2761      0.2485      2.7650   -999.2500      1.7100     -3.5264    -69.0025    -27.2880     -5.8773      0.3074      0.6404      0.5835      2.1346
   2749.5000      2.5430      2.1406      2.8482      1.6220      0.0000   -999.2500      0.2760      0.2483      2.5430   -999.2500      1.6220     -3.4199    -69.0028    -27.1890     -5.6999      0.3082      0.6422      0.5843      2.1406
   2750.0000      2.3220      2.1466      2.8490      1.5720      0.0000   -999.2500      0.2759      0.2481      2.3220   -999.2500      1.5720     -3.3135    -69.0031    -27.0900     -5.5224      0.3091      0.6440      0.5850      2.1466
   2750.5000      2.0850      2.1564      2.8504      1.5230      0.0000   -999.2500      0.2757      0.2478      2.0850   -999.2500      1.5230     -3.1400    -69.0034    -26.9240     -5.2334      0.3105      0.6469      0.5863      2.1564
   2751.0000      1.8490      2.1633      2.8514      1.5180      0.0000   -999.2500      0.2756      0.2476      1.8490   -999.2500      1.5180     -3.0166    -69.0038    -26.8080     -5.0276      0.3115      0.6490      0.5871      2.1633
   2751.5000      1.7400      2.1703      2.8524      1.5140      0.0000   -999.2500      0.2755      0.2474      1.7400   -999.2500      1.5140     -2.8931    -69.0041    -26.6920     -4.8219      0.3125      0.6511      0.5880      2.1703
   2752.0000      1.6320      2.1763      2.8532      1.5290      0.0000   -999.2500      0.2754      0.2472      1.6320   -999.2500      1.5290     -2.7857    -69.0044    -26.5920     -4.6428      0.3134      0.6529      0.5888      2.1763
   2752.5000      1.5630      2.1823      2.8541      1.5440      0.0000   -999.2500      0.2753      0.2470      1.5630   -999.2500      1.5440     -2.6792    -69.0047    -26.4930     -4.4654      0.3143      0.6547      0.5895      2.1823
   2753.0000      1.6030      2.1884      2.8550      1.5490      0.0000   -999.2500      0.2752      0.2468      1.6030   -999.2500      1.5490     -2.5718    -69.0050    -26.3930     -4.2863      0.3151      0.6565      0.5903      2.1884
   2753.5000      1.6420      2.1963      2.8561      1.5540      0.0000   -999.2500      0.2750      0.2466      1.6420   -999.2500      1.5540     -2.4323    -69.0053    -26.2610     -4.0539      0.3163      0.6589      0.5913      2.1963
   2754.0000      1.7020      2.2041      2.8572      1.5590      0.0000   -999.2500      0.2749      0.2463      1.7020   -999.2500      1.5590     -2.2929    -69.0056    -26.1290     -3.8215      0.3174      0.6612      0.5923      2.2041
   2754.5000      1.7610      2.2064      2.8575      1.5640      0.0000   -999.2500      0.2748      0.2463      1.7610   -999.2500      1.5640     -2.2524    -69.0060    -26.0960     -3.7540      0.3177      0.6619      0.5926      2.2064
   2755.0000      1.8450      2.2087      2.8579      1.5690      0.0000   -999.2500      0.2748      0.2462      1.8450   -999.2500      1.5690     -2.2110    -69.0063    -26.0620     -3.6850      0.3181      0.6626      0.5929      2.2087
   2755.5000      1.9290      2.1999      2.8567      1.5740      0.0000   -999.2500      0.2749      0.2464      1.9290   -999.2500      1.5740     -2.3685    -69.0066    -26.2270     -3.9475      0.3168      0.6600      0.5917      2.1999
   2756.0000      1.9980      2.1947      2.8560      1.5940      0.0000   -999.2500      0.2750      0.2466      1.9980   -999.2500      1.5940     -2.4601    -69.0069    -26.3260     -4.1001      0.3160      0.6584      0.5911      2.1947
   2756.5000      2.0670      2.1895      2.8553      1.6140      0.0000   -999.2500      0.2751      0.2467      2.0670   -999.2500      1.6140     -2.5516    -69.0072    -26.4250     -4.2527      0.3153      0.6569      0.5904      2.1895
