~V
VERS. 2.00: Ver 2.00
WRAP.   NO:        
~W
 STRT.FT 1040:
 STOP.FT 4600:
 STEP.FT 0.5:
 NULL. -999.250000:
 COMP. Occidental Pet. Co.:Company
 WELL. KCL 18-34:Well
 FLD. :Field
 LOC. S34 T11N R22W:Location
 STAT. CA:State
 SRVC. :Service Company
 SON. :Service Order #
 DATE. :Log Date
 UWI. 3529800:Unique Well ID
~C
 DEPT.FT :
 ILD.OHMM :
 LTHE. :
 MM. :
 PHES. :
 PHTS. :
 PHZC. :
 RD.OHMM :
 ROS. :
 RS.OHMM :
 SBL.MV :
 SCLN. :
 SN.OHMM :
 SP.MV :
 SPN. :
 VCDS. :
 VCLY. :
 VCWS. :
 VSHS. :
~P
~A
# ...
   4330.0000      2.8567      0.6796      2.3831      0.3204      0.4435      0.4386      2.8567      0.7679      4.3200    -19.1399    -95.0000      4.3200    -41.1399    -31.8998      0.0821      0.2052      0.2052      0.5131
   4330.5000      2.6076      0.6740      2.3621      0.3260      0.4452      0.4404      2.6076      0.7490      4.2893    -19.7205    -95.0000      4.2893    -41.7205    -32.8674      0.0795      0.1986      0.1986      0.4966
   4331.0000      2.4741      0.6678      2.3385      0.3322      0.4470      0.4424      2.4741      0.7285      4.1462    -20.3687    -95.0000      4.1462    -42.3687    -33.9478      0.0765      0.1913      0.1913      0.4782
   4331.5000      2.3602      0.6607      2.3117      0.3393      0.4490      0.4446      2.3602      0.7061      3.9472    -21.1065    -95.0000      3.9472    -43.1065    -35.1775      0.0732      0.1829      0.1829      0.4572
   4332.0000      2.2821      0.6527      2.2816      0.3473      0.4513      0.4472      2.2821      0.6820      3.7454    -21.9358    -95.0000      3.7454    -43.9358    -36.5597      0.0694      0.1735      0.1735      0.4336
   4332.5000      2.2233      0.6434      2.2464      0.3566      0.4540      0.4501      2.2233      0.6552      3.5640    -22.9053    -95.0000      3.5640    -44.9053    -38.1755      0.0650      0.1624      0.1624      0.4061
   4333.0000      2.1972      0.6340      2.2110      0.3660      0.4568      0.4531      2.1972      0.6295      3.4371    -23.8805    -95.0000      3.4371    -45.8805    -39.8008      0.0605      0.1514      0.1514      0.3784
   4333.5000      2.2987      0.6298      2.1948      0.3702      0.4580      0.4545      2.2987      0.6182      3.3324    -24.8174    -95.0000      3.3324    -46.8174    -41.3623      0.0585      0.1463      0.1463      0.3657
   4334.0000      2.3961      0.6260      2.1805      0.3740      0.4591      0.4557      2.3961      0.6085      3.2880    -25.8045    -95.0000      3.2880    -47.8045    -43.0074      0.0567      0.1418      0.1418      0.3545
   4334.5000      2.4828      0.6333      2.2084      0.3667      0.4570      0.4534      2.4828      0.6276      3.3248    -23.9548    -95.0000      3.3248    -45.9548    -39.9246      0.0602      0.1505      0.1505      0.3763
   4335.0000      2.5649      0.6431      2.2453      0.3569      0.4541      0.4502      2.5649      0.6542      3.4517    -22.9401    -95.0000      3.4517    -44.9401    -38.2336      0.0648      0.1620      0.1620      0.4051
   4335.5000      2.6348      0.6367      2.2213      0.3633      0.4560      0.4523      2.6348      0.6367      3.5958    -23.6031    -95.0000      3.5958    -45.6031    -39.3385      0.0618      0.1545      0.1545      0.3863
   4336.0000      2.6810      0.6322      2.2042      0.3678      0.4573      0.4537      2.6810      0.6246      3.7246    -24.1820    -95.0000      3.7246    -46.1820    -40.3033      0.0597      0.1492      0.1492      0.3729
   4336.5000      2.7046      0.6305      2.1977      0.3695      0.4578      0.4543      2.7046      0.6200      3.8258    -24.6364    -95.0000      3.8258    -46.6364    -41.0606      0.0588      0.1471      0.1471      0.3678
   4337.0000      2.7156      0.6299      2.1954      0.3701      0.4580      0.4545      2.7156      0.6184      3.9161    -24.7959    -95.0000      3.9161    -46.7959    -41.3265      0.0586      0.1464      0.1464      0.3660
   4337.5000      2.7091      0.6297      2.1947      0.3703      0.4580      0.4545      2.7091      0.6179      3.9651    -24.8440    -95.0000      3.9651    -46.8440    -41.4066      0.0585      0.1462      0.1462      0.3654
   4338.0000      2.6963      0.6297      2.1947      0.3703      0.4580      0.4545      2.6963      0.6179      3.9340    -24.8472    -95.0000      3.9340    -46.8472    -41.4120      0.0585      0.1461      0.1461      0.3654
   4338.5000      2.6803      0.6296      2.1945      0.3704      0.4580      0.4545      2.6803      0.6177      3.8300    -24.8651    -95.0000      3.8300    -46.8651    -41.4419      0.0584      0.1461      0.1461      0.3652
   4339.0000      2.6535      0.6294      2.1938      0.3706      0.4581      0.4546      2.6535      0.6172      3.7135    -24.9126    -95.0000      3.7135    -46.9126    -41.5210      0.0583      0.1459      0.1459      0.3646
   4339.5000      2.6094      0.6292      2.1931      0.3708      0.4581      0.4547      2.6094      0.6167      3.6313    -24.9686    -95.0000      3.6313    -46.9686    -41.6143      0.0582      0.1456      0.1456      0.3640
   4340.0000      2.5536      0.6290      2.1922      0.3710      0.4582      0.4547      2.5536      0.6160      3.5788    -25.0315    -95.0000      3.5788    -47.0315    -41.7192      0.0581      0.1453      0.1453      0.3633
   4340.5000      2.4837      0.6287      2.1913      0.3713      0.4583      0.4548      2.4837      0.6154      3.5579    -25.0953    -95.0000      3.5579    -47.0953    -41.8255      0.0580      0.1450      0.1450      0.3626
   4341.0000      2.4151      0.6284      2.1901      0.3716      0.4584      0.4549      2.4151      0.6145      3.5420    -25.1817    -95.0000      3.5420    -47.1817    -41.9695      0.0579      0.1446      0.1446      0.3616
   4341.5000      2.3434      0.6299      2.1958      0.3701      0.4579      0.4544      2.3434      0.6184      3.5208    -24.7943    -95.0000      3.5208    -46.7943    -41.3238      0.0586      0.1464      0.1464      0.3660
   4342.0000      2.2679      0.6358      2.2182      0.3642      0.4562      0.4525      2.2679      0.6340      3.4594    -23.7016    -95.0000      3.4594    -45.7016    -39.5026      0.0614      0.1534      0.1534      0.3835
   4342.5000      2.2058      0.6480      2.2642      0.3520      0.4527      0.4487      2.2058      0.6678      3.3706    -22.4394    -95.0000      3.3706    -44.4394    -37.3989      0.0671      0.1677      0.1677      0.4193
   4343.0000      2.1498      0.6491      2.2685      0.3509      0.4524      0.4483      2.1498      0.6710      3.2669    -22.3222    -95.0000      3.2669    -44.3222    -37.2037      0.0676      0.1691      0.1691      0.4227
   4343.5000      2.1037      0.6483      2.2655      0.3517      0.4526      0.4485      2.1037      0.6687      3.1604    -22.4054    -95.0000      3.1604    -44.4054    -37.3423      0.0672      0.1681      0.1681      0.4203
   4344.0000      2.0429      0.6489      2.2677      0.3511      0.4524      0.4484      2.0429      0.6703      3.0648    -22.3453    -95.0000      3.0648    -44.3453    -37.2422      0.0675      0.1688      0.1688      0.4220
   4344.5000      1.9966      0.6571      2.2989      0.3429      0.4500      0.4457      1.9966      0.6947      3.0229    -21.4883    -95.0000      3.0229    -43.4883    -35.8138      0.0714      0.1785      0.1785      0.4464
   4345.0000      2.0504      0.6714      2.3530      0.3286      0.4459      0.4412      2.0504      0.7398      3.0089    -20.0024    -95.0000      3.0089    -42.0024    -33.3374      0.0782      0.1954      0.1954      0.4886
   4345.5000      2.1164      0.6804      2.3872      0.3196      0.4432      0.4383      2.1164      0.7702      3.0483    -19.0616    -95.0000      3.0483    -41.0616    -31.7693      0.0824      0.2061      0.2061      0.5153
   4346.0000      2.1865      0.6848      2.4038      0.3152      0.4419      0.4369      2.1865      0.7856      3.1045    -18.6067    -95.0000      3.1045    -40.6067    -31.0112      0.0845      0.2113      0.2113      0.5282
   4346.5000      2.2515      0.6714      2.3530      0.3286      0.4458      0.4412      2.2515      0.7397      3.1636    -20.0037    -95.0000      3.1636    -42.0037    -33.3395      0.0782      0.1954      0.1954      0.4885
   4347.0000      2.3056      0.6454      2.2548      0.3546      0.4534      0.4494      2.3056      0.6604      3.2246    -22.7053    -95.0000      3.2246    -44.7054    -37.8422      0.0659      0.1647      0.1647      0.4118
