~V
VERS. 2.00: Ver 2.00
WRAP.   NO:        
~W
 STRT.FT 20:
 STOP.FT 3550:
 STEP.FT 0.5:
 NULL. -999.250000:
 COMP. Western Gulf (Chevron):Company
 WELL. KCL SAN EMIGDIO #1:Well
 FLD. Los Lobos:Field
 LOC. S34 T11N R22W:Location
 STAT. CA:State
 SRVC. :Service Company
 SON. :Service Order #
 DATE. :Log Date
 UWI. 2124700:Unique Well ID
~C
 DEPT.FT :
 LAT.OHMM :
 LTHE. :
 MM. :
 NOR.OHMM :
 PHES. :
 PHMX. :
 PHTS. :
 PHZC. :
 RD.OHMM :
 ROS. :
 RS.OHMM :
 SBL.MV :
 SCLN. :
 SP.MV :
 SPN. :
 VCDS. :
 VCLY. :
 VCWS. :
 VSHS. :
~P
~A
# ...
   2893.0000      1.5080      2.1456      2.8565      1.7740      0.0000   -999.2500      0.2745      0.2467      1.5080   -999.2500      1.7740     -3.3351    -69.0926    -27.9580     -5.5585      0.3090      0.6437      0.5835      2.1456
   2893.5000      1.4690      2.1944      2.8633      1.7650      0.0000   -999.2500      0.2737      0.2452      1.4690   -999.2500      1.7650     -2.4687    -69.0929    -27.0940     -4.1145      0.3160      0.6583      0.5897      2.1944
   2894.0000      1.4500      2.1922      2.8630      1.7560      0.0000   -999.2500      0.2737      0.2453      1.4500   -999.2500      1.7560     -2.5073    -69.0932    -27.1350     -4.1788      0.3157      0.6577      0.5894      2.1922
   2894.5000      1.4860      2.1901      2.8627      1.7610      0.0000   -999.2500      0.2737      0.2454      1.4860   -999.2500      1.7610     -2.5448    -69.0935    -27.1750     -4.2414      0.3154      0.6570      0.5891      2.1901
   2895.0000      1.5210      2.1879      2.8625      1.7670      0.0000   -999.2500      0.2738      0.2454      1.5210   -999.2500      1.7670     -2.5834    -69.0938    -27.2160     -4.3057      0.3151      0.6564      0.5888      2.1879
   2895.5000      1.5710      2.1752      2.8607      1.7780      0.0000   -999.2500      0.2740      0.2458      1.5710   -999.2500      1.7780     -2.8090    -69.0942    -27.4440     -4.6816      0.3132      0.6526      0.5872      2.1752
   2896.0000      1.6210      2.1560      2.8581      1.7880      0.0000   -999.2500      0.2743      0.2464      1.6210   -999.2500      1.7880     -3.1505    -69.0945    -27.7880     -5.2509      0.3105      0.6468      0.5848      2.1560
   2896.5000      1.6610      2.1368      2.8555      1.8040      0.0000   -999.2500      0.2746      0.2469      1.6610   -999.2500      1.8040     -3.4921    -69.0948    -28.1320     -5.8202      0.3077      0.6410      0.5823      2.1368
   2897.0000      1.7010      2.0608      2.8450      1.8190      0.0000   -999.2500      0.2759      0.2492      1.7010   -999.2500      1.8190     -4.8417    -69.0951    -29.4840     -8.0694      0.2968      0.6182      0.5727      2.0608
   2897.5000      1.7410      2.0388      2.8420      1.8490      0.0000   -999.2500      0.2763      0.2499      1.7410   -999.2500      1.8490     -5.2332    -69.0954    -29.8780     -8.7221      0.2936      0.6116      0.5699      2.0388
   2898.0000      1.8200      2.0131      2.8384      1.8790      0.0000   -999.2500      0.2767      0.2506      1.8200   -999.2500      1.8790     -5.6898    -69.0957    -30.3370     -9.4830      0.2899      0.6039      0.5666      2.0131
   2898.5000      1.8600      2.0469      2.8431      1.9290      0.0000   -999.2500      0.2761      0.2496      1.8600   -999.2500      1.9290     -5.0894    -69.0960    -29.7390     -8.4823      0.2948      0.6141      0.5709      2.0469
   2899.0000      1.8960      2.1031      2.8509      1.9790      0.0000   -999.2500      0.2752      0.2479      1.8960   -999.2500      1.9790     -4.0909    -69.0963    -28.7430     -6.8182      0.3028      0.6309      0.5780      2.1031
   2899.5000      1.9310      2.1351      2.8554      2.0050      0.0000   -999.2500      0.2746      0.2470      1.9310   -999.2500      2.0050     -3.5225    -69.0967    -28.1770     -5.8708      0.3075      0.6405      0.5821      2.1351
   2900.0000      1.9460      2.1503      2.8575      2.0300      0.0000   -999.2500      0.2743      0.2465      1.9460   -999.2500      2.0300     -3.2521    -69.0970    -27.9090     -5.4201      0.3096      0.6451      0.5840      2.1503
   2900.5000      1.9620      2.1637      2.8594      2.0700      0.0000   -999.2500      0.2741      0.2461      1.9620   -999.2500      2.0700     -3.0146    -69.0973    -27.6740     -5.0244      0.3116      0.6491      0.5857      2.1637
   2901.0000      1.9550      2.1752      2.8610      2.1100      0.0000   -999.2500      0.2739      0.2457      1.9550   -999.2500      2.1100     -2.8102    -69.0976    -27.4720     -4.6837      0.3132      0.6526      0.5871      2.1752
   2901.5000      1.9490      2.1866      2.8626      2.1000      0.0000   -999.2500      0.2737      0.2454      1.9490   -999.2500      2.1000     -2.6068    -69.0979    -27.2710     -4.3446      0.3149      0.6560      0.5886      2.1866
   2902.0000      1.9430      2.1962      2.8640      2.0910      0.0000   -999.2500      0.2735      0.2451      1.9430   -999.2500      2.0910     -2.4373    -69.0982    -27.1040     -4.0622      0.3162      0.6588      0.5898      2.1962
   2902.5000      1.9290      2.1880      2.8629      2.0230      0.0000   -999.2500      0.2737      0.2453      1.9290   -999.2500      2.0230     -2.5819    -69.0985    -27.2510     -4.3032      0.3151      0.6564      0.5888      2.1880
   2903.0000      1.9150      2.1799      2.8618      2.0330      0.0000   -999.2500      0.2738      0.2456      1.9150   -999.2500      2.0330     -2.7265    -69.0988    -27.3980     -4.5441      0.3139      0.6540      0.5877      2.1799
   2903.5000      1.9350      2.1504      2.8577      2.0730      0.0000   -999.2500      0.2743      0.2465      1.9350   -999.2500      2.0730     -3.2500    -69.0992    -27.9240     -5.4167      0.3097      0.6451      0.5840      2.1504
   2904.0000      2.0190      2.1246      2.8542      2.1130      0.0000   -999.2500      0.2747      0.2472      2.0190   -999.2500      2.1130     -3.7086    -69.0995    -28.3850     -6.1810      0.3059      0.6374      0.5807      2.1246
   2904.5000      2.1030      2.2049      2.8653      2.1530      0.0000   -999.2500      0.2734      0.2448      2.1030   -999.2500      2.1530     -2.2822    -69.0998    -26.9610     -3.8036      0.3175      0.6615      0.5909      2.2049
   2905.0000      2.1630      2.2051      2.8654      2.1830      0.0000   -999.2500      0.2734      0.2448      2.1630   -999.2500      2.1830     -2.2777    -69.1001    -26.9590     -3.7962      0.3175      0.6615      0.5909      2.2051
   2905.5000      2.2220      2.2017      2.8649      2.2130      0.0000   -999.2500      0.2734      0.2449      2.2220   -999.2500      2.2130     -2.3393    -69.1004    -27.0230     -3.8988      0.3170      0.6605      0.5905      2.2017
   2906.0000      2.2620      2.1945      2.8640      2.2430      0.0000   -999.2500      0.2735      0.2451      2.2620   -999.2500      2.2430     -2.4669    -69.1007    -27.1530     -4.1114      0.3160      0.6584      0.5895      2.1945
   2906.5000      2.3020      2.1808      2.8621      2.3220      0.0000   -999.2500      0.2738      0.2455      2.3020   -999.2500      2.3220     -2.7104    -69.1010    -27.3990     -4.5174      0.3140      0.6542      0.5878      2.1808
   2907.0000      2.2190      2.1671      2.8602      2.2600      0.0000   -999.2500      0.2740      0.2459      2.2190   -999.2500      2.2600     -2.9540    -69.1013    -27.6450     -4.9233      0.3121      0.6501      0.5861      2.1671
   2907.5000      2.1350      2.1506      2.8580      2.1980      0.0000   -999.2500      0.2743      0.2464      2.1350   -999.2500      2.1980     -3.2476    -69.1017    -27.9410     -5.4126      0.3097      0.6452      0.5840      2.1506
   2908.0000      2.0470      2.1341      2.8557      2.1360      0.0000   -999.2500      0.2745      0.2469      2.0470   -999.2500      2.1360     -3.5401    -69.1020    -28.2360     -5.9002      0.3073      0.6402      0.5819      2.1341
   2908.5000      2.0280      2.1111      2.8525      2.0770      0.0000   -999.2500      0.2749      0.2476      2.0280   -999.2500      2.0770     -3.9497    -69.1023    -28.6480     -6.5828      0.3040      0.6333      0.5789      2.1111
   2909.0000      2.0280      2.0881      2.8494      2.0880      0.0000   -999.2500      0.2753      0.2483      2.0280   -999.2500      2.0880     -4.3583    -69.1026    -29.0590     -7.2638      0.3007      0.6264      0.5760      2.0881
   2909.5000      2.0290      2.0623      2.8458      2.1040      0.0000   -999.2500      0.2758      0.2490      2.0290   -999.2500      2.1040     -4.8168    -69.1029    -29.5200     -8.0281      0.2970      0.6187      0.5727      2.0623
