~V
VERS. 2.00: Ver 2.00
WRAP.   NO:        
~W
 STRT.FT 1040:
 STOP.FT 4600:
 STEP.FT 0.5:
 NULL. -999.250000:
 COMP. Occidental Pet. Co.:Company
 WELL. KCL 18-34:Well
 FLD. :Field
 LOC. S34 T11N R22W:Location
 STAT. CA:State
 SRVC. :Service Company
 SON. :Service Order #
 DATE. :Log Date
 UWI. 3529800:Unique Well ID
~C
 DEPT.FT :
 ILD.OHMM :
 LTHE. :
 MM. :
 PHES. :
 PHTS. :
 PHZC. :
 RD.OHMM :
 ROS. :
 RS.OHMM :
 SBL.MV :
 SCLN. :
 SN.OHMM :
 SP.MV :
 SPN. :
 VCDS. :
 VCLY. :
 VCWS. :
 VSHS. :
~P
~A
# ...
   2877.5000      1.8861      1.9976      2.8352      0.0000      0.2772      0.2513      1.8861   -999.2500      2.2960     -3.1947    -37.0000      2.2960    -25.3583     -5.3245      0.2876      0.5993      0.5648      1.9976
   2878.0000      1.9719      2.0368      2.8406      0.0000      0.2765      0.2501      1.9719   -999.2500      2.3132     -2.8216    -37.0000      2.3132    -24.9840     -4.7027      0.2933      0.6110      0.5698      2.0368
   2878.5000      2.1285      2.0605      2.8440      0.0000      0.2761      0.2494      2.1285   -999.2500      2.3471     -2.5956    -37.0000      2.3471    -24.7568     -4.3259      0.2967      0.6182      0.5728      2.0605
   2879.0000      2.3156      2.0833      2.8471      0.0000      0.2757      0.2487      2.3156   -999.2500      2.3811     -2.3785    -37.0000      2.3811    -24.5385     -3.9641      0.3000      0.6250      0.5757      2.0833
   2879.5000      2.5411      2.0750      2.8460      0.0000      0.2758      0.2490      2.5411   -999.2500      2.4257     -2.4575    -37.0000      2.4257    -24.6163     -4.0959      0.2988      0.6225      0.5746      2.0750
   2880.0000      2.7503      2.0520      2.8428      0.0000      0.2762      0.2496      2.7503   -999.2500      2.6039     -2.6769    -37.0000      2.6039    -24.8344     -4.4614      0.2955      0.6156      0.5717      2.0520
   2880.5000      2.9101      2.0000      2.8357      0.0000      0.2771      0.2512      2.9101   -999.2500      2.7973     -3.1717    -37.0000      2.7973    -25.3281     -5.2862      0.2880      0.6000      0.5651      2.0000
   2881.0000      3.0288      1.9292      2.8259      0.0000      0.2783      0.2533      3.0288   -999.2500      2.9078     -3.8449    -37.0000      2.9078    -26.0001     -6.4082      0.2778      0.5788      0.5561      1.9292
   2881.5000      3.1367      1.8278      2.8119      0.0000      0.2800      0.2564      3.1367   -999.2500      2.9969     -4.8098    -37.0000      2.9969    -26.9637     -8.0163      0.2632      0.5483      0.5432      1.8278
   2882.0000      3.2043      1.7328      2.7988      0.0000      0.2703      0.2592      3.2043   -999.2500      3.0603     -5.7139    -37.0000      3.0603    -27.8666     -9.5232      0.2495      0.5198      0.5198      1.7328
   2882.5000      3.1133      1.6362      2.7854      0.0000      0.2552      0.2621      3.1133   -999.2500      3.1245     -6.6328    -37.0000      3.1245    -28.7843    -11.0547      0.2356      0.4909      0.4909      1.6362
   2883.0000      2.6536      1.5655      2.7757      0.0000      0.2442      0.2642      2.6536   -999.2500      3.2506     -7.3050    -37.0000      3.2506    -29.4553    -12.1750      0.2254      0.4697      0.4697      1.5655
   2883.5000      2.2872      1.5329      2.7712      0.0000      0.2391      0.2652      2.2872   -999.2500      3.1486     -7.6157    -37.0000      3.1486    -29.7648    -12.6929      0.2207      0.4599      0.4599      1.5329
   2884.0000      2.2035      1.6539      2.7879      0.0000      0.2580      0.2615      2.2035   -999.2500      2.9838     -6.4640    -37.0000      2.9838    -28.6119    -10.7734      0.2382      0.4962      0.4962      1.6539
   2884.5000      2.1440      1.7034      2.7948      0.0000      0.2657      0.2601      2.1440   -999.2500      2.8698     -5.9937    -37.0000      2.8698    -28.1404     -9.9896      0.2453      0.5110      0.5110      1.7034
   2885.0000      2.1032      1.7271      2.7981      0.0000      0.2694      0.2593      2.1032   -999.2500      2.7715     -5.7676    -37.0000      2.7715    -27.9131     -9.6127      0.2487      0.5181      0.5181      1.7271
   2885.5000      2.0644      1.7351      2.7993      0.0000      0.2707      0.2591      2.0644   -999.2500      2.6878     -5.6921    -37.0000      2.6878    -27.8363     -9.4868      0.2498      0.5205      0.5205      1.7351
   2886.0000      2.0287      1.7286      2.7984      0.0000      0.2697      0.2593      2.0287   -999.2500      2.6125     -5.7534    -37.0000      2.6125    -27.8964     -9.5890      0.2489      0.5186      0.5186      1.7286
   2886.5000      1.9938      1.7145      2.7965      0.0000      0.2675      0.2597      1.9938   -999.2500      2.5608     -5.8875    -37.0000      2.5608    -28.0294     -9.8126      0.2469      0.5144      0.5144      1.7145
   2887.0000      1.9592      1.6912      2.7933      0.0000      0.2638      0.2604      1.9592   -999.2500      2.5201     -6.1096    -37.0000      2.5201    -28.2502    -10.1826      0.2435      0.5074      0.5074      1.6912
   2887.5000      1.9249      1.6304      2.7849      0.0000      0.2543      0.2622      1.9249   -999.2500      2.4841     -6.6882    -37.0000      2.4841    -28.8276    -11.1470      0.2348      0.4891      0.4891      1.6304
   2888.0000      1.8905      1.5621      2.7754      0.0000      0.2437      0.2643      1.8905   -999.2500      2.4501     -7.3381    -37.0000      2.4501    -29.4763    -12.2302      0.2249      0.4686      0.4686      1.5621
   2888.5000      1.8562      1.4842      2.7647      0.0000      0.2315      0.2666      1.8562   -999.2500      2.4149     -8.0289    -37.0000      2.4149    -30.1659    -13.3816      0.2137      0.4453      0.4453      1.4842
   2889.0000      1.8303      1.3581      2.7473      0.0000      0.2119      0.2704      1.8303   -999.2500      2.3773     -8.8286    -37.0000      2.3773    -30.9643    -14.7143      0.1956      0.4074      0.4074      1.3581
   2889.5000      1.8062      1.2145      2.7274      0.0000      0.1895      0.2747      1.8062   -999.2500      2.3397     -9.7392    -37.0000      2.3397    -31.8738    -16.2320      0.1749      0.3644      0.3644      1.2145
   2890.0000      1.7845      0.8786      2.6534      0.1214      0.2924      0.2782      1.7845   -999.2500      2.3041    -10.4883    -37.0000      2.3041    -32.6216    -17.4805      0.1579      0.3289      0.3289      0.8786
   2890.5000      1.7659      0.8620      2.5614      0.1380      0.2940      0.2811      1.7659   -999.2500      2.2691    -11.0962    -37.0000      2.2691    -33.2283    -18.4936      0.1441      0.3002      0.3002      0.8620
   2891.0000      1.7503      0.8455      2.4696      0.1545      0.2957      0.2839      1.7503   -999.2500      2.2341    -11.7031    -37.0000      2.2341    -33.8340    -19.5051      0.1303      0.2715      0.2715      0.8455
   2891.5000      1.7347      0.8264      2.3942      0.1681      0.2970      0.2863      1.7347   -999.2500      2.2002    -12.2014    -37.0000      2.2002    -34.3311    -20.3356      0.1190      0.2479      0.2479      0.8264
   2892.0000      1.7224      0.7860      2.3555      0.1751      0.2977      0.2875      1.7224   -999.2500      2.1691    -12.4572    -37.0000      2.1691    -34.5857    -20.7620      0.1132      0.2358      0.2358      0.7860
   2892.5000      1.7171      0.7645      2.3349      0.1788      0.2980      0.2881      1.7171   -999.2500      2.1380    -12.5937    -37.0000      2.1380    -34.7210    -20.9895      0.1101      0.2294      0.2294      0.7645
   2893.0000      1.7080      0.7495      2.3205      0.1814      0.2983      0.2886      1.7080   -999.2500      2.1068    -12.6889    -37.0000      2.1068    -34.8150    -21.1482      0.1079      0.2248      0.2248      0.7495
   2893.5000      1.6969      0.7335      2.3052      0.1841      0.2986      0.2891      1.6969   -999.2500      2.0757    -12.7902    -37.0000      2.0757    -34.9151    -21.3171      0.1056      0.2201      0.2201      0.7335
   2894.0000      1.6868      0.8118      2.3803      0.1706      0.2972      0.2867      1.6868   -999.2500      2.0445    -12.2939    -37.0000      2.0445    -34.4175    -20.4898      0.1169      0.2435      0.2435      0.8118
   2894.5000      1.6811      0.8486      2.4866      0.1514      0.2953      0.2834      1.6811   -999.2500      2.0139    -11.5918    -37.0000      2.0139    -33.7143    -19.3197      0.1328      0.2767      0.2767      0.8486
