~V
VERS. 2.00: Ver 2.00
WRAP.   NO:        
~W
 STRT.FT 1040:
 STOP.FT 4600:
 STEP.FT 0.5:
 NULL. -999.250000:
 COMP. Occidental Pet. Co.:Company
 WELL. KCL 18-34:Well
 FLD. :Field
 LOC. S34 T11N R22W:Location
 STAT. CA:State
 SRVC. :Service Company
 SON. :Service Order #
 DATE. :Log Date
 UWI. 3529800:Unique Well ID
~C
 DEPT.FT :
 ILD.OHMM :
 LTHE. :
 MM. :
 PHES. :
 PHTS. :
 PHZC. :
 RD.OHMM :
 ROS. :
 RS.OHMM :
 SBL.MV :
 SCLN. :
 SN.OHMM :
 SP.MV :
 SPN. :
 VCDS. :
 VCLY. :
 VCWS. :
 VSHS. :
~P
~A
# ...
   3245.0000      2.9782      0.7206      2.4758      0.2794      0.4362      0.4300      2.9782      0.9879      3.7036    -14.2031    -95.0000      3.7036    -36.2031    -23.6719      0.1045      0.2613      0.2613      0.6533
   3245.5000      2.9488      0.7077      2.4273      0.2923      0.4400      0.4341      2.9488      0.9296      3.6457    -15.5392    -95.0000      3.6457    -37.5392    -25.8986      0.0985      0.2461      0.2461      0.6154
   3246.0000      2.9253      0.6901      2.3606      0.3099      0.4451      0.4397      2.9253      0.8565      3.5956    -17.3747    -95.0000      3.5956    -39.3747    -28.9579      0.0901      0.2253      0.2253      0.5632
   3246.5000      2.8987      0.6786      2.3174      0.3214      0.4484      0.4433      2.8987      0.8130      3.5581    -18.5635    -95.0000      3.5581    -40.5635    -30.9392      0.0847      0.2118      0.2118      0.5294
   3247.0000      2.8676      0.6742      2.3005      0.3258      0.4497      0.4448      2.8676      0.7968      3.5388    -19.0288    -95.0000      3.5388    -41.0288    -31.7147      0.0826      0.2065      0.2065      0.5162
   3247.5000      2.8343      0.6731      2.2966      0.3269      0.4500      0.4451      2.8343      0.7930      3.5141    -19.1391    -95.0000      3.5141    -41.1391    -31.8986      0.0821      0.2052      0.2052      0.5131
   3248.0000      2.7805      0.6719      2.2921      0.3281      0.4504      0.4455      2.7805      0.7888      3.4825    -19.2617    -95.0000      3.4825    -41.2617    -32.1029      0.0815      0.2038      0.2038      0.5096
   3248.5000      2.7193      0.6700      2.2850      0.3300      0.4509      0.4461      2.7193      0.7821      3.4511    -19.4594    -95.0000      3.4511    -41.4594    -32.4324      0.0806      0.2016      0.2016      0.5040
   3249.0000      2.6493      0.6678      2.2765      0.3322      0.4516      0.4468      2.6493      0.7742      3.4135    -19.6949    -95.0000      3.4135    -41.6949    -32.8249      0.0796      0.1989      0.1989      0.4973
   3249.5000      2.5850      0.6665      2.2715      0.3335      0.4520      0.4472      2.5850      0.7697      3.3273    -19.8323    -95.0000      3.3273    -41.8323    -33.0538      0.0789      0.1974      0.1974      0.4934
   3250.0000      2.5633      0.6761      2.3081      0.3239      0.4491      0.4441      2.5633      0.8036      3.2120    -18.8284    -95.0000      3.2120    -40.8284    -31.3807      0.0835      0.2088      0.2088      0.5219
   3250.5000      2.5807      0.6825      2.3322      0.3175      0.4473      0.4421      2.5807      0.8272      3.1008    -18.1644    -95.0000      3.1008    -40.1644    -30.2740      0.0865      0.2163      0.2163      0.5408
   3251.0000      2.6443      0.6894      2.3583      0.3106      0.4453      0.4399      2.6443      0.8535      3.0775    -17.4498    -95.0000      3.0775    -39.4498    -29.0830      0.0898      0.2244      0.2244      0.5611
   3251.5000      2.7244      0.6934      2.3737      0.3066      0.4441      0.4386      2.7244      0.8696      3.2111    -17.0266    -95.0000      3.2111    -39.0266    -28.3776      0.0917      0.2292      0.2292      0.5731
   3252.0000      2.7944      0.6975      2.3889      0.3025      0.4429      0.4373      2.7944      0.8858      3.3138    -16.6095    -95.0000      3.3138    -38.6095    -27.6825      0.0936      0.2340      0.2340      0.5850
   3252.5000      2.8566      0.6895      2.3588      0.3105      0.4452      0.4399      2.8566      0.8538      3.3935    -17.4396    -95.0000      3.3935    -39.4396    -29.0660      0.0898      0.2246      0.2246      0.5614
   3253.0000      2.9196      0.6809      2.3264      0.3191      0.4477      0.4426      2.9196      0.8211      3.4664    -18.3312    -95.0000      3.4664    -40.3312    -30.5520      0.0858      0.2144      0.2144      0.5360
   3253.5000      2.9701      0.6745      2.3022      0.3255      0.4496      0.4446      2.9701      0.7977      3.5338    -18.9961    -95.0000      3.5338    -40.9961    -31.6602      0.0827      0.2069      0.2069      0.5172
   3254.0000      2.9984      0.6686      2.2798      0.3314      0.4513      0.4465      2.9984      0.7768      3.5956    -19.6138    -95.0000      3.5956    -41.6138    -32.6897      0.0799      0.1998      0.1998      0.4996
   3254.5000      2.9448      0.6631      2.2591      0.3369      0.4529      0.4483      2.9448      0.7580      3.6385    -20.1860    -95.0000      3.6385    -42.1860    -33.6433      0.0773      0.1933      0.1933      0.4834
   3255.0000      2.8815      0.6587      2.2425      0.3413      0.4542      0.4497      2.8815      0.7434      3.6850    -20.6433    -95.0000      3.6850    -42.6433    -34.4055      0.0753      0.1881      0.1881      0.4704
   3255.5000      2.8117      0.6562      2.2332      0.3438      0.4549      0.4505      2.8117      0.7353      3.7500    -20.9004    -95.0000      3.7500    -42.9004    -34.8340      0.0741      0.1852      0.1852      0.4631
   3256.0000      2.7433      0.6569      2.2356      0.3431      0.4547      0.4503      2.7433      0.7374      3.6168    -20.8349    -95.0000      3.6168    -42.8349    -34.7248      0.0744      0.1860      0.1860      0.4649
   3256.5000      2.6694      0.6607      2.2501      0.3393      0.4536      0.4490      2.6694      0.7499      3.4652    -20.4367    -95.0000      3.4652    -42.4367    -34.0611      0.0762      0.1905      0.1905      0.4762
   3257.0000      2.6049      0.6680      2.2778      0.3320      0.4515      0.4467      2.6049      0.7746      3.3266    -19.6751    -95.0000      3.3266    -41.6751    -32.7918      0.0797      0.1991      0.1991      0.4979
   3257.5000      2.5506      0.6746      2.3029      0.3254      0.4495      0.4446      2.5506      0.7979      3.2218    -18.9871    -95.0000      3.2218    -40.9871    -31.6452      0.0828      0.2070      0.2070      0.5174
   3258.0000      2.5237      0.6794      2.3209      0.3206      0.4482      0.4431      2.5237      0.8152      3.1398    -18.4933    -95.0000      3.1398    -40.4933    -30.8222      0.0850      0.2126      0.2126      0.5314
   3258.5000      2.6040      0.6847      2.3411      0.3153      0.4466      0.4413      2.6040      0.8352      3.1013    -17.9375    -95.0000      3.1013    -39.9375    -29.8958      0.0876      0.2189      0.2189      0.5472
   3259.0000      2.6752      0.6905      2.3631      0.3095      0.4449      0.4395      2.6752      0.8576      3.1361    -17.3346    -95.0000      3.1361    -39.3346    -28.8909      0.0903      0.2257      0.2257      0.5644
   3259.5000      2.7480      0.6989      2.3950      0.3011      0.4425      0.4368      2.7480      0.8915      3.2451    -16.4596    -95.0000      3.2451    -38.4596    -27.4326      0.0943      0.2357      0.2357      0.5892
   3260.0000      2.8253      0.6955      2.3819      0.3045      0.4435      0.4379      2.8253      0.8773      3.3666    -16.8202    -95.0000      3.3666    -38.8202    -28.0336      0.0926      0.2316      0.2316      0.5790
   3260.5000      2.8560      0.6896      2.3596      0.3104      0.4452      0.4398      2.8560      0.8538      3.4679    -17.4329    -95.0000      3.4679    -39.4329    -29.0549      0.0899      0.2246      0.2246      0.5616
   3261.0000      2.8512      0.6860      2.3460      0.3140      0.4462      0.4409      2.8512      0.8398      3.5501    -17.8085    -95.0000      3.5501    -39.8085    -29.6809      0.0881      0.2204      0.2204      0.5509
   3261.5000      2.8357      0.6845      2.3402      0.3155      0.4467      0.4414      2.8357      0.8339      3.6234    -17.9686    -95.0000      3.6234    -39.9686    -29.9477      0.0874      0.2185      0.2185      0.5463
   3262.0000      2.8128      0.6833      2.3358      0.3167      0.4470      0.4418      2.8128      0.8294      3.5259    -18.0921    -95.0000      3.5259    -40.0921    -30.1534      0.0869      0.2171      0.2171      0.5428
