~V
VERS. 2.00: Ver 2.00
WRAP.   NO:        
~W
 STRT.FT 1040:
 STOP.FT 4600:
 STEP.FT 0.5:
 NULL. -999.250000:
 COMP. Occidental Pet. Co.:Company
 WELL. KCL 18-34:Well
 FLD. :Field
 LOC. S34 T11N R22W:Location
 STAT. CA:State
 SRVC. :Service Company
 SON. :Service Order #
 DATE. :Log Date
 UWI. 3529800:Unique Well ID
~C
 DEPT.FT :
 ILD.OHMM :
 LTHE. :
 MM. :
 PHES. :
 PHTS. :
 PHZC. :
 RD.OHMM :
 ROS. :
 RS.OHMM :
 SBL.MV :
 SCLN. :
 SN.OHMM :
 SP.MV :
 SPN. :
 VCDS. :
 VCLY. :
 VCWS. :
 VSHS. :
~P
~A
# ...
   3962.5000      3.4931      0.6543      2.2663      0.3457      0.4525      0.4482      3.4931      0.6994      4.5178    -21.5438    -95.0000      4.5178    -43.5438    -35.9062      0.0712      0.1779      0.1779      0.4448
   3963.0000      3.3615      0.6577      2.2793      0.3423      0.4515      0.4471      3.3615      0.7099      4.3363    -21.1876    -95.0000      4.3363    -43.1876    -35.3127      0.0728      0.1820      0.1820      0.4549
   3963.5000      3.2171      0.6610      2.2916      0.3390      0.4505      0.4461      3.2171      0.7200      4.1578    -20.8510    -95.0000      4.1578    -42.8510    -34.7516      0.0743      0.1858      0.1858      0.4645
   3964.0000      3.0900      0.6623      2.2967      0.3377      0.4501      0.4456      3.0900      0.7243      3.9926    -20.7105    -95.0000      3.9926    -42.7105    -34.5175      0.0750      0.1874      0.1874      0.4685
   3964.5000      2.9989      0.6578      2.2796      0.3422      0.4514      0.4471      2.9989      0.7100      3.8425    -21.1835    -95.0000      3.8425    -43.1835    -35.3058      0.0728      0.1820      0.1820      0.4550
   3965.0000      2.9379      0.6494      2.2481      0.3506      0.4539      0.4497      2.9379      0.6847      3.7108    -22.0496    -95.0000      3.7108    -44.0496    -36.7493      0.0689      0.1722      0.1722      0.4304
   3965.5000      2.9002      0.6414      2.2179      0.3586      0.4562      0.4523      2.9002      0.6615      3.6034    -22.8816    -95.0000      3.6034    -44.8816    -38.1360      0.0651      0.1627      0.1627      0.4068
   3966.0000      2.9050      0.6373      2.2022      0.3627      0.4574      0.4536      2.9050      0.6499      3.5407    -23.3142    -95.0000      3.5407    -45.3142    -38.8570      0.0631      0.1578      0.1578      0.3945
   3966.5000      2.9159      0.6488      2.2456      0.3512      0.4541      0.4499      2.9159      0.6826      3.5468    -22.1223    -95.0000      3.5468    -44.1223    -36.8706      0.0685      0.1713      0.1713      0.4283
   3967.0000      2.9710      0.6590      2.2844      0.3410      0.4511      0.4467      2.9710      0.7137      3.5719    -21.0562    -95.0000      3.5719    -43.0562    -35.0936      0.0734      0.1835      0.1835      0.4586
   3967.5000      3.0475      0.6649      2.3066      0.3351      0.4494      0.4448      3.0475      0.7323      3.6113    -20.4481    -95.0000      3.6113    -42.4481    -34.0802      0.0761      0.1904      0.1904      0.4759
   3968.0000      3.1196      0.6554      2.2710      0.3446      0.4521      0.4478      3.1196      0.7027      3.6599    -21.4274    -95.0000      3.6599    -43.4274    -35.7123      0.0717      0.1792      0.1792      0.4481
   3968.5000      3.1886      0.6497      2.2493      0.3503      0.4538      0.4496      3.1886      0.6853      3.7145    -22.0260    -95.0000      3.7145    -44.0260    -36.7100      0.0690      0.1724      0.1724      0.4311
   3969.0000      3.2577      0.6566      2.2753      0.3434      0.4518      0.4474      3.2577      0.7061      3.7692    -21.3114    -95.0000      3.7692    -43.3114    -35.5189      0.0722      0.1806      0.1806      0.4514
   3969.5000      3.3219      0.6649      2.3069      0.3351      0.4493      0.4448      3.3219      0.7324      3.8354    -20.4442    -95.0000      3.8354    -42.4442    -34.0737      0.0762      0.1904      0.1904      0.4760
   3970.0000      3.3858      0.6726      2.3359      0.3274      0.4471      0.4423      3.3858      0.7577      3.9016    -19.6459    -95.0000      3.9016    -41.6459    -32.7431      0.0798      0.1995      0.1995      0.4987
   3970.5000      3.4467      0.6801      2.3642      0.3199      0.4449      0.4399      3.4467      0.7835      3.9678    -18.8687    -95.0000      3.9678    -40.8687    -31.4478      0.0833      0.2083      0.2083      0.5208
   3971.0000      3.5066      0.6882      2.3950      0.3118      0.4426      0.4373      3.5066      0.8128      4.0311    -18.0234    -95.0000      4.0311    -40.0235    -30.0391      0.0872      0.2179      0.2179      0.5448
   3971.5000      3.5645      0.6796      2.3624      0.3204      0.4451      0.4401      3.5645      0.7817      4.0905    -18.9200    -95.0000      4.0905    -40.9200    -31.5333      0.0831      0.2077      0.2077      0.5193
   3972.0000      3.6136      0.6683      2.3200      0.3317      0.4483      0.4437      3.6136      0.7435      4.1448    -20.0885    -95.0000      4.1448    -42.0885    -33.4809      0.0778      0.1944      0.1944      0.4861
   3972.5000      3.6578      0.6590      2.2848      0.3410      0.4510      0.4466      3.6578      0.7136      4.2139    -21.0564    -95.0000      4.2139    -43.0564    -35.0940      0.0734      0.1835      0.1835      0.4586
   3973.0000      3.7008      0.6511      2.2550      0.3489      0.4533      0.4491      3.7008      0.6895      4.2983    -21.8768    -95.0000      4.2983    -43.8768    -36.4614      0.0697      0.1741      0.1741      0.4353
   3973.5000      3.7183      0.6454      2.2333      0.3546      0.4550      0.4510      3.7183      0.6725      4.3772    -22.4766    -95.0000      4.3772    -44.4766    -37.4610      0.0669      0.1673      0.1673      0.4183
   3974.0000      3.6978      0.6539      2.2653      0.3461      0.4525      0.4483      3.6978      0.6976      4.4576    -21.5957    -95.0000      4.4576    -43.5957    -35.9928      0.0709      0.1773      0.1773      0.4433
   3974.5000      3.6589      0.6615      2.2944      0.3385      0.4503      0.4458      3.6589      0.7214      4.5404    -20.7983    -95.0000      4.5404    -42.7983    -34.6638      0.0746      0.1864      0.1864      0.4660
   3975.0000      3.6098      0.6698      2.3258      0.3302      0.4479      0.4432      3.6098      0.7483      4.4272    -19.9343    -95.0000      4.4272    -41.9343    -33.2238      0.0785      0.1962      0.1962      0.4905
   3975.5000      3.5497      0.6768      2.3524      0.3232      0.4458      0.4409      3.5497      0.7721      4.3231    -19.2059    -95.0000      4.3231    -41.2059    -32.0098      0.0818      0.2045      0.2045      0.5112
   3976.0000      3.4816      0.6835      2.3776      0.3165      0.4439      0.4388      3.4816      0.7956      4.2469    -18.5126    -95.0000      4.2469    -40.5126    -30.8543      0.0849      0.2124      0.2124      0.5309
   3976.5000      3.4051      0.6887      2.3972      0.3113      0.4424      0.4372      3.4051      0.8144      4.2824    -17.9763    -95.0000      4.2824    -39.9763    -29.9605      0.0874      0.2185      0.2185      0.5461
   3977.0000      3.3296      0.6925      2.4119      0.3075      0.4413      0.4359      3.3296      0.8289      4.2966    -17.5731    -95.0000      4.2966    -39.5731    -29.2885      0.0892      0.2230      0.2230      0.5576
   3977.5000      3.2585      0.6874      2.3925      0.3126      0.4428      0.4376      3.2585      0.8097      4.3092    -18.1064    -95.0000      4.3092    -40.1064    -30.1773      0.0868      0.2170      0.2170      0.5424
   3978.0000      3.2076      0.6807      2.3670      0.3193      0.4447      0.4397      3.2076      0.7854      4.3090    -18.8090    -95.0000      4.3090    -40.8090    -31.3484      0.0836      0.2090      0.2090      0.5225
   3978.5000      3.1651      0.6702      2.3275      0.3298      0.4478      0.4430      3.1651      0.7495      4.2307    -19.8965    -95.0000      4.2307    -41.8965    -33.1608      0.0787      0.1966      0.1966      0.4916
   3979.0000      3.1286      0.6605      2.2908      0.3395      0.4506      0.4461      3.1286      0.7180      4.1506    -20.9057    -95.0000      4.1506    -42.9057    -34.8428      0.0741      0.1852      0.1852      0.4629
   3979.5000      3.1135      0.6500      2.2513      0.3500      0.4536      0.4495      3.1135      0.6860      4.1087    -21.9954    -95.0000      4.1087    -43.9954    -36.6590      0.0691      0.1728      0.1728      0.4319
