~V
VERS. 2.00: Ver 2.00
WRAP.   NO:        
~W
 STRT.FT 1040:
 STOP.FT 4600:
 STEP.FT 0.5:
 NULL. -999.250000:
 COMP. Occidental Pet. Co.:Company
 WELL. KCL 18-34:Well
 FLD. :Field
 LOC. S34 T11N R22W:Location
 STAT. CA:State
 SRVC. :Service Company
 SON. :Service Order #
 DATE. :Log Date
 UWI. 3529800:Unique Well ID
~C
 DEPT.FT :
 ILD.OHMM :
 LTHE. :
 MM. :
 PHES. :
 PHTS. :
 PHZC. :
 RD.OHMM :
 ROS. :
 RS.OHMM :
 SBL.MV :
 SCLN. :
 SN.OHMM :
 SP.MV :
 SPN. :
 VCDS. :
 VCLY. :
 VCWS. :
 VSHS. :
~P
~A
# ...
   3490.0000      2.2898      0.6648      2.2788      0.3352      0.4514      0.4468      2.2898      0.7522      2.9469    -20.1598    -95.0000      2.9469    -42.1598    -33.5996      0.0775      0.1936      0.1936      0.4841
   3490.5000      2.2577      0.6565      2.2475      0.3435      0.4538      0.4494      2.2577      0.7252      2.9110    -21.0220    -95.0000      2.9110    -43.0220    -35.0367      0.0735      0.1838      0.1838      0.4596
   3491.0000      2.2256      0.6480      2.2155      0.3520      0.4563      0.4521      2.2256      0.6989      2.8510    -21.9042    -95.0000      2.8510    -43.9042    -36.5070      0.0695      0.1738      0.1738      0.4345
   3491.5000      2.1900      0.6399      2.1850      0.3601      0.4586      0.4547      2.1900      0.6750      2.7898    -22.7439    -95.0000      2.7898    -44.7439    -37.9065      0.0657      0.1643      0.1643      0.4107
   3492.0000      2.1553      0.6281      2.1404      0.3719      0.4621      0.4585      2.1553      0.6420      2.7329    -23.9709    -95.0000      2.7329    -45.9709    -39.9515      0.0601      0.1503      0.1503      0.3758
   3492.5000      2.1232      0.6289      2.1433      0.3711      0.4618      0.4582      2.1232      0.6440      2.6849    -23.8929    -95.0000      2.6849    -45.8929    -39.8215      0.0605      0.1512      0.1512      0.3780
   3493.0000      2.1031      0.6281      2.1403      0.3719      0.4621      0.4585      2.1031      0.6418      2.6458    -23.9772    -95.0000      2.6458    -45.9772    -39.9620      0.0601      0.1503      0.1503      0.3756
   3493.5000      2.0879      0.6274      2.1379      0.3726      0.4623      0.4587      2.0879      0.6400      2.6127    -24.1095    -95.0000      2.6127    -46.1095    -40.1825      0.0598      0.1495      0.1495      0.3738
   3494.0000      2.0751      0.6249      2.1284      0.3751      0.4630      0.4595      2.0751      0.6333      2.5876    -24.7628    -95.0000      2.5876    -46.7628    -41.2713      0.0586      0.1465      0.1465      0.3663
   3494.5000      2.0671      0.6285      2.1419      0.3715      0.4620      0.4583      2.0671      0.6428      2.5738    -23.9355    -95.0000      2.5738    -45.9355    -39.8925      0.0603      0.1507      0.1507      0.3768
   3495.0000      2.0668      0.6354      2.1679      0.3646      0.4600      0.4561      2.0668      0.6618      2.5653    -23.2216    -95.0000      2.5653    -45.2216    -38.7028      0.0635      0.1588      0.1588      0.3971
   3495.5000      2.0759      0.6387      2.1804      0.3613      0.4590      0.4551      2.0759      0.6712      2.5651    -22.8783    -95.0000      2.5651    -44.8783    -38.1304      0.0651      0.1627      0.1627      0.4069
   3496.0000      2.0916      0.6304      2.1493      0.3696      0.4614      0.4577      2.0916      0.6481      2.5865    -23.7343    -95.0000      2.5865    -45.7343    -39.5571      0.0612      0.1530      0.1530      0.3825
   3496.5000      2.1050      0.6263      2.1338      0.3737      0.4626      0.4590      2.1050      0.6369      2.6125    -24.4066    -95.0000      2.6125    -46.4066    -40.6776      0.0593      0.1482      0.1482      0.3704
   3497.0000      2.1167      0.6243      2.1263      0.3757      0.4632      0.4597      2.1167      0.6315      2.6421    -24.9281    -95.0000      2.6421    -46.9281    -41.5468      0.0583      0.1458      0.1458      0.3645
   3497.5000      2.1313      0.6258      2.1318      0.3742      0.4627      0.4592      2.1313      0.6354      2.6717    -24.5476    -95.0000      2.6717    -46.5476    -40.9127      0.0590      0.1475      0.1475      0.3688
   3498.0000      2.1479      0.6275      2.1386      0.3725      0.4622      0.4586      2.1479      0.6402      2.7120    -24.0885    -95.0000      2.7120    -46.0885    -40.1475      0.0598      0.1496      0.1496      0.3740
   3498.5000      2.1679      0.6321      2.1557      0.3679      0.4609      0.4572      2.1679      0.6525      2.7536    -23.5639    -95.0000      2.7536    -45.5639    -39.2732      0.0620      0.1550      0.1550      0.3874
   3499.0000      2.1839      0.6356      2.1691      0.3644      0.4599      0.4560      2.1839      0.6624      2.7800    -23.1966    -95.0000      2.7800    -45.1966    -38.6610      0.0637      0.1591      0.1591      0.3978
   3499.5000      2.1400      0.6379      2.1777      0.3621      0.4592      0.4553      2.1400      0.6688      2.8039    -22.9626    -95.0000      2.8039    -44.9626    -38.2710      0.0647      0.1618      0.1618      0.4045
   3500.0000      2.0950      0.6388      2.1813      0.3612      0.4589      0.4550      2.0950      0.6715      2.8165    -22.8651    -95.0000      2.8165    -44.8651    -38.1085      0.0652      0.1629      0.1629      0.4072
   3500.5000      2.0506      0.6393      2.1831      0.3607      0.4588      0.4549      2.0506      0.6728      2.6984    -22.8170    -95.0000      2.6984    -44.8170    -38.0284      0.0654      0.1634      0.1634      0.4086
   3501.0000      2.0072      0.6397      2.1846      0.3603      0.4587      0.4547      2.0072      0.6739      2.6384    -22.7757    -95.0000      2.6384    -44.7757    -37.9595      0.0656      0.1639      0.1639      0.4098
   3501.5000      1.9672      0.6397      2.1846      0.3603      0.4587      0.4547      1.9672      0.6739      2.5747    -22.7771    -95.0000      2.5747    -44.7771    -37.9618      0.0656      0.1639      0.1639      0.4097
   3502.0000      1.9203      0.6393      2.1834      0.3607      0.4588      0.4548      1.9203      0.6729      2.5257    -22.8122    -95.0000      2.5257    -44.8122    -38.0203      0.0654      0.1635      0.1635      0.4087
   3502.5000      1.8945      0.6385      2.1802      0.3615      0.4590      0.4551      1.8945      0.6704      2.5148    -22.9003    -95.0000      2.5148    -44.9003    -38.1671      0.0650      0.1625      0.1625      0.4062
   3503.0000      1.8820      0.6372      2.1753      0.3628      0.4594      0.4555      1.8820      0.6667      2.5219    -23.0371    -95.0000      2.5219    -45.0371    -38.3952      0.0644      0.1609      0.1609      0.4024
   3503.5000      1.8816      0.6353      2.1683      0.3647      0.4599      0.4561      1.8816      0.6614      2.5350    -23.2305    -95.0000      2.5350    -45.2306    -38.7176      0.0635      0.1587      0.1587      0.3969
   3504.0000      1.9188      0.6327      2.1582      0.3673      0.4607      0.4570      1.9188      0.6539      2.5596    -23.5077    -95.0000      2.5596    -45.5077    -39.1794      0.0622      0.1556      0.1556      0.3890
   3504.5000      1.9709      0.6285      2.1426      0.3715      0.4619      0.4583      1.9709      0.6426      2.5919    -23.9372    -95.0000      2.5919    -45.9372    -39.8953      0.0603      0.1507      0.1507      0.3768
   3505.0000      2.0325      0.6264      2.1346      0.3736      0.4625      0.4590      2.0325      0.6368      2.6439    -24.3965    -95.0000      2.6439    -46.3965    -40.6608      0.0593      0.1482      0.1482      0.3705
   3505.5000      2.1151      0.6250      2.1295      0.3750      0.4629      0.4594      2.1151      0.6331      2.7185    -24.7542    -95.0000      2.7185    -46.7542    -41.2570      0.0586      0.1466      0.1466      0.3664
   3506.0000      2.2062      0.6240      2.1255      0.3760      0.4632      0.4597      2.2062      0.6303      2.8125    -25.0301    -95.0000      2.8125    -47.0301    -41.7168      0.0581      0.1453      0.1453      0.3633
   3506.5000      2.3018      0.6237      2.1244      0.3763      0.4633      0.4598      2.3018      0.6295      2.9102    -25.1116    -95.0000      2.9102    -47.1116    -41.8527      0.0580      0.1449      0.1449      0.3624
   3507.0000      2.4036      0.6237      2.1244      0.3763      0.4633      0.4598      2.4036      0.6294      3.0137    -25.1125    -95.0000      3.0137    -47.1125    -41.8541      0.0580      0.1449      0.1449      0.3624
