~V
VERS. 2.00: Ver 2.00
WRAP.   NO:        
~W
 STRT.FT 1040:
 STOP.FT 4600:
 STEP.FT 0.5:
 NULL. -999.250000:
 COMP. Occidental Pet. Co.:Company
 WELL. KCL 18-34:Well
 FLD. :Field
 LOC. S34 T11N R22W:Location
 STAT. CA:State
 SRVC. :Service Company
 SON. :Service Order #
 DATE. :Log Date
 UWI. 3529800:Unique Well ID
~C
 DEPT.FT :
 ILD.OHMM :
 LTHE. :
 MM. :
 PHES. :
 PHTS. :
 PHZC. :
 RD.OHMM :
 ROS. :
 RS.OHMM :
 SBL.MV :
 SCLN. :
 SN.OHMM :
 SP.MV :
 SPN. :
 VCDS. :
 VCLY. :
 VCWS. :
 VSHS. :
~P
~A
# ...
   3367.5000      2.4557      0.6493      2.2132      0.3507      0.4565      0.4522      2.4557      0.7081      3.8479    -21.6962    -95.0000      3.8479    -43.6962    -36.1604      0.0705      0.1762      0.1762      0.4404
   3368.0000      2.2734      0.6381      2.1711      0.3619      0.4597      0.4558      2.2734      0.6749      3.6685    -22.8535    -95.0000      3.6685    -44.8535    -38.0891      0.0652      0.1630      0.1630      0.4076
   3368.5000      2.1319      0.6292      2.1374      0.3708      0.4623      0.4586      2.1319      0.6498      3.5176    -23.7813    -95.0000      3.5176    -45.7813    -39.6355      0.0610      0.1525      0.1525      0.3812
   3369.0000      2.0570      0.6263      2.1263      0.3737      0.4631      0.4596      2.0570      0.6417      3.3817    -24.2244    -95.0000      3.3817    -46.2244    -40.3740      0.0596      0.1490      0.1490      0.3725
   3369.5000      2.0622      0.6257      2.1244      0.3743      0.4633      0.4597      2.0622      0.6403      3.2404    -24.3558    -95.0000      3.2404    -46.3558    -40.5930      0.0594      0.1484      0.1484      0.3710
   3370.0000      2.0783      0.6262      2.1260      0.3738      0.4632      0.4596      2.0783      0.6414      3.1883    -24.2498    -95.0000      3.1883    -46.2498    -40.4163      0.0595      0.1489      0.1489      0.3722
   3370.5000      2.0995      0.6269      2.1286      0.3731      0.4630      0.4594      2.0995      0.6433      3.1961    -24.0685    -95.0000      3.1961    -46.0685    -40.1141      0.0599      0.1497      0.1497      0.3742
   3371.0000      2.1329      0.6293      2.1378      0.3707      0.4622      0.4586      2.1329      0.6498      3.2202    -23.7765    -95.0000      3.2202    -45.7765    -39.6274      0.0610      0.1525      0.1525      0.3814
   3371.5000      2.1954      0.6329      2.1516      0.3671      0.4612      0.4574      2.1954      0.6599      3.2845    -23.3986    -95.0000      3.2845    -45.3986    -38.9977      0.0627      0.1568      0.1568      0.3921
   3372.0000      2.3112      0.6363      2.1643      0.3637      0.4602      0.4564      2.3112      0.6694      3.3720    -23.0515    -95.0000      3.3720    -45.0515    -38.4191      0.0643      0.1608      0.1608      0.4019
   3372.5000      2.4446      0.6392      2.1755      0.3608      0.4594      0.4554      2.4446      0.6779      3.4822    -22.7433    -95.0000      3.4822    -44.7433    -37.9054      0.0657      0.1643      0.1643      0.4107
   3373.0000      2.5780      0.6430      2.1897      0.3570      0.4583      0.4542      2.5780      0.6889      3.5995    -22.3535    -95.0000      3.5995    -44.3535    -37.2558      0.0675      0.1687      0.1687      0.4218
   3373.5000      2.6962      0.6340      2.1560      0.3660      0.4609      0.4571      2.6962      0.6630      3.6944    -23.2826    -95.0000      3.6944    -45.2826    -38.8044      0.0633      0.1582      0.1582      0.3954
   3374.0000      2.7963      0.6269      2.1291      0.3731      0.4629      0.4593      2.7963      0.6433      3.7890    -24.0541    -95.0000      3.7890    -46.0541    -40.0902      0.0599      0.1498      0.1498      0.3744
   3374.5000      2.8874      0.6243      2.1193      0.3757      0.4637      0.4601      2.8874      0.6363      3.8756    -24.7299    -95.0000      3.8756    -46.7299    -41.2165      0.0587      0.1467      0.1467      0.3667
   3375.0000      2.9747      0.6224      2.1122      0.3776      0.4642      0.4608      2.9747      0.6312      3.9557    -25.2268    -95.0000      3.9557    -47.2268    -42.0446      0.0578      0.1444      0.1444      0.3611
   3375.5000      3.0588      0.6242      2.1187      0.3758      0.4637      0.4602      3.0588      0.6358      4.0292    -24.7774    -95.0000      4.0292    -46.7774    -41.2956      0.0586      0.1465      0.1465      0.3662
   3376.0000      3.1250      0.6261      2.1262      0.3739      0.4631      0.4596      3.1250      0.6411      4.0917    -24.2635    -95.0000      4.0917    -46.2635    -40.4392      0.0595      0.1488      0.1488      0.3720
   3376.5000      3.0629      0.6293      2.1381      0.3707      0.4622      0.4586      3.0629      0.6496      4.1377    -23.7809    -95.0000      4.1377    -45.7809    -39.6348      0.0610      0.1525      0.1525      0.3812
   3377.0000      2.9505      0.6377      2.1699      0.3623      0.4598      0.4559      2.9505      0.6732      4.1357    -22.9082    -95.0000      4.1357    -44.9082    -38.1803      0.0650      0.1624      0.1624      0.4060
   3377.5000      2.7724      0.6360      2.1638      0.3640      0.4603      0.4564      2.7724      0.6685      4.0970    -23.0774    -95.0000      4.0970    -45.0774    -38.4623      0.0642      0.1605      0.1605      0.4012
   3378.0000      2.5695      0.6333      2.1534      0.3667      0.4610      0.4573      2.5695      0.6608      3.9005    -23.3623    -95.0000      3.9005    -45.3623    -38.9371      0.0629      0.1572      0.1572      0.3931
   3378.5000      2.4054      0.6305      2.1429      0.3695      0.4619      0.4582      2.4054      0.6529      3.6229    -23.6533    -95.0000      3.6229    -45.6533    -39.4221      0.0616      0.1539      0.1539      0.3849
   3379.0000      2.2761      0.6276      2.1318      0.3724      0.4627      0.4591      2.2761      0.6448      3.3443    -23.9595    -95.0000      3.3443    -45.9595    -39.9325      0.0602      0.1505      0.1505      0.3762
   3379.5000      2.1642      0.6268      2.1290      0.3732      0.4629      0.4593      2.1642      0.6428      3.1316    -24.0902    -95.0000      3.1316    -46.0902    -40.1504      0.0598      0.1496      0.1496      0.3740
   3380.0000      2.0823      0.6382      2.1722      0.3618      0.4596      0.4557      2.0823      0.6747      2.9810    -22.8512    -95.0000      2.9810    -44.8512    -38.0854      0.0652      0.1631      0.1631      0.4076
   3380.5000      2.0491      0.6475      2.2073      0.3525      0.4569      0.4527      2.0491      0.7022      2.9612    -21.8864    -95.0000      2.9612    -43.8864    -36.4774      0.0696      0.1740      0.1740      0.4350
   3381.0000      2.0564      0.6554      2.2371      0.3446      0.4546      0.4502      2.0564      0.7267      2.9764    -21.0682    -95.0000      2.9764    -43.0682    -35.1136      0.0733      0.1833      0.1833      0.4583
   3381.5000      2.0729      0.6626      2.2644      0.3374      0.4525      0.4479      2.0729      0.7501      2.9975    -20.3181    -95.0000      2.9975    -42.3181    -33.8634      0.0767      0.1918      0.1918      0.4796
   3382.0000      2.0903      0.6688      2.2878      0.3312      0.4507      0.4459      2.0903      0.7709      3.0176    -19.6752    -95.0000      3.0176    -41.6752    -32.7920      0.0797      0.1991      0.1991      0.4979
   3382.5000      2.1149      0.6747      2.3103      0.3253      0.4490      0.4440      2.1149      0.7916      3.0376    -19.0586    -95.0000      3.0376    -41.0586    -31.7643      0.0825      0.2062      0.2062      0.5154
   3383.0000      2.1359      0.6666      2.2796      0.3334      0.4514      0.4466      2.1359      0.7634      3.0537    -19.9045    -95.0000      3.0537    -41.9045    -33.1742      0.0786      0.1965      0.1965      0.4913
   3383.5000      2.1666      0.6555      2.2377      0.3445      0.4546      0.4502      2.1666      0.7269      3.0449    -21.0575    -95.0000      3.0449    -43.0575    -35.0959      0.0734      0.1834      0.1834      0.4586
   3384.0000      2.1983      0.6432      2.1913      0.3568      0.4581      0.4541      2.1983      0.6892      3.0197    -22.3343    -95.0000      3.0197    -44.3343    -37.2239      0.0676      0.1689      0.1689      0.4223
   3384.5000      2.2635      0.6333      2.1540      0.3667      0.4610      0.4572      2.2635      0.6606      2.9826    -23.3610    -95.0000      2.9826    -45.3610    -38.9351      0.0629      0.1573      0.1573      0.3932
