~V
VERS. 2.00: Ver 2.00
WRAP.   NO:        
~W
 STRT.FT 1040:
 STOP.FT 4600:
 STEP.FT 0.5:
 NULL. -999.250000:
 COMP. Occidental Pet. Co.:Company
 WELL. KCL 18-34:Well
 FLD. :Field
 LOC. S34 T11N R22W:Location
 STAT. CA:State
 SRVC. :Service Company
 SON. :Service Order #
 DATE. :Log Date
 UWI. 3529800:Unique Well ID
~C
 DEPT.FT :
 ILD.OHMM :
 LTHE. :
 MM. :
 PHES. :
 PHTS. :
 PHZC. :
 RD.OHMM :
 ROS. :
 RS.OHMM :
 SBL.MV :
 SCLN. :
 SN.OHMM :
 SP.MV :
 SPN. :
 VCDS. :
 VCLY. :
 VCWS. :
 VSHS. :
~P
~A
# ...
   3840.0000      3.6300      0.6368      2.1930      0.3632      0.4581      0.4543      3.6300      0.6528      5.2952    -23.2910    -95.0000      5.2952    -45.2910    -38.8183      0.0632      0.1581      0.1581      0.3951
   3840.5000      3.5699      0.6408      2.2081      0.3592      0.4569      0.4530      3.5699      0.6640      5.2089    -22.8751    -95.0000      5.2089    -44.8751    -38.1251      0.0651      0.1628      0.1628      0.4070
   3841.0000      3.5198      0.6437      2.2192      0.3563      0.4561      0.4521      3.5198      0.6723      5.1339    -22.5727    -95.0000      5.1339    -44.5727    -37.6211      0.0665      0.1662      0.1662      0.4155
   3841.5000      3.4881      0.6413      2.2104      0.3587      0.4567      0.4528      3.4881      0.6656      5.1006    -22.8152    -95.0000      5.1006    -44.8152    -38.0253      0.0654      0.1635      0.1635      0.4087
   3842.0000      3.4878      0.6369      2.1938      0.3631      0.4580      0.4542      3.4878      0.6532      5.0938    -23.2730    -95.0000      5.0938    -45.2730    -38.7884      0.0633      0.1583      0.1583      0.3957
   3842.5000      3.5603      0.6318      2.1744      0.3682      0.4595      0.4559      3.5603      0.6391      5.1493    -23.8073    -95.0000      5.1493    -45.8073    -39.6787      0.0609      0.1522      0.1522      0.3805
   3843.0000      3.7090      0.6289      2.1633      0.3711      0.4604      0.4568      3.7090      0.6312      5.2380    -24.2828    -95.0000      5.2380    -46.2828    -40.4714      0.0595      0.1487      0.1487      0.3718
   3843.5000      3.9885      0.6271      2.1567      0.3729      0.4609      0.4574      3.9885      0.6265      5.4382    -24.7436    -95.0000      5.4382    -46.7436    -41.2393      0.0586      0.1466      0.1466      0.3666
   3844.0000      4.2569      0.6252      2.1496      0.3748      0.4614      0.4579      4.2569      0.6216      5.7354    -25.2310    -95.0000      5.7354    -47.2310    -42.0517      0.0578      0.1444      0.1444      0.3610
   3844.5000      4.5314      0.6236      2.1435      0.3764      0.4619      0.4585      4.5314      0.6174      5.9822    -25.6537    -95.0000      5.9822    -47.6537    -42.7562      0.0570      0.1425      0.1425      0.3562
   3845.0000      4.8877      0.6245      2.1469      0.3755      0.4616      0.4582      4.8877      0.6197      6.2521    -25.4248    -95.0000      6.2521    -47.4248    -42.3747      0.0574      0.1435      0.1435      0.3588
   3845.5000      5.3776      0.6264      2.1541      0.3736      0.4611      0.4576      5.3776      0.6246      6.5883    -24.9340    -95.0000      6.5883    -46.9340    -41.5567      0.0583      0.1458      0.1458      0.3644
   3846.0000      5.9348      0.6280      2.1600      0.3720      0.4606      0.4571      5.9348      0.6287      6.8928    -24.5252    -95.0000      6.8928    -46.5252    -40.8754      0.0590      0.1476      0.1476      0.3690
   3846.5000      6.4307      0.6284      2.1619      0.3716      0.4605      0.4569      6.4307      0.6300      7.2848    -24.4026    -95.0000      7.2848    -46.4026    -40.6710      0.0593      0.1482      0.1482      0.3704
   3847.0000      6.8612      0.6279      2.1600      0.3721      0.4606      0.4571      6.8612      0.6286      7.6819    -24.5326    -95.0000      7.6819    -46.5326    -40.8876      0.0590      0.1476      0.1476      0.3689
   3847.5000      7.3953      0.6271      2.1568      0.3729      0.4609      0.4573      7.3953      0.6263      8.1852    -24.7583    -95.0000      8.1852    -46.7583    -41.2638      0.0586      0.1466      0.1466      0.3664
   3848.0000      7.7675      0.6260      2.1528      0.3740      0.4612      0.4577      7.7675      0.6235      8.6041    -25.0354    -95.0000      8.6041    -47.0354    -41.7257      0.0581      0.1453      0.1453      0.3632
   3848.5000      7.9143      0.6254      2.1505      0.3746      0.4613      0.4579      7.9143      0.6219      8.9688    -25.1962    -95.0000      8.9688    -47.1962    -41.9936      0.0578      0.1446      0.1446      0.3614
   3849.0000      7.7992      0.6271      2.1572      0.3729      0.4608      0.4573      7.7992      0.6265      9.2669    -24.7397    -95.0000      9.2669    -46.7397    -41.2328      0.0587      0.1466      0.1466      0.3666
   3849.5000      7.6130      0.6296      2.1665      0.3704      0.4601      0.4565      7.6130      0.6330      9.4759    -24.0994    -95.0000      9.4759    -46.0994    -40.1656      0.0598      0.1495      0.1495      0.3739
   3850.0000      7.3878      0.6354      2.1886      0.3646      0.4584      0.4547      7.3878      0.6488      9.6143    -23.4333    -95.0000      9.6143    -45.4333    -39.0554      0.0626      0.1564      0.1564      0.3911
   3850.5000      7.1404      0.6388      2.2015      0.3612      0.4574      0.4536      7.1404      0.6583      9.4127    -23.0801    -95.0000      9.4127    -45.0801    -38.4668      0.0642      0.1605      0.1605      0.4011
   3851.0000      6.9087      0.6384      2.2000      0.3616      0.4575      0.4537      6.9087      0.6571      9.1093    -23.1229    -95.0000      9.1093    -45.1229    -38.5382      0.0640      0.1600      0.1600      0.3999
   3851.5000      6.6761      0.6375      2.1966      0.3625      0.4578      0.4540      6.6761      0.6546      8.8476    -23.2157    -95.0000      8.8476    -45.2157    -38.6928      0.0636      0.1589      0.1589      0.3973
   3852.0000      6.4420      0.6363      2.1921      0.3637      0.4581      0.4544      6.4420      0.6512      8.5396    -23.3424    -95.0000      8.5396    -45.3424    -38.9040      0.0630      0.1575      0.1575      0.3937
   3852.5000      6.2128      0.6350      2.1870      0.3650      0.4585      0.4548      6.2128      0.6474      8.2211    -23.4834    -95.0000      8.2211    -45.4834    -39.1390      0.0623      0.1559      0.1559      0.3897
   3853.0000      5.9870      0.6338      2.1825      0.3662      0.4589      0.4552      5.9870      0.6442      7.9321    -23.6074    -95.0000      7.9321    -45.6074    -39.3456      0.0618      0.1545      0.1545      0.3862
   3853.5000      5.7726      0.6334      2.1810      0.3666      0.4590      0.4553      5.7726      0.6430      7.5788    -23.6510    -95.0000      7.5788    -45.6510    -39.4184      0.0616      0.1540      0.1540      0.3849
   3854.0000      5.5539      0.6331      2.1799      0.3669      0.4591      0.4554      5.5539      0.6422      7.1618    -23.6819    -95.0000      7.1618    -45.6819    -39.4699      0.0614      0.1536      0.1536      0.3840
   3854.5000      5.3012      0.6419      2.2133      0.3581      0.4565      0.4526      5.3012      0.6668      6.7924    -22.7646    -95.0000      6.7924    -44.7646    -37.9410      0.0656      0.1640      0.1640      0.4101
   3855.0000      5.0525      0.6570      2.2703      0.3430      0.4521      0.4478      5.0525      0.7117      6.4528    -21.1972    -95.0000      6.4528    -43.1972    -35.3287      0.0727      0.1818      0.1818      0.4546
   3855.5000      4.7697      0.6693      2.3169      0.3307      0.4486      0.4438      4.7697      0.7513      6.1591    -19.9185    -95.0000      6.1591    -41.9185    -33.1976      0.0786      0.1964      0.1964      0.4910
   3856.0000      4.5020      0.6797      2.3562      0.3203      0.4455      0.4405      4.5020      0.7870      5.8486    -18.8373    -95.0000      5.8486    -40.8373    -31.3956      0.0835      0.2087      0.2087      0.5217
   3856.5000      4.2364      0.6847      2.3753      0.3153      0.4441      0.4389      4.2364      0.8051      5.5714    -18.3130    -95.0000      5.5714    -40.3130    -30.5217      0.0858      0.2146      0.2146      0.5366
   3857.0000      3.9422      0.6868      2.3834      0.3132      0.4434      0.4382      3.9422      0.8129      5.3176    -18.0923    -95.0000      5.3176    -40.0923    -30.1538      0.0869      0.2171      0.2171      0.5428
