~V
VERS. 2.00: Ver 2.00
WRAP.   NO:        
~W
 STRT.FT 20:
 STOP.FT 3550:
 STEP.FT 0.5:
 NULL. -999.250000:
 COMP. Western Gulf (Chevron):Company
 WELL. KCL SAN EMIGDIO #1:Well
 FLD. Los Lobos:Field
 LOC. S34 T11N R22W:Location
 STAT. CA:State
 SRVC. :Service Company
 SON. :Service Order #
 DATE. :Log Date
 UWI. 2124700:Unique Well ID
~C
 DEPT.FT :
 LAT.OHMM :
 LTHE. :
 MM. :
 NOR.OHMM :
 PHES. :
 PHMX. :
 PHTS. :
 PHZC. :
 RD.OHMM :
 ROS. :
 RS.OHMM :
 SBL.MV :
 SCLN. :
 SP.MV :
 SPN. :
 VCDS. :
 VCLY. :
 VCWS. :
 VSHS. :
~P
~A
# ...
   2791.0000      1.5850      2.2734      2.8688      1.5310      0.0000   -999.2500      0.2733      0.2439      1.5850   -999.2500      1.5310     -1.0635    -69.0288    -25.1900     -1.7725      0.3274      0.6820      0.6007      2.2734
   2791.5000      1.5900      2.2587      2.8667      1.5270      0.0000   -999.2500      0.2736      0.2443      1.5900   -999.2500      1.5270     -1.3250    -69.0291    -25.4540     -2.2084      0.3253      0.6776      0.5988      2.2587
   2792.0000      1.5950      2.2421      2.8645      1.5240      0.0000   -999.2500      0.2739      0.2448      1.5950   -999.2500      1.5240     -1.6196    -69.0294    -25.7510     -2.6994      0.3229      0.6726      0.5967      2.2421
   2792.5000      1.5850      2.2376      2.8639      1.5200      0.0000   -999.2500      0.2739      0.2449      1.5850   -999.2500      1.5200     -1.7002    -69.0297    -25.8340     -2.8336      0.3222      0.6713      0.5961      2.2376
   2793.0000      1.5750      2.2330      2.8633      1.5160      0.0000   -999.2500      0.2740      0.2451      1.5750   -999.2500      1.5160     -1.7807    -69.0300    -25.9170     -2.9679      0.3216      0.6699      0.5956      2.2330
   2793.5000      1.5660      2.2285      2.8627      1.5160      0.0000   -999.2500      0.2741      0.2452      1.5660   -999.2500      1.5160     -1.8603    -69.0303    -25.9990     -3.1005      0.3209      0.6686      0.5950      2.2285
   2794.0000      1.5560      2.2240      2.8621      1.5160      0.0000   -999.2500      0.2742      0.2453      1.5560   -999.2500      1.5160     -1.9409    -69.0307    -26.0820     -3.2348      0.3203      0.6672      0.5944      2.2240
   2794.5000      1.5530      2.2223      2.8619      1.5160      0.0000   -999.2500      0.2742      0.2454      1.5530   -999.2500      1.5160     -1.9714    -69.0310    -26.1150     -3.2857      0.3200      0.6667      0.5942      2.2223
   2795.0000      1.5490      2.2252      2.8623      1.5170      0.0000   -999.2500      0.2741      0.2453      1.5490   -999.2500      1.5170     -1.9190    -69.0313    -26.0650     -3.1984      0.3204      0.6676      0.5946      2.2252
   2795.5000      1.5460      2.2282      2.8627      1.5170      0.0000   -999.2500      0.2741      0.2452      1.5460   -999.2500      1.5170     -1.8666    -69.0316    -26.0150     -3.1110      0.3209      0.6685      0.5949      2.2282
   2796.0000      1.5470      2.2349      2.8637      1.5230      0.0000   -999.2500      0.2739      0.2450      1.5470   -999.2500      1.5230     -1.7481    -69.0319    -25.8990     -2.9136      0.3218      0.6705      0.5958      2.2349
   2796.5000      1.5470      2.2415      2.8646      1.5300      0.0000   -999.2500      0.2738      0.2448      1.5470   -999.2500      1.5300     -1.6297    -69.0322    -25.7830     -2.7162      0.3228      0.6725      0.5966      2.2415
   2797.0000      1.5500      2.2566      2.8668      1.5370      0.0000   -999.2500      0.2736      0.2443      1.5500   -999.2500      1.5370     -1.3623    -69.0325    -25.5180     -2.2705      0.3249      0.6770      0.5985      2.2566
   2797.5000      1.5540      2.2558      2.8667      1.5370      0.0000   -999.2500      0.2736      0.2444      1.5540   -999.2500      1.5370     -1.3768    -69.0329    -25.5350     -2.2947      0.3248      0.6767      0.5984      2.2558
   2798.0000      1.5570      2.2550      2.8666      1.5370      0.0000   -999.2500      0.2736      0.2444      1.5570   -999.2500      1.5370     -1.3904    -69.0332    -25.5510     -2.3174      0.3247      0.6765      0.5983      2.2550
   2798.5000      1.5670      2.2477      2.8656      1.5370      0.0000   -999.2500      0.2737      0.2446      1.5670   -999.2500      1.5370     -1.5200    -69.0335    -25.6830     -2.5333      0.3237      0.6743      0.5974      2.2477
   2799.0000      1.5770      2.2441      2.8651      1.5420      0.0000   -999.2500      0.2738      0.2447      1.5770   -999.2500      1.5420     -1.5836    -69.0338    -25.7490     -2.6393      0.3232      0.6732      0.5969      2.2441
   2799.5000      1.5870      2.2405      2.8647      1.5480      0.0000   -999.2500      0.2738      0.2448      1.5870   -999.2500      1.5480     -1.6471    -69.0341    -25.8150     -2.7452      0.3226      0.6722      0.5965      2.2405
   2800.0000      1.5950      2.2388      2.8645      1.5440      0.0000   -999.2500      0.2738      0.2448      1.5950   -999.2500      1.5440     -1.6777    -69.0344    -25.8480     -2.7961      0.3224      0.6716      0.5962      2.2388
   2800.5000      1.6020      2.2418      2.8649      1.5410      0.0000   -999.2500      0.2738      0.2447      1.6020   -999.2500      1.5410     -1.6253    -69.0347    -25.7980     -2.7088      0.3228      0.6725      0.5966      2.2418
   2801.0000      1.6100      2.2447      2.8653      1.5380      0.0000   -999.2500      0.2737      0.2446      1.6100   -999.2500      1.5380     -1.5738    -69.0350    -25.7490     -2.6230      0.3232      0.6734      0.5970      2.2447
   2801.5000      1.6180      2.2478      2.8658      1.5390      0.0000   -999.2500      0.2737      0.2446      1.6180   -999.2500      1.5390     -1.5184    -69.0354    -25.6960     -2.5306      0.3237      0.6743      0.5974      2.2478
   2802.0000      1.6230      2.2509      2.8662      1.5390      0.0000   -999.2500      0.2736      0.2445      1.6230   -999.2500      1.5390     -1.4630    -69.0357    -25.6430     -2.4383      0.3241      0.6753      0.5977      2.2509
   2802.5000      1.6290      2.2597      2.8675      1.5400      0.0000   -999.2500      0.2735      0.2442      1.6290   -999.2500      1.5400     -1.3075    -69.0360    -25.4900     -2.1792      0.3254      0.6779      0.5989      2.2597
   2803.0000      1.6200      2.2684      2.8687      1.5460      0.0000   -999.2500      0.2733      0.2439      1.6200   -999.2500      1.5460     -1.1531    -69.0363    -25.3380     -1.9218      0.3266      0.6805      0.6000      2.2684
   2803.5000      1.6100      2.2808      2.8705      1.5510      0.0000   -999.2500      0.2731      0.2435      1.6100   -999.2500      1.5510     -0.9327    -69.0366    -25.1200     -1.5544      0.3284      0.6842      0.6015      2.2808
   2804.0000      1.6060      2.2933      2.8722      1.5420      0.0000   -999.2500      0.2729      0.2432      1.6060   -999.2500      1.5420     -0.7112    -69.0369    -24.9010     -1.1854      0.3302      0.6880      0.6031      2.2933
   2804.5000      1.6020      2.2964      2.8727      1.5330      0.0000   -999.2500      0.2728      0.2431      1.6020   -999.2500      1.5330     -0.6558    -69.0372    -24.8480     -1.0930      0.3307      0.6889      0.6035      2.2964
   2805.0000      1.5790      2.2995      2.8731      1.5240      0.0000   -999.2500      0.2728      0.2430      1.5790   -999.2500      1.5240     -0.6004    -69.0375    -24.7950     -1.0006      0.3311      0.6899      0.6039      2.2995
   2805.5000      1.5570      2.2980      2.8729      1.5140      0.0000   -999.2500      0.2728      0.2430      1.5570   -999.2500      1.5140     -0.6269    -69.0379    -24.8240     -1.0449      0.3309      0.6894      0.6037      2.2980
   2806.0000      1.5350      2.2955      2.8726      1.4980      0.0000   -999.2500      0.2728      0.2431      1.5350   -999.2500      1.4980     -0.6715    -69.0382    -24.8710     -1.1191      0.3306      0.6887      0.6034      2.2955
   2806.5000      1.4960      2.2931      2.8723      1.4830      0.0000   -999.2500      0.2729      0.2431      1.4960   -999.2500      1.4830     -0.7151    -69.0385    -24.9170     -1.1918      0.3302      0.6879      0.6031      2.2931
   2807.0000      1.4720      2.2896      2.8719      1.4670      0.0000   -999.2500      0.2729      0.2432      1.4720   -999.2500      1.4670     -0.7756    -69.0388    -24.9800     -1.2927      0.3297      0.6869      0.6026      2.2896
   2807.5000      1.4480      2.2863      2.8714      1.4530      0.0000   -999.2500      0.2730      0.2433      1.4480   -999.2500      1.4530     -0.8352    -69.0391    -25.0420     -1.3920      0.3292      0.6859      0.6022      2.2863
