~V
VERS. 2.00: Ver 2.00
WRAP.   NO:        
~W
 STRT.FT 1040:
 STOP.FT 4600:
 STEP.FT 0.5:
 NULL. -999.250000:
 COMP. Occidental Pet. Co.:Company
 WELL. KCL 18-34:Well
 FLD. :Field
 LOC. S34 T11N R22W:Location
 STAT. CA:State
 SRVC. :Service Company
 SON. :Service Order #
 DATE. :Log Date
 UWI. 3529800:Unique Well ID
~C
 DEPT.FT :
 ILD.OHMM :
 LTHE. :
 MM. :
 PHES. :
 PHTS. :
 PHZC. :
 RD.OHMM :
 ROS. :
 RS.OHMM :
 SBL.MV :
 SCLN. :
 SN.OHMM :
 SP.MV :
 SPN. :
 VCDS. :
 VCLY. :
 VCWS. :
 VSHS. :
~P
~A
# ...
   3612.5000      2.3313      0.6546      2.2476      0.3454      0.4538      0.4495      2.3313      0.7142      3.0826    -21.2884    -95.0000      3.0826    -43.2884    -35.4807      0.0723      0.1808      0.1808      0.4520
   3613.0000      2.3475      0.6648      2.2862      0.3352      0.4509      0.4462      2.3475      0.7470      3.1068    -20.2271    -95.0000      3.1068    -42.2271    -33.7118      0.0771      0.1929      0.1929      0.4822
   3613.5000      2.3641      0.6712      2.3102      0.3288      0.4490      0.4442      2.3641      0.7682      3.1319    -19.5697    -95.0000      3.1319    -41.5697    -32.6161      0.0801      0.2003      0.2003      0.5009
   3614.0000      2.3743      0.6750      2.3246      0.3250      0.4479      0.4430      2.3743      0.7814      3.1583    -19.1741    -95.0000      3.1583    -41.1741    -31.9568      0.0819      0.2048      0.2048      0.5121
   3614.5000      2.3837      0.6612      2.2723      0.3388      0.4519      0.4474      2.3837      0.7348      3.1988    -20.6128    -95.0000      3.1988    -42.6128    -34.3547      0.0754      0.1885      0.1885      0.4712
   3615.0000      2.3941      0.6530      2.2415      0.3470      0.4543      0.4500      2.3941      0.7090      3.2501    -21.4623    -95.0000      3.2501    -43.4623    -35.7706      0.0715      0.1788      0.1788      0.4471
   3615.5000      2.4000      0.6451      2.2118      0.3549      0.4566      0.4525      2.4000      0.6852      3.3097    -22.2792    -95.0000      3.3097    -44.2792    -37.1321      0.0678      0.1696      0.1696      0.4239
   3616.0000      2.4040      0.6424      2.2014      0.3576      0.4574      0.4534      2.4040      0.6772      3.3384    -22.5654    -95.0000      3.3384    -44.5654    -37.6089      0.0665      0.1663      0.1663      0.4158
   3616.5000      2.4149      0.6451      2.2116      0.3549      0.4566      0.4525      2.4149      0.6850      3.2666    -22.2884    -95.0000      3.2666    -44.2884    -37.1474      0.0678      0.1694      0.1694      0.4236
   3617.0000      2.4273      0.6475      2.2208      0.3525      0.4559      0.4518      2.4273      0.6921      3.2172    -22.0365    -95.0000      3.2172    -44.0365    -36.7276      0.0689      0.1723      0.1723      0.4308
   3617.5000      2.4411      0.6501      2.2308      0.3499      0.4551      0.4509      2.4411      0.7001      3.1872    -21.7615    -95.0000      3.1872    -43.7615    -36.2691      0.0702      0.1754      0.1754      0.4386
   3618.0000      2.4578      0.6529      2.2413      0.3471      0.4543      0.4500      2.4578      0.7085      3.2046    -21.4752    -95.0000      3.2046    -43.4752    -35.7920      0.0715      0.1787      0.1787      0.4467
   3618.5000      2.4826      0.6557      2.2520      0.3443      0.4535      0.4491      2.4826      0.7173      3.2288    -21.1810    -95.0000      3.2288    -43.1810    -35.3016      0.0728      0.1820      0.1820      0.4551
   3619.0000      2.5121      0.6585      2.2625      0.3415      0.4527      0.4483      2.5121      0.7261      3.2593    -20.8923    -95.0000      3.2593    -42.8923    -34.8205      0.0741      0.1853      0.1853      0.4633
   3619.5000      2.5439      0.6666      2.2934      0.3334      0.4503      0.4456      2.5439      0.7526      3.2960    -20.0450    -95.0000      3.2960    -42.0450    -33.4084      0.0780      0.1949      0.1949      0.4874
   3620.0000      2.5860      0.6867      2.3693      0.3133      0.4445      0.4392      2.5860      0.8236      3.3356    -17.9587    -95.0000      3.3356    -39.9587    -29.9312      0.0875      0.2187      0.2187      0.5466
   3620.5000      2.6274      0.7010      2.4233      0.2990      0.4403      0.4347      2.6274      0.8793      3.3557    -16.4749    -95.0000      3.3557    -38.4749    -27.4581      0.0942      0.2355      0.2355      0.5888
   3621.0000      2.6607      0.7045      2.4367      0.2955      0.4393      0.4336      2.6607      0.8938      3.3618    -16.1076    -95.0000      3.3618    -38.1076    -26.8459      0.0959      0.2397      0.2397      0.5992
   3621.5000      2.6866      0.7078      2.4491      0.2922      0.4384      0.4325      2.6866      0.9076      3.3671    -15.7657    -95.0000      3.3671    -37.7657    -26.2762      0.0974      0.2436      0.2436      0.6089
   3622.0000      2.6809      0.7113      2.4625      0.2887      0.4373      0.4314      2.6809      0.9228      3.3668    -15.3985    -95.0000      3.3668    -37.3985    -25.6642      0.0991      0.2477      0.2477      0.6194
   3622.5000      2.6547      0.7151      2.4770      0.2849      0.4362      0.4302      2.6547      0.9395      3.3727    -15.0019    -95.0000      3.3727    -37.0019    -25.0031      0.1009      0.2523      0.2523      0.6306
   3623.0000      2.6175      0.7192      2.4922      0.2808      0.4350      0.4289      2.6175      0.9575      3.3821    -14.5846    -95.0000      3.3821    -36.5846    -24.3077      0.1028      0.2570      0.2570      0.6425
   3623.5000      2.5737      0.7249      2.5141      0.2751      0.4334      0.4270      2.5737      0.9841      3.3781    -13.9850    -95.0000      3.3781    -35.9850    -23.3084      0.1055      0.2638      0.2638      0.6595
   3624.0000      2.5283      0.7238      2.5100      0.2762      0.4337      0.4274      2.5283      0.9790      3.3700    -14.0975    -95.0000      3.3700    -36.0975    -23.4958      0.1050      0.2625      0.2625      0.6563
   3624.5000      2.4847      0.7080      2.4500      0.2920      0.4383      0.4324      2.4847      0.9083      3.2703    -15.7482    -95.0000      3.2703    -37.7482    -26.2470      0.0975      0.2438      0.2438      0.6094
   3625.0000      2.4422      0.6829      2.3550      0.3171      0.4456      0.4405      2.4422      0.8091      3.1982    -18.3615    -95.0000      3.1982    -40.3615    -30.6025      0.0856      0.2141      0.2141      0.5352
   3625.5000      2.3995      0.6675      2.2971      0.3325      0.4500      0.4453      2.3995      0.7554      3.1468    -19.9549    -95.0000      3.1468    -41.9549    -33.2581      0.0784      0.1960      0.1960      0.4899
   3626.0000      2.3567      0.6601      2.2692      0.3399      0.4522      0.4477      2.3567      0.7311      3.0954    -20.7242    -95.0000      3.0954    -42.7242    -34.5403      0.0749      0.1872      0.1872      0.4681
   3626.5000      2.3139      0.6585      2.2632      0.3415      0.4526      0.4482      2.3139      0.7259      3.0706    -20.8908    -95.0000      3.0706    -42.8908    -34.8180      0.0741      0.1853      0.1853      0.4633
   3627.0000      2.2721      0.6578      2.2603      0.3422      0.4529      0.4484      2.2721      0.7235      3.0411    -20.9719    -95.0000      3.0411    -42.9719    -34.9531      0.0738      0.1844      0.1844      0.4610
   3627.5000      2.2317      0.6553      2.2510      0.3447      0.4536      0.4492      2.2317      0.7157      2.9913    -21.2275    -95.0000      2.9913    -43.2275    -35.3792      0.0726      0.1815      0.1815      0.4538
   3628.0000      2.2016      0.6498      2.2303      0.3502      0.4552      0.4510      2.2016      0.6988      2.9481    -21.7987    -95.0000      2.9481    -43.7987    -36.3311      0.0700      0.1750      0.1750      0.4375
   3628.5000      2.1609      0.6416      2.1992      0.3584      0.4576      0.4536      2.1609      0.6744      2.9101    -22.6553    -95.0000      2.9101    -44.6553    -37.7588      0.0661      0.1653      0.1653      0.4132
   3629.0000      2.1651      0.6333      2.1677      0.3667      0.4600      0.4563      2.1651      0.6508      2.8713    -23.5216    -95.0000      2.8713    -45.5216    -39.2027      0.0622      0.1554      0.1554      0.3886
   3629.5000      2.1742      0.6290      2.1517      0.3710      0.4612      0.4576      2.1742      0.6392      2.8567    -23.9624    -95.0000      2.8567    -45.9624    -39.9373      0.0602      0.1504      0.1504      0.3761
