~V
VERS. 2.00: Ver 2.00
WRAP.   NO:        
~W
 STRT.FT 20:
 STOP.FT 3550:
 STEP.FT 0.5:
 NULL. -999.250000:
 COMP. Western Gulf (Chevron):Company
 WELL. KCL SAN EMIGDIO #1:Well
 FLD. Los Lobos:Field
 LOC. S34 T11N R22W:Location
 STAT. CA:State
 SRVC. :Service Company
 SON. :Service Order #
 DATE. :Log Date
 UWI. 2124700:Unique Well ID
~C
 DEPT.FT :
 LAT.OHMM :
 LTHE. :
 MM. :
 NOR.OHMM :
 PHES. :
 PHMX. :
 PHTS. :
 PHZC. :
 RD.OHMM :
 ROS. :
 RS.OHMM :
 SBL.MV :
 SCLN. :
 SP.MV :
 SPN. :
 VCDS. :
 VCLY. :
 VCWS. :
 VSHS. :
~P
~A
# ...
   3539.0000      2.6690      0.6846      2.1678      2.5960      0.3154      0.1708      0.3943      0.4796      2.6690      0.6581      2.5960    -20.4200    -69.4967    -61.4200    -34.0333      0.0789      0.1577      0.1577      0.5257
   3539.5000      2.6940      0.6848      2.1687      2.5660      0.3152      0.1708      0.3942      0.4795      2.6940      0.6588      2.5660    -20.4050    -69.4971    -61.4050    -34.0083      0.0790      0.1580      0.1580      0.5266
   3540.0000      2.7040      0.6849      2.1696      2.5360      0.3151      0.1708      0.3942      0.4794      2.7040      0.6594      2.5360    -20.3900    -69.4974    -61.3900    -33.9833      0.0791      0.1583      0.1583      0.5275
   3540.5000      2.6250      0.6857      2.1734      2.4770      0.3143      0.1707      0.3940      0.4791      2.6250      0.6622      2.4770    -20.3250    -69.4977    -61.3250    -33.8750      0.0797      0.1594      0.1594      0.5314
   3541.0000      2.5750      0.6772      2.1317      2.4570      0.3228      0.1714      0.3960      0.4826      2.5750      0.6319      2.4570    -21.3520    -69.4980    -62.3520    -35.5867      0.0732      0.1464      0.1464      0.4879
   3541.5000      2.5260      0.6736      2.1142      2.4370      0.3264      0.1716      0.3968      0.4840      2.5260      0.6198      2.4370    -22.1140    -69.4983    -63.1140    -36.8567      0.0705      0.1409      0.1409      0.4697
   3542.0000      2.4930      0.6732      2.1119      2.4170      0.3268      0.1717      0.3969      0.4842      2.4930      0.6182      2.4170    -22.2150    -69.4986    -63.2150    -37.0250      0.0701      0.1402      0.1402      0.4673
   3542.5000      2.4600      0.6727      2.1096      2.4170      0.3273      0.1717      0.3970      0.4844      2.4600      0.6166      2.4170    -22.3160    -69.4989    -63.3160    -37.1933      0.0697      0.1395      0.1395      0.4648
   3543.0000      2.4270      0.6732      2.1119      2.4170      0.3268      0.1717      0.3969      0.4842      2.4270      0.6181      2.4170    -22.2180    -69.4992    -63.2180    -37.0300      0.0701      0.1402      0.1402      0.4672
   3543.5000      2.4170      0.6838      2.1637      2.4170      0.3162      0.1709      0.3944      0.4798      2.4170      0.6547      2.4170    -20.4990    -69.4996    -61.4990    -34.1650      0.0782      0.1563      0.1563      0.5210
   3544.0000      2.4270      0.6886      2.1874      2.4170      0.3114      0.1705      0.3932      0.4778      2.4270      0.6724      2.4170    -20.0880    -69.4999    -61.0880    -33.4800      0.0819      0.1637      0.1637      0.5457
   3544.5000      2.4370      0.6935      2.2111      2.4170      0.3065      0.1701      0.3921      0.4758      2.4370      0.6908      2.4170    -19.6760    -69.5002    -60.6760    -32.7933      0.0856      0.1711      0.1711      0.5704
   3545.0000      2.4370      0.6929      2.2082      2.4270      0.3071      0.1702      0.3922      0.4761      2.4370      0.6885      2.4270    -19.7270    -69.5005    -60.7270    -32.8783      0.0851      0.1702      0.1702      0.5673
   3545.5000      2.4360      0.6923      2.2054      2.4360      0.3077      0.1702      0.3923      0.4763      2.4360      0.6862      2.4360    -19.7780    -69.5008    -60.7780    -32.9633      0.0846      0.1693      0.1693      0.5643
   3546.0000      2.4360      0.6908      2.1977      2.4460      0.3092      0.1704      0.3927      0.4769      2.4360      0.6802      2.4460    -19.9110    -69.5011    -60.9110    -33.1850      0.0834      0.1669      0.1669      0.5563
   3546.5000      2.4360      0.6915      2.2015      2.4460      0.3085      0.1703      0.3925      0.4766      2.4360      0.6830      2.4460    -19.8470    -69.5014    -60.8470    -33.0783      0.0840      0.1680      0.1680      0.5602
   3547.0000      2.4300      0.6923      2.2053      2.4460      0.3077      0.1702      0.3923      0.4763      2.4300      0.6860      2.4460    -19.7820    -69.5017    -60.7820    -32.9700      0.0846      0.1692      0.1692      0.5641
   3547.5000      2.4230      0.6921      2.2043      2.4460      0.3079      0.1702      0.3923      0.4764      2.4230      0.6851      2.4460    -19.8000    -69.5021    -60.8000    -33.0000      0.0844      0.1689      0.1689      0.5630
   3548.0000      2.4160      0.6919      2.2033      2.4520      0.3081      0.1703      0.3924      0.4764      2.4160      0.6843      2.4520    -19.8180    -69.5024    -60.8180    -33.0300      0.0843      0.1686      0.1686      0.5619
   3548.5000      2.4160      0.6902      2.1950      2.4590      0.3098      0.1704      0.3928      0.4771      2.4160      0.6779      2.4590    -19.9630    -69.5027    -60.9630    -33.2717      0.0830      0.1660      0.1660      0.5532
   3549.0000      2.4160      0.6885      2.1867      2.4650      0.3115      0.1705      0.3932      0.4778      2.4160      0.6715      2.4650    -20.1080    -69.5030    -61.1080    -33.5133      0.0817      0.1634      0.1634      0.5445
   3549.5000      2.4160      0.6868      2.1784      2.4700      0.3132      0.1706      0.3936      0.4785      2.4160      0.6651      2.4700    -20.2530    -69.5033    -61.2530    -33.7550      0.0804      0.1608      0.1608      0.5358
   3550.0000      2.4160      0.6856      2.1726      2.4750      0.3144      0.1707      0.3938      0.4790      2.4160      0.6608      2.4750    -20.3530    -69.5000    -61.3530    -33.9217      0.0795      0.1589      0.1589      0.5298
