~V
VERS. 2.00: Ver 2.00
WRAP.   NO:        
~W
 STRT.FT 200:
 STOP.FT 3880:
 STEP.FT 0.5:
 NULL. -999.250000:
 COMP. Standard (Chevron):Company
 WELL. KCL 24-37:Well
 FLD. :Field
 LOC. S19 T11N R22W:Location
 STAT. CA:State
 SRVC. :Service Company
 SON. :Service Order #
 DATE. :Log Date
 UWI. 0370300:Unique Well ID
~C
 DEPT.FT :
 LAT.OHMM :
 LTHE. :
 MM. :
 PHES. :
 PHMX. :
 PHTS. :
 PHZC. :
 RD.OHMM :
 ROS. :
 RS.OHMM :
 SBL.MV :
 SCLN. :
 SN.OHMM :
 SP.MV :
 SPN. :
 VCDS. :
 VCLY. :
 VCWS. :
 VCY. :
 VSHS. :
~P
~A
# ...
   2712.0000      3.2740      1.7581      2.7932      0.0000   -999.2500      0.2743      0.2601      3.2740   -999.2500      3.2740     -8.3725    -32.3459      3.2740    -11.5270     -7.9738      0.2532      0.5274      0.5274      0.5274      1.7581
   2712.5000      3.2790      1.7647      2.7941      0.0000   -999.2500      0.2753      0.2599      3.2790   -999.2500      3.3460     -8.2835    -32.3716      3.3460    -11.4350     -7.8890      0.2541      0.5294      0.5294      0.5294      1.7647
   2713.0000      3.2830      1.7656      2.7943      0.0000   -999.2500      0.2754      0.2599      3.2830   -999.2500      3.3828     -8.2765    -32.3972      3.3828    -11.4250     -7.8824      0.2542      0.5297      0.5297      0.5297      1.7656
   2713.5000      3.3200      1.7665      2.7944      0.0000   -999.2500      0.2756      0.2599      3.3200   -999.2500      3.4196     -8.2705    -32.4228      3.4196    -11.4160     -7.8767      0.2544      0.5299      0.5299      0.5299      1.7665
   2714.0000      3.3570      1.7673      2.7946      0.0000   -999.2500      0.2757      0.2598      3.3570   -999.2500      3.4556     -8.2646    -32.4485      3.4556    -11.4070     -7.8710      0.2545      0.5302      0.5302      0.5302      1.7673
   2714.5000      3.3610      1.7682      2.7947      0.0000   -999.2500      0.2758      0.2598      3.3610   -999.2500      3.4912     -8.2586    -32.4741      3.4912    -11.3980     -7.8653      0.2546      0.5305      0.5305      0.5305      1.7682
   2715.0000      3.3640      1.7691      2.7949      0.0000   -999.2500      0.2760      0.2598      3.3640   -999.2500      3.5624     -8.2516    -32.4998      3.5624    -11.3880     -7.8587      0.2548      0.5307      0.5307      0.5307      1.7691
   2715.5000      3.4000      1.7755      2.7958      0.0000   -999.2500      0.2770      0.2596      3.4000   -999.2500      3.6332     -8.1647    -32.5254      3.6332    -11.2980     -7.7759      0.2557      0.5327      0.5327      0.5327      1.7755
   2716.0000      3.4360      1.7819      2.7967      0.0000   -999.2500      0.2780      0.2594      3.4360   -999.2500      3.6360     -8.0777    -32.5510      3.6360    -11.2080     -7.6930      0.2566      0.5346      0.5346      0.5346      1.7819
   2716.5000      3.4400      1.8399      2.8048      0.0000   -999.2500      0.2815      0.2576      3.4400   -999.2500      3.6388     -7.2337    -32.5767      3.6388    -10.3610     -6.8893      0.2649      0.5520      0.5464      0.5520      1.8399
   2717.0000      3.4430      1.8520      2.8065      0.0000   -999.2500      0.2813      0.2573      3.4430   -999.2500      3.6424     -7.0618    -32.6023      3.6424    -10.1860     -6.7255      0.2667      0.5556      0.5479      0.5556      1.8520
   2717.5000      3.4490      1.8526      2.8066      0.0000   -999.2500      0.2812      0.2572      3.4490   -999.2500      3.6460     -7.0578    -32.6280      3.6460    -10.1790     -6.7217      0.2668      0.5558      0.5480      0.5558      1.8526
   2718.0000      3.4520      1.8533      2.8067      0.0000   -999.2500      0.2812      0.2572      3.4520   -999.2500      3.6164     -7.0538    -32.6536      3.6164    -10.1720     -6.7179      0.2669      0.5560      0.5481      0.5560      1.8533
   2718.5000      3.4540      1.8541      2.8068      0.0000   -999.2500      0.2812      0.2572      3.4540   -999.2500      3.5872     -7.0478    -32.6793      3.5872    -10.1630     -6.7122      0.2670      0.5562      0.5482      0.5562      1.8541
   2719.0000      3.3940      1.8549      2.8070      0.0000   -999.2500      0.2812      0.2572      3.3940   -999.2500      3.5264     -7.0409    -32.7049      3.5264    -10.1530     -6.7056      0.2671      0.5565      0.5483      0.5565      1.8549
   2719.5000      3.3970      1.8673      2.8087      0.0000   -999.2500      0.2810      0.2568      3.3970   -999.2500      3.5300     -6.8639    -32.7305      3.5300     -9.9730     -6.5371      0.2689      0.5602      0.5499      0.5602      1.8673
   2720.0000      3.3350      1.8567      2.8073      0.0000   -999.2500      0.2812      0.2571      3.3350   -999.2500      3.5336     -7.0259    -32.7562      3.5336    -10.1320     -6.6914      0.2674      0.5570      0.5485      0.5570      1.8567
   2720.5000      3.3380      1.8460      2.8058      0.0000   -999.2500      0.2813      0.2574      3.3380   -999.2500      3.4708     -7.1890    -32.7818      3.4708    -10.2920     -6.8466      0.2658      0.5538      0.5472      0.5538      1.8460
   2721.0000      3.3420      1.8358      2.8044      0.0000   -999.2500      0.2815      0.2577      3.3420   -999.2500      3.4748     -7.3450    -32.8075      3.4748    -10.4450     -6.9952      0.2644      0.5507      0.5459      0.5507      1.8358
   2721.5000      3.3110      1.8141      2.8015      0.0000   -999.2500      0.2819      0.2584      3.3110   -999.2500      3.4784     -7.6710    -32.8331      3.4784    -10.7680     -7.3057      0.2612      0.5442      0.5431      0.5442      1.8141
   2722.0000      3.2790      1.8149      2.8016      0.0000   -999.2500      0.2818      0.2583      3.2790   -999.2500      3.4820     -7.6651    -32.8588      3.4820    -10.7590     -7.3001      0.2614      0.5445      0.5432      0.5445      1.8149
   2722.5000      3.2850      1.8156      2.8017      0.0000   -999.2500      0.2818      0.2583      3.2850   -999.2500      3.5180     -7.6611    -32.8844      3.5180    -10.7520     -7.2963      0.2614      0.5447      0.5433      0.5447      1.8156
   2723.0000      3.2870      1.8163      2.8018      0.0000   -999.2500      0.2818      0.2583      3.2870   -999.2500      3.5536     -7.6571    -32.9100      3.5536    -10.7450     -7.2925      0.2615      0.5449      0.5434      0.5449      1.8163
   2723.5000      3.2900      1.8286      2.8036      0.0000   -999.2500      0.2816      0.2579      3.2900   -999.2500      3.5592     -7.4802    -32.9357      3.5592    -10.5650     -7.1240      0.2633      0.5486      0.5449      0.5486      1.8286
   2724.0000      3.2960      1.8294      2.8037      0.0000   -999.2500      0.2816      0.2579      3.2960   -999.2500      3.6292     -7.4742    -32.9613      3.6292    -10.5560     -7.1183      0.2634      0.5488      0.5450      0.5488      1.8294
   2724.5000      3.2980      1.8190      2.8023      0.0000   -999.2500      0.2817      0.2582      3.2980   -999.2500      3.6652     -7.6342    -32.9870      3.6652    -10.7130     -7.2707      0.2619      0.5457      0.5437      0.5457      1.8190
   2725.0000      3.3010      1.8311      2.8040      0.0000   -999.2500      0.2815      0.2578      3.3010   -999.2500      3.7012     -7.4612    -33.0126      3.7012    -10.5370     -7.1059      0.2637      0.5493      0.5452      0.5493      1.8311
   2725.5000      3.3070      1.8431      2.8057      0.0000   -999.2500      0.2813      0.2575      3.3070   -999.2500      3.7068     -7.2883    -33.0383      3.7068    -10.3610     -6.9412      0.2654      0.5529      0.5467      0.5529      1.8431
   2726.0000      3.3430      1.8383      2.8051      0.0000   -999.2500      0.2814      0.2576      3.3430   -999.2500      3.6760     -7.3653    -33.0639      3.6760    -10.4350     -7.0146      0.2647      0.5515      0.5461      0.5515      1.8383
   2726.5000      3.3780      1.8335      2.8044      0.0000   -999.2500      0.2815      0.2577      3.3780   -999.2500      3.6456     -7.4423    -33.0895      3.6456    -10.5090     -7.0879      0.2640      0.5501      0.5455      0.5501      1.8335
   2727.0000      3.3840      1.8228      2.8030      0.0000   -999.2500      0.2817      0.2580      3.3840   -999.2500      3.6492     -7.6074    -33.1152      3.6492    -10.6710     -7.2451      0.2625      0.5469      0.5441      0.5469      1.8228
   2727.5000      3.3880      1.7955      2.7992      0.0000   -999.2500      0.2801      0.2589      3.3880   -999.2500      3.6532     -8.0204    -33.1408      3.6532    -11.0810     -7.6385      0.2586      0.5387      0.5387      0.5387      1.7955
