~V
VERS. 2.00: Ver 2.00
WRAP.   NO:        
~W
 STRT.FT 200:
 STOP.FT 3880:
 STEP.FT 0.5:
 NULL. -999.250000:
 COMP. Standard (Chevron):Company
 WELL. KCL 24-37:Well
 FLD. :Field
 LOC. S19 T11N R22W:Location
 STAT. CA:State
 SRVC. :Service Company
 SON. :Service Order #
 DATE. :Log Date
 UWI. 0370300:Unique Well ID
~C
 DEPT.FT :
 LAT.OHMM :
 LTHE. :
 MM. :
 PHES. :
 PHMX. :
 PHTS. :
 PHZC. :
 RD.OHMM :
 ROS. :
 RS.OHMM :
 SBL.MV :
 SCLN. :
 SN.OHMM :
 SP.MV :
 SPN. :
 VCDS. :
 VCLY. :
 VCWS. :
 VCY. :
 VSHS. :
~P
~A
# ...
   3576.0000      3.5120      1.8268      2.8488      0.0000   -999.2500      0.2731      0.2494      3.5120   -999.2500      3.7116     -8.6132    -37.7900      3.7116    -12.1820     -8.2030      0.2631      0.5481      0.5362      0.5481      1.8268
   3576.5000      3.5150      1.8272      2.8489      0.0000   -999.2500      0.2731      0.2494      3.5150   -999.2500      3.7820     -8.5970    -37.7485      3.7820    -12.1710     -8.1876      0.2631      0.5482      0.5362      0.5482      1.8272
   3577.0000      3.5210      1.8080      2.8462      0.0000   -999.2500      0.2734      0.2500      3.5210   -999.2500      3.7852     -8.9148    -37.7071      3.7852    -12.4940     -8.4903      0.2603      0.5424      0.5338      0.5424      1.8080
   3577.5000      3.5250      1.7985      2.8450      0.0000   -999.2500      0.2736      0.2503      3.5250   -999.2500      3.7888     -9.0646    -37.6657      3.7888    -12.6490     -8.6329      0.2590      0.5396      0.5326      0.5396      1.7985
   3578.0000      3.5290      1.8087      2.8464      0.0000   -999.2500      0.2734      0.2500      3.5290   -999.2500      3.8272     -8.8824    -37.6243      3.8272    -12.4720     -8.4594      0.2605      0.5426      0.5338      0.5426      1.8087
   3578.5000      3.5340      1.8288      2.8492      0.0000   -999.2500      0.2730      0.2494      3.5340   -999.2500      3.8656     -8.5332    -37.5829      3.8656    -12.1280     -8.1269      0.2633      0.5486      0.5364      0.5486      1.8288
   3579.0000      3.5380      1.8489      2.8520      0.0000   -999.2500      0.2727      0.2487      3.5380   -999.2500      3.8696     -8.1840    -37.5414      3.8696    -11.7840     -7.7943      0.2662      0.5547      0.5389      0.5547      1.8489
   3579.5000      3.5420      1.8690      2.8548      0.0000   -999.2500      0.2723      0.2481      3.5420   -999.2500      3.8740     -7.8358    -37.5000      3.8740    -11.4410     -7.4627      0.2691      0.5607      0.5415      0.5607      1.8690
   3580.0000      3.5460      1.8892      2.8576      0.0000   -999.2500      0.2720      0.2475      3.5460   -999.2500      3.9112     -7.4866    -37.4586      3.9112    -11.0970     -7.1301      0.2720      0.5668      0.5440      0.5668      1.8892
   3580.5000      3.5510      1.9094      2.8605      0.0000   -999.2500      0.2716      0.2469      3.5510   -999.2500      3.9488     -7.1374    -37.4172      3.9488    -10.7530     -6.7975      0.2750      0.5728      0.5466      0.5728      1.9094
   3581.0000      3.5550      1.9297      2.8633      0.0000   -999.2500      0.2713      0.2463      3.5550   -999.2500      3.9532     -6.7882    -37.3758      3.9532    -10.4090     -6.4650      0.2779      0.5789      0.5492      0.5789      1.9297
   3581.5000      3.5590      1.9501      2.8662      0.0000   -999.2500      0.2709      0.2457      3.5590   -999.2500      3.9572     -6.4390    -37.3343      3.9572    -10.0650     -6.1324      0.2808      0.5850      0.5518      0.5850      1.9501
   3582.0000      3.5620      1.9554      2.8669      0.0000   -999.2500      0.2709      0.2455      3.5620   -999.2500      3.9948     -6.3428    -37.2929      3.9948     -9.9740     -6.0408      0.2816      0.5866      0.5524      0.5866      1.9554
   3582.5000      3.5660      1.9608      2.8677      0.0000   -999.2500      0.2708      0.2454      3.5660   -999.2500      4.0320     -6.2456    -37.2515      4.0320     -9.8820     -5.9482      0.2823      0.5882      0.5531      0.5882      1.9608
   3583.0000      3.5710      1.9715      2.8692      0.0000   -999.2500      0.2706      0.2450      3.5710   -999.2500      4.0356     -6.0584    -37.2101      4.0356     -9.7000     -5.7699      0.2839      0.5915      0.5545      0.5915      1.9715
   3583.5000      3.5760      1.9721      2.8693      0.0000   -999.2500      0.2706      0.2450      3.5760   -999.2500      4.0388     -6.0422    -37.1687      4.0388     -9.6890     -5.7545      0.2840      0.5916      0.5545      0.5916      1.9721
   3584.0000      3.6140      1.9726      2.8694      0.0000   -999.2500      0.2705      0.2450      3.6140   -999.2500      4.0760     -6.0271    -37.1272      4.0760     -9.6790     -5.7401      0.2841      0.5918      0.5546      0.5918      1.9726
   3584.5000      3.6510      1.9732      2.8695      0.0000   -999.2500      0.2705      0.2450      3.6510   -999.2500      4.1136     -6.0109    -37.0858      4.1136     -9.6680     -5.7246      0.2841      0.5919      0.5547      0.5919      1.9732
   3585.0000      3.6550      1.9686      2.8689      0.0000   -999.2500      0.2706      0.2451      3.6550   -999.2500      4.0532     -6.0807    -37.0444      4.0532     -9.7430     -5.7911      0.2835      0.5906      0.5541      0.5906      1.9686
   3585.5000      3.6600      1.9640      2.8683      0.0000   -999.2500      0.2707      0.2452      3.6600   -999.2500      4.0576     -6.1505    -37.0030      4.0576     -9.8180     -5.8576      0.2828      0.5892      0.5535      0.5892      1.9640
   3586.0000      3.6640      1.9645      2.8684      0.0000   -999.2500      0.2707      0.2452      3.6640   -999.2500      4.0620     -6.1343    -36.9616      4.0620     -9.8070     -5.8422      0.2829      0.5894      0.5535      0.5894      1.9645
   3586.5000      3.6680      1.9651      2.8685      0.0000   -999.2500      0.2706      0.2452      3.6680   -999.2500      4.0660     -6.1181    -36.9201      4.0660     -9.7960     -5.8267      0.2830      0.5895      0.5536      0.5895      1.9651
   3587.0000      3.6720      1.9559      2.8672      0.0000   -999.2500      0.2708      0.2455      3.6720   -999.2500      4.0724     -6.2639    -36.8787      4.0724     -9.9470     -5.9656      0.2816      0.5868      0.5524      0.5868      1.9559
   3587.5000      3.6770      1.9464      2.8660      0.0000   -999.2500      0.2709      0.2457      3.6770   -999.2500      4.0760     -6.4147    -36.8373      4.0760    -10.1030     -6.1092      0.2803      0.5839      0.5512      0.5839      1.9464
   3588.0000      3.6810      1.9368      2.8647      0.0000   -999.2500      0.2711      0.2460      3.6810   -999.2500      4.0796     -6.5655    -36.7959      4.0796    -10.2590     -6.2529      0.2789      0.5810      0.5500      0.5810      1.9368
   3588.5000      3.6850      1.9372      2.8647      0.0000   -999.2500      0.2711      0.2460      3.6850   -999.2500      4.0832     -6.5513    -36.7545      4.0832    -10.2500     -6.2393      0.2790      0.5812      0.5501      0.5812      1.9372
   3589.0000      3.6890      1.9376      2.8648      0.0000   -999.2500      0.2711      0.2460      3.6890   -999.2500      4.0884     -6.5381    -36.7130      4.0884    -10.2420     -6.2268      0.2790      0.5813      0.5501      0.5813      1.9376
   3589.5000      3.6940      1.9384      2.8650      0.0000   -999.2500      0.2711      0.2460      3.6940   -999.2500      4.0936     -6.5169    -36.6716      4.0936    -10.2260     -6.2066      0.2791      0.5815      0.5502      0.5815      1.9384
   3590.0000      3.6980      1.9388      2.8650      0.0000   -999.2500      0.2711      0.2459      3.6980   -999.2500      4.0972     -6.5037    -36.6302      4.0972    -10.2180     -6.1940      0.2792      0.5816      0.5502      0.5816      1.9388
   3590.5000      3.7020      1.9391      2.8651      0.0000   -999.2500      0.2710      0.2459      3.7020   -999.2500      4.1008     -6.4905    -36.5888      4.1008    -10.2100     -6.1814      0.2792      0.5817      0.5503      0.5817      1.9391
   3591.0000      3.7070      1.9447      2.8659      0.0000   -999.2500      0.2709      0.2457      3.7070   -999.2500      4.1044     -6.3913    -36.5474      4.1044    -10.1160     -6.0870      0.2800      0.5834      0.5510      0.5834      1.9447
   3591.5000      3.7130      1.9503      2.8667      0.0000   -999.2500      0.2708      0.2456      3.7130   -999.2500      4.1088     -6.2921    -36.5059      4.1088    -10.0220     -5.9925      0.2808      0.5851      0.5517      0.5851      1.9503
