~V
VERS. 2.00: Ver 2.00
WRAP.   NO:        
~W
 STRT.FT 200:
 STOP.FT 1850:
 STEP.FT 0.5:
 NULL. -999.250000:
 COMP. Standard (Texaco):Company
 WELL. KCL 24-32:Well
 FLD. :Field
 LOC. S30 T11N R22W:Location
 STAT. CA:State
 SRVC. :Service Company
 SON. :Service Order #
 DATE. :Log Date
 UWI. 0369000:Unique Well ID
~C
 DEPT.FT :
 AM.OHMM :
 LTHE. :
 MM. :
 OA.OHMM :
 PHES. :
 PHMX. :
 PHTS. :
 PHZC. :
 RD.OHMM :
 ROS. :
 RS.OHMM :
 SBL.MV :
 SCLN. :
 SP.MV :
 SPN. :
 VCDS. :
 VCLY. :
 VCWS. :
 VSHS. :
~P
~A
# ...
    417.0000     24.1810      0.5192      1.8207      9.4690      0.4808      0.1900      0.4911      0.5852      9.4690   -999.2500     24.1810    -18.4740   -999.2500    -18.4740    -26.3914      0.0103      0.0207      0.0207      0.0689
    417.5000     23.8430      0.5182      1.8192      8.9650      0.4818      0.1901      0.4913      0.5856      8.9650   -999.2500     23.8430    -18.9130   -999.2500    -18.9130    -27.0186      0.0096      0.0192      0.0192      0.0639
    418.0000     23.5050      0.5195      1.8211      8.4600      0.4805      0.1900      0.4910      0.5851      8.4600   -999.2500     23.5050    -18.3520   -999.2500    -18.3520    -26.2171      0.0105      0.0211      0.0211      0.0703
    418.5000     22.9330      0.5224      1.8255      8.0720      0.4776      0.1898      0.4904      0.5839      8.0720   -999.2500     22.9330    -17.0580   -999.2500    -17.0580    -24.3686      0.0128      0.0255      0.0255      0.0851
    419.0000     22.3620      0.5253      1.8300      7.7910      0.4747      0.1896      0.4897      0.5827      7.7910   -999.2500     22.3620    -15.7640   -999.2500    -15.7640    -22.5200      0.0150      0.0300      0.0300      0.0998
    419.5000     20.4550      0.5287      1.8352      7.4440      0.4713      0.1893      0.4889      0.5813      7.4440   -999.2500     20.4550    -14.2360   -999.2500    -14.2360    -20.3371      0.0176      0.0352      0.0352      0.1173
    420.0000     19.9500      0.5313      1.8392      7.0960      0.4687      0.1891      0.4883      0.5802      7.0960   -999.2500     19.9500    -13.0750   -999.2500    -13.0750    -18.6786      0.0196      0.0392      0.0392      0.1306
    420.5000     20.0950      0.5360      1.8463      6.3620      0.4640      0.1888      0.4872      0.5782      6.3620   -999.2500     20.0950    -10.9820   -999.2500    -10.9820    -15.6886      0.0232      0.0463      0.0463      0.1545
    421.0000     20.2410      0.5375      1.8486      5.9470      0.4625      0.1887      0.4868      0.5776      5.9470   -999.2500     20.2410    -10.3220   -999.2500    -10.3220    -14.7457      0.0243      0.0486      0.0486      0.1620
    421.5000     20.9660      0.5359      1.8462      5.7770      0.4641      0.1888      0.4872      0.5783      5.7770   -999.2500     20.9660    -11.0270   -999.2500    -11.0270    -15.7529      0.0231      0.0462      0.0462      0.1540
    422.0000     21.3280      0.5339      1.8431      5.6060      0.4661      0.1889      0.4876      0.5791      5.6060   -999.2500     21.3280    -11.9320   -999.2500    -11.9320    -17.0457      0.0215      0.0431      0.0431      0.1436
    422.5000     22.3890      0.5316      1.8395      5.5710      0.4684      0.1891      0.4882      0.5800      5.5710   -999.2500     22.3890    -12.9700   -999.2500    -12.9700    -18.5286      0.0198      0.0395      0.0395      0.1318
    423.0000     23.5170      0.5300      1.8370      5.7630      0.4700      0.1892      0.4885      0.5807      5.7630   -999.2500     23.5170    -13.7090   -999.2500    -13.7090    -19.5843      0.0185      0.0370      0.0370      0.1233
    423.5000     24.4440      0.5308      1.8382      5.9560      0.4692      0.1892      0.4883      0.5804      5.9560   -999.2500     24.4440    -13.3470   -999.2500    -13.3470    -19.0671      0.0191      0.0382      0.0382      0.1275
    424.0000     24.9390      0.5346      1.8440      6.1610      0.4654      0.1889      0.4875      0.5788      6.1610   -999.2500     24.9390    -11.6530   -999.2500    -11.6530    -16.6471      0.0220      0.0440      0.0440      0.1468
    424.5000     24.8670      0.5388      1.8505      6.3000      0.4612      0.1885      0.4865      0.5770      6.3000   -999.2500     24.8670     -9.7600   -999.2500     -9.7600    -13.9429      0.0253      0.0505      0.0505      0.1685
    425.0000     23.8960      0.5424      1.8561      6.4320      0.4576      0.1883      0.4856      0.5755      6.4320   -999.2500     23.8960     -8.1330   -999.2500     -8.1330    -11.6186      0.0281      0.0561      0.0561      0.1871
    425.5000     22.7570      0.5447      1.8595      6.4980      0.4553      0.1881      0.4851      0.5746      6.4980   -999.2500     22.7570     -7.1380   -999.2500     -7.1380    -10.1971      0.0298      0.0595      0.0595      0.1984
    426.0000     23.0180      0.5542      1.8741      6.4300      0.4458      0.1874      0.4829      0.5706      6.4300   -999.2500     23.0180     -6.2110   -999.2500     -6.2110     -8.8729      0.0370      0.0741      0.0741      0.2470
    426.5000     24.4460      0.5560      1.8770      6.2560      0.4440      0.1872      0.4824      0.5698      6.2560   -999.2500     24.4460     -6.0500   -999.2500     -6.0500     -8.6429      0.0385      0.0770      0.0770      0.2565
    427.0000     27.7740      0.5554      1.8760      6.0810      0.4446      0.1873      0.4826      0.5701      6.0810   -999.2500     27.7740     -6.1040   -999.2500     -6.1040     -8.7200      0.0380      0.0760      0.0760      0.2533
    427.5000     30.5680      0.5548      1.8750      5.9740      0.4452      0.1873      0.4827      0.5703      5.9740   -999.2500     30.5680     -6.1590   -999.2500     -6.1590     -8.7986      0.0375      0.0750      0.0750      0.2501
    428.0000     33.9620      0.5524      1.8713      5.8660      0.4476      0.1875      0.4833      0.5713      5.8660   -999.2500     33.9620     -6.3670   -999.2500     -6.3670     -9.0957      0.0357      0.0713      0.0713      0.2377
    428.5000     36.3570      0.5512      1.8694      6.5780      0.4488      0.1876      0.4835      0.5718      6.5780   -999.2500     36.3570     -6.4720   -999.2500     -6.4720     -9.2457      0.0347      0.0694      0.0694      0.2314
    429.0000     38.3170      0.5502      1.8679      7.0500      0.4498      0.1877      0.4838      0.5722      7.0500   -999.2500     38.3170     -6.5600   -999.2500     -6.5600     -9.3714      0.0339      0.0679      0.0679      0.2262
    429.5000     40.3780      0.5492      1.8663      7.2760      0.4508      0.1878      0.4840      0.5726      7.2760   -999.2500     40.3780     -6.6470   -999.2500     -6.6470     -9.4957      0.0332      0.0663      0.0663      0.2210
    430.0000     40.9390      0.5444      1.8589      7.5020      0.4556      0.1881      0.4851      0.5746      7.5020   -999.2500     40.9390     -7.3220   -999.2500     -7.3220    -10.4600      0.0294      0.0589      0.0589      0.1963
    430.5000     41.2340      0.5431      1.8569      7.9170      0.4569      0.1882      0.4854      0.5752      7.9170   -999.2500     41.2340     -7.8940   -999.2500     -7.8940    -11.2771      0.0285      0.0569      0.0569      0.1898
    431.0000     41.5290      0.5421      1.8553      8.3330      0.4579      0.1883      0.4856      0.5756      8.3330   -999.2500     41.5290     -8.3660   -999.2500     -8.3660    -11.9514      0.0277      0.0553      0.0553      0.1844
    431.5000     42.7220      0.5407      1.8531      8.6480      0.4593      0.1884      0.4859      0.5762      8.6480   -999.2500     42.7220     -9.0040   -999.2500     -9.0040    -12.8629      0.0266      0.0531      0.0531      0.1771
    432.0000     43.5510      0.5392      1.8509      8.9640      0.4608      0.1885      0.4862      0.5767      8.9640   -999.2500     43.5510     -9.6430   -999.2500     -9.6430    -13.7757      0.0255      0.0509      0.0509      0.1698
    432.5000     44.6780      0.5384      1.8495      9.2760      0.4616      0.1886      0.4864      0.5771      9.2760   -999.2500     44.6780    -10.0480   -999.2500    -10.0480    -14.3543      0.0248      0.0495      0.0495      0.1652
    433.0000     45.1070      0.5377      1.8485      9.5880      0.4623      0.1886      0.4866      0.5774      9.5880   -999.2500     45.1070    -10.3530   -999.2500    -10.3530    -14.7900      0.0243      0.0485      0.0485      0.1617
    433.5000     45.2020      0.5372      1.8478      9.9070      0.4628      0.1886      0.4867      0.5776      9.9070   -999.2500     45.2020    -10.5590   -999.2500    -10.5590    -15.0843      0.0239      0.0478      0.0478      0.1593
