~V
VERS. 2.00: Ver 2.00
WRAP.   NO:        
~W
 STRT.FT 200:
 STOP.FT 1850:
 STEP.FT 0.5:
 NULL. -999.250000:
 COMP. Standard (Texaco):Company
 WELL. KCL 24-32:Well
 FLD. :Field
 LOC. S30 T11N R22W:Location
 STAT. CA:State
 SRVC. :Service Company
 SON. :Service Order #
 DATE. :Log Date
 UWI. 0369000:Unique Well ID
~C
 DEPT.FT :
 AM.OHMM :
 LTHE. :
 MM. :
 OA.OHMM :
 PHES. :
 PHMX. :
 PHTS. :
 PHZC. :
 RD.OHMM :
 ROS. :
 RS.OHMM :
 SBL.MV :
 SCLN. :
 SP.MV :
 SPN. :
 VCDS. :
 VCLY. :
 VCWS. :
 VSHS. :
~P
~A
# ...
   1386.0000      2.4500      0.5579      1.8436      1.8020      0.4421      0.1850      0.4639      0.5577      1.8020      1.2036      2.4500    -23.2600    -95.0000    -23.2600    -33.2286      0.0218      0.0436      0.0436      0.1453
   1386.5000      2.5120      0.5578      1.8435      1.9720      0.4422      0.1850      0.4639      0.5578      1.9720      1.1953      2.5120    -23.4050    -95.0000    -23.4050    -33.4357      0.0217      0.0435      0.0435      0.1449
   1387.0000      2.5880      0.5585      1.8444      2.0420      0.4415      0.1850      0.4637      0.5575      2.0420      1.2523      2.5880    -22.4250    -95.0000    -22.4250    -32.0357      0.0222      0.0444      0.0444      0.1482
   1387.5000      2.6140      0.5591      1.8453      2.0930      0.4409      0.1850      0.4636      0.5572      2.0930      1.3053      2.6140    -21.5620    -95.0000    -21.5620    -30.8029      0.0227      0.0453      0.0453      0.1511
   1388.0000      2.6200      0.5593      1.8456      2.1450      0.4407      0.1849      0.4635      0.5572      2.1450      1.3210      2.6200    -21.3140    -95.0000    -21.3140    -30.4486      0.0228      0.0456      0.0456      0.1519
   1388.5000      2.5620      0.5591      1.8453      2.1330      0.4409      0.1849      0.4635      0.5572      2.1330      1.3068      2.5620    -21.5350    -95.0000    -21.5350    -30.7643      0.0227      0.0453      0.0453      0.1511
   1389.0000      2.4540      0.5587      1.8447      1.9420      0.4413      0.1850      0.4636      0.5574      1.9420      1.2662      2.4540    -22.1880    -95.0000    -22.1880    -31.6971      0.0223      0.0447      0.0447      0.1489
   1389.5000      2.2730      0.5583      1.8440      1.8540      0.4417      0.1850      0.4637      0.5575      1.8540      1.2272      2.2730    -22.8410    -95.0000    -22.8410    -32.6300      0.0220      0.0440      0.0440      0.1468
   1390.0000      2.2890      0.5582      1.8439      1.8380      0.4418      0.1850      0.4637      0.5576      1.8380      1.2211      2.2890    -22.9440    -95.0000    -22.9440    -32.7771      0.0220      0.0439      0.0439      0.1464
   1390.5000      2.3050      0.5582      1.8438      1.8230      0.4418      0.1850      0.4637      0.5576      1.8230      1.2149      2.3050    -23.0480    -95.0000    -23.0480    -32.9257      0.0219      0.0438      0.0438      0.1461
   1391.0000      2.7060      0.5578      1.8433      1.8420      0.4422      0.1850      0.4638      0.5577      1.8420      1.1851      2.7060    -23.5710    -95.0000    -23.5710    -33.6729      0.0216      0.0433      0.0433      0.1443
   1391.5000      2.9900      0.5578      1.8432      1.8610      0.4422      0.1850      0.4638      0.5577      1.8610      1.1816      2.9900    -23.6320    -95.0000    -23.6320    -33.7600      0.0216      0.0432      0.0432      0.1441
   1392.0000      3.4650      0.5578      1.8432      1.9140      0.4422      0.1850      0.4638      0.5577      1.9140      1.1781      3.4650    -23.6930    -95.0000    -23.6930    -33.8471      0.0216      0.0432      0.0432      0.1439
   1392.5000      3.8190      0.5578      1.8432      2.0000      0.4422      0.1850      0.4638      0.5577      2.0000      1.1811      3.8190    -23.6380    -95.0000    -23.6380    -33.7686      0.0216      0.0432      0.0432      0.1441
   1393.0000      4.0900      0.5579      1.8433      2.1600      0.4421      0.1850      0.4637      0.5577      2.1600      1.1841      4.0900    -23.5820    -95.0000    -23.5820    -33.6886      0.0216      0.0433      0.0433      0.1443
   1393.5000      4.3700      0.5586      1.8444      2.4010      0.4414      0.1850      0.4636      0.5574      2.4010      1.2473      4.3700    -22.4870    -95.0000    -22.4870    -32.1243      0.0222      0.0444      0.0444      0.1479
   1394.0000      4.6310      0.5591      1.8452      2.5710      0.4409      0.1849      0.4634      0.5571      2.5710      1.2939      4.6310    -21.7220    -95.0000    -21.7220    -31.0314      0.0226      0.0452      0.0452      0.1505
   1394.5000      4.7840      0.5600      1.8465      2.7440      0.4400      0.1849      0.4632      0.5568      2.7440      1.3815      4.7840    -20.3750    -95.0000    -20.3750    -29.1071      0.0233      0.0465      0.0465      0.1550
   1395.0000      4.8140      0.5606      1.8474      2.9380      0.4394      0.1848      0.4631      0.5565      2.9380      1.4416      4.8140    -19.5110    -95.0000    -19.5110    -27.8729      0.0237      0.0474      0.0474      0.1579
   1395.5000      4.8430      0.5609      1.8478      3.1150      0.4391      0.1848      0.4630      0.5564      3.1150      1.4702      4.8430    -19.1150    -95.0000    -19.1150    -27.3071      0.0239      0.0478      0.0478      0.1593
   1396.0000      4.8190      0.5611      1.8480      3.2450      0.4389      0.1848      0.4630      0.5563      3.2450      1.4878      4.8190    -18.8750    -95.0000    -18.8750    -26.9643      0.0240      0.0480      0.0480      0.1601
   1396.5000      4.7110      0.5612      1.8483      3.3110      0.4388      0.1848      0.4629      0.5562      3.3110      1.5057      4.7110    -18.6350    -95.0000    -18.6350    -26.6214      0.0241      0.0483      0.0483      0.1609
   1397.0000      4.2880      0.5621      1.8496      3.3220      0.4379      0.1847      0.4627      0.5559      3.3220      1.6089      4.2880    -17.3230    -95.0000    -17.3230    -24.7471      0.0248      0.0496      0.0496      0.1653
   1397.5000      3.4000      0.5624      1.8500      3.3330      0.4376      0.1847      0.4626      0.5558      3.3330      1.6419      3.4000    -16.9250    -95.0000    -16.9250    -24.1786      0.0250      0.0500      0.0500      0.1666
   1398.0000      2.8830      0.5626      1.8504      3.2220      0.4374      0.1847      0.4626      0.5556      3.2220      1.6756      2.8830    -16.5280    -95.0000    -16.5280    -23.6114      0.0252      0.0504      0.0504      0.1680
   1398.5000      2.4540      0.5621      1.8496      2.5240      0.4379      0.1847      0.4627      0.5559      2.5240      1.6063      2.4540    -17.3500    -95.0000    -17.3500    -24.7857      0.0248      0.0496      0.0496      0.1652
   1399.0000      2.2490      0.5617      1.8489      2.2860      0.4383      0.1847      0.4628      0.5560      2.2860      1.5550      2.2490    -17.9880    -95.0000    -17.9880    -25.6971      0.0245      0.0489      0.0489      0.1631
   1399.5000      2.1710      0.5617      1.8490      1.9700      0.4383      0.1847      0.4627      0.5560      1.9700      1.5585      2.1710    -17.9410    -95.0000    -17.9410    -25.6300      0.0245      0.0490      0.0490      0.1632
   1400.0000      1.9430      0.5618      1.8490      1.9760      0.4382      0.1847      0.4627      0.5560      1.9760      1.5635      1.9430    -17.8770    -95.0000    -17.8770    -25.5386      0.0245      0.0490      0.0490      0.1634
   1400.5000      1.8420      0.5619      1.8491      2.0020      0.4381      0.1847      0.4627      0.5559      2.0020      1.5684      1.8420    -17.8130    -95.0000    -17.8130    -25.4471      0.0245      0.0491      0.0491      0.1637
   1401.0000      1.7410      0.5607      1.8473      2.0290      0.4393      0.1848      0.4629      0.5564      2.0290      1.4339      1.7410    -19.6000    -95.0000    -19.6000    -28.0000      0.0236      0.0473      0.0473      0.1576
   1401.5000      1.7730      0.5591      1.8448      2.1590      0.4409      0.1849      0.4633      0.5571      2.1590      1.2688      1.7730    -22.1040    -95.0000    -22.1040    -31.5771      0.0224      0.0448      0.0448      0.1492
   1402.0000      1.8970      0.5587      1.8441      2.2180      0.4413      0.1850      0.4634      0.5572      2.2180      1.2317      1.8970    -22.7230    -95.0000    -22.7230    -32.4614      0.0221      0.0441      0.0441      0.1471
   1402.5000      2.0970      0.5591      1.8448      2.2500      0.4409      0.1849      0.4633      0.5570      2.2500      1.2703      2.0970    -22.0760    -95.0000    -22.0760    -31.5371      0.0224      0.0448      0.0448      0.1493
