~V
VERS. 2.00: Ver 2.00
WRAP.   NO:        
~W
 STRT.FT 200:
 STOP.FT 3880:
 STEP.FT 0.5:
 NULL. -999.250000:
 COMP. Standard (Chevron):Company
 WELL. KCL 24-37:Well
 FLD. :Field
 LOC. S19 T11N R22W:Location
 STAT. CA:State
 SRVC. :Service Company
 SON. :Service Order #
 DATE. :Log Date
 UWI. 0370300:Unique Well ID
~C
 DEPT.FT :
 LAT.OHMM :
 LTHE. :
 MM. :
 PHES. :
 PHMX. :
 PHTS. :
 PHZC. :
 RD.OHMM :
 ROS. :
 RS.OHMM :
 SBL.MV :
 SCLN. :
 SN.OHMM :
 SP.MV :
 SPN. :
 VCDS. :
 VCLY. :
 VCWS. :
 VCY. :
 VSHS. :
~P
~A
# ...
   2616.0000      4.4990      1.9714      2.8176      0.0000   -999.2500      0.2802      0.2547      4.4990   -999.2500      3.0396     -4.4666    -27.4229      3.0396     -8.2030     -4.2539      0.2839      0.5914      0.5641      0.5914      1.9714
   2616.5000      4.4360      1.9722      2.8177      0.0000   -999.2500      0.2802      0.2547      4.4360   -999.2500      3.0424     -4.4607    -27.4486      3.0424     -8.1940     -4.2483      0.2840      0.5917      0.5642      0.5917      1.9722
   2617.0000      4.3070      1.9730      2.8179      0.0000   -999.2500      0.2802      0.2546      4.3070   -999.2500      3.0452     -4.4547    -27.4742      3.0452     -8.1850     -4.2426      0.2841      0.5919      0.5643      0.5919      1.9730
   2617.5000      4.2770      1.9604      2.8162      0.0000   -999.2500      0.2804      0.2550      4.2770   -999.2500      3.0488     -4.6147    -27.4998      3.0488     -8.3420     -4.3950      0.2823      0.5881      0.5627      0.5881      1.9604
   2618.0000      4.2460      1.9543      2.8154      0.0000   -999.2500      0.2805      0.2552      4.2460   -999.2500      3.0524     -4.6948    -27.5255      3.0524     -8.4190     -4.4712      0.2814      0.5863      0.5619      0.5863      1.9543
   2618.5000      4.1510      1.9483      2.8145      0.0000   -999.2500      0.2806      0.2554      4.1510   -999.2500      3.0560     -4.7738    -27.5511      3.0560     -8.4950     -4.5465      0.2806      0.5845      0.5612      0.5845      1.9483
   2619.0000      4.0550      1.9223      2.8110      0.0000   -999.2500      0.2810      0.2561      4.0550   -999.2500      3.0596     -5.1008    -27.5768      3.0596     -8.8190     -4.8579      0.2768      0.5767      0.5579      0.5767      1.9223
   2619.5000      3.9590      1.8963      2.8074      0.0000   -999.2500      0.2815      0.2569      3.9590   -999.2500      3.0632     -5.4278    -27.6024      3.0632     -9.1430     -5.1694      0.2731      0.5689      0.5546      0.5689      1.8963
   2620.0000      3.8630      1.8636      2.8029      0.0000   -999.2500      0.2820      0.2579      3.8630   -999.2500      3.0668     -5.8399    -27.6280      3.0668     -9.5520     -5.5618      0.2684      0.5591      0.5504      0.5591      1.8636
   2620.5000      3.8020      1.8309      2.7984      0.0000   -999.2500      0.2826      0.2589      3.8020   -999.2500      3.1388     -6.2529    -27.6537      3.1388     -9.9620     -5.9551      0.2636      0.5493      0.5462      0.5493      1.8309
   2621.0000      3.8060      1.6851      2.7782      0.0000   -999.2500      0.2629      0.2632      3.8060   -999.2500      3.1416     -8.0739    -27.6793      3.1416    -11.7800     -7.6895      0.2427      0.5055      0.5055      0.5055      1.6851
   2621.5000      3.8100      1.1674      2.7066      0.0000   -999.2500      0.1821      0.2788      3.8100   -999.2500      3.1444    -13.1540    -27.7050      3.1444    -16.8570    -12.5276      0.1681      0.3502      0.3502      0.3835      1.1674
   2622.0000      3.7790      0.5582      2.1224      0.2172   -999.2500      0.3043      0.2970      3.7790   -999.2500      3.1480    -18.2340    -27.7306      3.1480    -21.9340    -17.3657      0.0804      0.1675      0.1675      0.2616      0.5582
   2622.5000      3.7490      0.3646      1.9366      0.2507   -999.2500      0.3076      0.3028      3.7490   -999.2500      3.1516    -21.5540    -27.7562      3.1516    -25.2510    -20.5276      0.0525      0.1094      0.1094      0.1823      0.3646
   2623.0000      3.7190      0.4618      2.0299      0.2339   -999.2500      0.3059      0.2999      3.7190   -999.2500      3.1572    -19.5491    -27.7819      3.1572    -23.2430    -18.6182      0.0665      0.1385      0.1385      0.2309      0.4618
   2623.5000      3.6900      0.7872      2.3423      0.1775   -999.2500      0.3004      0.2901      3.6900   -999.2500      3.1276    -16.3741    -27.8075      3.1276    -20.0650    -15.5944      0.1134      0.2362      0.2362      0.3074      0.7872
   2624.0000      3.6930      0.8643      2.5745      0.1357   -999.2500      0.2962      0.2829      3.6930   -999.2500      3.0980    -14.3701    -27.8332      3.0980    -18.0580    -13.6858      0.1482      0.3087      0.3087      0.3558      0.8643
   2624.5000      3.6970      1.5201      2.7556      0.0000   -999.2500      0.2371      0.2682      3.6970   -999.2500      3.1020    -10.1952    -27.8588      3.1020    -13.8800     -9.7097      0.2189      0.4560      0.4560      0.4560      1.5201
   2625.0000      3.6360      1.7071      2.7815      0.0000   -999.2500      0.2663      0.2625      3.6360   -999.2500      3.1056     -7.8582    -27.8844      3.1056    -11.5400     -7.4840      0.2458      0.5121      0.5121      0.5121      1.7071
   2625.5000      3.6400      1.7878      2.7927      0.0000   -999.2500      0.2789      0.2601      3.6400   -999.2500      3.1092     -6.8522    -27.9101      3.1092    -10.5310     -6.5259      0.2574      0.5363      0.5363      0.5363      1.7878
   2626.0000      3.6430      1.8019      2.7947      0.0000   -999.2500      0.2811      0.2597      3.6430   -999.2500      3.1128     -6.6802    -27.9357      3.1128    -10.3560     -6.3621      0.2595      0.5406      0.5406      0.5406      1.8019
   2626.5000      3.6140      1.8093      2.7957      0.0000   -999.2500      0.2823      0.2595      3.6140   -999.2500      3.1156     -6.5933    -27.9614      3.1156    -10.2660     -6.2793      0.2605      0.5428      0.5428      0.5428      1.8093
   2627.0000      3.5840      1.8167      2.7968      0.0000   -999.2500      0.2828      0.2592      3.5840   -999.2500      3.1188     -6.5063    -27.9870      3.1188    -10.1760     -6.1965      0.2616      0.5450      0.5444      0.5450      1.8167
   2627.5000      3.5210      1.8177      2.7969      0.0000   -999.2500      0.2827      0.2592      3.5210   -999.2500      3.1220     -6.4993    -28.0126      3.1220    -10.1660     -6.1898      0.2618      0.5453      0.5445      0.5453      1.8177
   2628.0000      3.4570      1.8187      2.7971      0.0000   -999.2500      0.2827      0.2592      3.4570   -999.2500      3.1256     -6.4934    -28.0383      3.1256    -10.1570     -6.1842      0.2619      0.5456      0.5446      0.5456      1.8187
   2628.5000      3.4630      1.8200      2.7973      0.0000   -999.2500      0.2827      0.2591      3.4630   -999.2500      3.1292     -6.4824    -28.0639      3.1292    -10.1430     -6.1737      0.2621      0.5460      0.5448      0.5460      1.8200
   2629.0000      3.4320      1.8210      2.7975      0.0000   -999.2500      0.2827      0.2591      3.4320   -999.2500      3.0996     -6.4764    -28.0896      3.0996    -10.1340     -6.1680      0.2622      0.5463      0.5449      0.5463      1.8210
   2629.5000      3.4020      1.8351      2.7995      0.0000   -999.2500      0.2824      0.2587      3.4020   -999.2500      3.0700     -6.3035    -28.1152      3.0700     -9.9580     -6.0033      0.2643      0.5505      0.5467      0.5505      1.8351
   2630.0000      3.3390      1.8491      2.8014      0.0000   -999.2500      0.2822      0.2582      3.3390   -999.2500      3.0736     -6.1315    -28.1408      3.0736     -9.7830     -5.8395      0.2663      0.5547      0.5485      0.5547      1.8491
   2630.5000      3.2760      1.8564      2.8025      0.0000   -999.2500      0.2821      0.2580      3.2760   -999.2500      3.0776     -6.0445    -28.1665      3.0776     -9.6930     -5.7567      0.2673      0.5569      0.5494      0.5569      1.8564
   2631.0000      3.2820      1.8637      2.8035      0.0000   -999.2500      0.2819      0.2578      3.2820   -999.2500      3.0804     -5.9575    -28.1921      3.0804     -9.6030     -5.6739      0.2684      0.5591      0.5503      0.5591      1.8637
   2631.5000      3.2860      1.8916      2.8074      0.0000   -999.2500      0.2814      0.2569      3.2860   -999.2500      3.0836     -5.6086    -28.2178      3.0836     -9.2510     -5.3415      0.2724      0.5675      0.5538      0.5675      1.8916
