~V
VERS. 2.00: Ver 2.00
WRAP.   NO:        
~W
 STRT.FT 200:
 STOP.FT 1850:
 STEP.FT 0.5:
 NULL. -999.250000:
 COMP. Standard (Texaco):Company
 WELL. KCL 24-32:Well
 FLD. :Field
 LOC. S30 T11N R22W:Location
 STAT. CA:State
 SRVC. :Service Company
 SON. :Service Order #
 DATE. :Log Date
 UWI. 0369000:Unique Well ID
~C
 DEPT.FT :
 AM.OHMM :
 LTHE. :
 MM. :
 OA.OHMM :
 PHES. :
 PHMX. :
 PHTS. :
 PHZC. :
 RD.OHMM :
 ROS. :
 RS.OHMM :
 SBL.MV :
 SCLN. :
 SP.MV :
 SPN. :
 VCDS. :
 VCLY. :
 VCWS. :
 VSHS. :
~P
~A
# ...
   1828.0000      1.6150      0.5646      1.8372      1.6050      0.4354      0.1836      0.4540      0.5497      1.6050      0.8488      1.6150    -29.5700    -95.0000    -29.5700    -42.2429      0.0186      0.0372      0.0372      0.1241
   1828.5000      1.5440      0.5618      1.8329      1.5680      0.4382      0.1838      0.4547      0.5509      1.5680      0.7195      1.5440    -33.8570    -95.0000    -33.8570    -48.3671      0.0165      0.0329      0.0329      0.1097
   1829.0000      1.5100      0.5609      1.8315      1.4760      0.4391      0.1839      0.4549      0.5513      1.4760      0.7028      1.5100    -35.2910    -95.0000    -35.2910    -50.4157      0.0157      0.0315      0.0315      0.1049
   1829.5000      1.4940      0.5603      1.8306      1.3830      0.4397      0.1839      0.4550      0.5515      1.3830      0.6927      1.4940    -36.1760    -95.0000    -36.1760    -51.6800      0.0153      0.0306      0.0306      0.1019
   1830.0000      1.4870      0.5607      1.8312      1.2220      0.4393      0.1839      0.4549      0.5513      1.2220      0.6992      1.4870    -35.6000    -95.0000    -35.6000    -50.8571      0.0156      0.0312      0.0312      0.1039
   1830.5000      1.4800      0.5611      1.8317      1.2520      0.4389      0.1838      0.4548      0.5512      1.2520      0.7057      1.4800    -35.0240    -95.0000    -35.0240    -50.0343      0.0159      0.0317      0.0317      0.1058
   1831.0000      1.3790      0.5658      1.8390      1.3010      0.4342      0.1835      0.4537      0.5492      1.3010      0.9137      1.3790    -27.8710    -95.0000    -27.8710    -39.8157      0.0195      0.0390      0.0390      0.1298
   1831.5000      1.3520      0.5669      1.8407      1.3490      0.4331      0.1834      0.4534      0.5487      1.3490      0.9877      1.3520    -26.1200    -95.0000    -26.1200    -37.3143      0.0204      0.0407      0.0407      0.1357
   1832.0000      1.3220      0.5681      1.8424      1.3940      0.4319      0.1833      0.4532      0.5482      1.3940      1.0672      1.3220    -24.4190    -95.0000    -24.4190    -34.8843      0.0212      0.0424      0.0424      0.1414
   1832.5000      1.2250      0.5683      1.8428      1.4390      0.4317      0.1833      0.4531      0.5481      1.4390      1.0874      1.2250    -24.0110    -95.0000    -24.0110    -34.3014      0.0214      0.0428      0.0428      0.1428
   1833.0000      1.1750      0.5686      1.8433      1.4490      0.4314      0.1833      0.4530      0.5480      1.4490      1.1081      1.1750    -23.6020    -95.0000    -23.6020    -33.7171      0.0216      0.0433      0.0433      0.1442
   1833.5000      1.1310      0.5689      1.8437      1.3350      0.4311      0.1832      0.4529      0.5479      1.3350      1.1324      1.1310    -23.1360    -95.0000    -23.1360    -33.0514      0.0219      0.0437      0.0437      0.1458
   1834.0000      1.0870      0.5685      1.8430      1.1680      0.4315      0.1833      0.4530      0.5480      1.1680      1.0942      1.0870    -23.8710    -95.0000    -23.8710    -34.1014      0.0215      0.0430      0.0430      0.1433
   1834.5000      1.0500      0.5681      1.8424      1.1260      0.4319      0.1833      0.4531      0.5482      1.1260      1.0667      1.0500    -24.4210    -95.0000    -24.4210    -34.8871      0.0212      0.0424      0.0424      0.1414
   1835.0000      1.0370      0.5683      1.8427      1.0840      0.4317      0.1833      0.4530      0.5481      1.0840      1.0782      1.0370    -24.1870    -95.0000    -24.1870    -34.5529      0.0213      0.0427      0.0427      0.1422
   1835.5000      1.0360      0.5685      1.8429      1.0770      0.4315      0.1833      0.4530      0.5480      1.0770      1.0898      1.0360    -23.9540    -95.0000    -23.9540    -34.2200      0.0215      0.0429      0.0429      0.1430
   1836.0000      1.0400      0.5690      1.8438      1.0830      0.4310      0.1832      0.4529      0.5478      1.0830      1.1336      1.0400    -23.1050    -95.0000    -23.1050    -33.0071      0.0219      0.0438      0.0438      0.1459
   1836.5000      1.0430      0.5691      1.8438      1.0900      0.4309      0.1832      0.4528      0.5478      1.0900      1.1362      1.0430    -23.0550    -95.0000    -23.0550    -32.9357      0.0219      0.0438      0.0438      0.1460
   1837.0000      1.0600      0.5676      1.8416      1.1080      0.4324      0.1833      0.4532      0.5484      1.1080      1.0263      1.0600    -25.2570    -95.0000    -25.2570    -36.0814      0.0208      0.0416      0.0416      0.1386
   1837.5000      1.0770      0.5643      1.8364      1.1270      0.4357      0.1836      0.4539      0.5497      1.1270      0.8182      1.0770    -30.3950    -95.0000    -30.3950    -43.4214      0.0182      0.0364      0.0364      0.1214
   1838.0000      1.1670      0.5631      1.8346      1.1800      0.4369      0.1837      0.4542      0.5502      1.1800      0.7588      1.1670    -32.1790    -95.0000    -32.1790    -45.9700      0.0173      0.0346      0.0346      0.1154
   1838.5000      1.2700      0.5620      1.8329      1.2440      0.4380      0.1838      0.4544      0.5507      1.2440      0.7185      1.2700    -33.8640    -95.0000    -33.8640    -48.3771      0.0165      0.0329      0.0329      0.1097
   1839.0000      1.4240      0.5611      1.8315      1.2840      0.4389      0.1838      0.4546      0.5510      1.2840      0.7022      1.4240    -35.2650    -95.0000    -35.2650    -50.3786      0.0157      0.0315      0.0315      0.1050
   1839.5000      1.5750      0.5613      1.8317      1.3710      0.4387      0.1838      0.4546      0.5510      1.3710      0.7050      1.5750    -35.0150    -95.0000    -35.0150    -50.0214      0.0159      0.0317      0.0317      0.1058
   1840.0000      1.6820      0.5615      1.8320      1.4690      0.4385      0.1838      0.4545      0.5509      1.4690      0.7078      1.6820    -34.7640    -95.0000    -34.7640    -49.6629      0.0160      0.0320      0.0320      0.1067
   1840.5000      1.7150      0.5641      1.8360      1.5680      0.4359      0.1836      0.4539      0.5498      1.5680      0.8034      1.7150    -30.8140    -95.0000    -30.8140    -44.0200      0.0180      0.0360      0.0360      0.1200
   1841.0000      1.6960      0.5648      1.8371      1.7520      0.4352      0.1835      0.4537      0.5495      1.7520      0.8421      1.6960    -29.7130    -95.0000    -29.7130    -42.4471      0.0185      0.0371      0.0371      0.1237
   1841.5000      1.6770      0.5650      1.8374      1.8020      0.4350      0.1835      0.4537      0.5494      1.8020      0.8542      1.6770    -29.3790    -95.0000    -29.3790    -41.9700      0.0187      0.0374      0.0374      0.1248
   1842.0000      1.6580      0.5653      1.8378      1.8240      0.4347      0.1835      0.4536      0.5493      1.8240      0.8666      1.6580    -29.0450    -95.0000    -29.0450    -41.4929      0.0189      0.0378      0.0378      0.1259
   1842.5000      1.6450      0.5667      1.8400      1.8460      0.4333      0.1834      0.4533      0.5487      1.8460      0.9554      1.6450    -26.8290    -95.0000    -26.8290    -38.3271      0.0200      0.0400      0.0400      0.1333
   1843.0000      1.6550      0.5672      1.8407      1.8520      0.4328      0.1834      0.4531      0.5485      1.8520      0.9857      1.6550    -26.1300    -95.0000    -26.1300    -37.3286      0.0204      0.0407      0.0407      0.1357
   1843.5000      1.6680      0.5674      1.8410      1.8320      0.4326      0.1833      0.4531      0.5484      1.8320      0.9969      1.6680    -25.8790    -95.0000    -25.8790    -36.9700      0.0205      0.0410      0.0410      0.1365
   1844.0000      1.5340      0.5676      1.8412      1.7470      0.4324      0.1833      0.4530      0.5483      1.7470      1.0082      1.5340    -25.6290    -95.0000    -25.6290    -36.6129      0.0206      0.0412      0.0412      0.1374
   1844.5000      1.3590      0.5681      1.8420      1.6610      0.4319      0.1833      0.4529      0.5481      1.6610      1.0431      1.3590    -24.8790    -95.0000    -24.8790    -35.5414      0.0210      0.0420      0.0420      0.1399
