~V
VERS. 2.00: Ver 2.00
WRAP.   NO:        
~W
 STRT.FT 200:
 STOP.FT 1850:
 STEP.FT 0.5:
 NULL. -999.250000:
 COMP. Standard (Texaco):Company
 WELL. KCL 24-32:Well
 FLD. :Field
 LOC. S30 T11N R22W:Location
 STAT. CA:State
 SRVC. :Service Company
 SON. :Service Order #
 DATE. :Log Date
 UWI. 0369000:Unique Well ID
~C
 DEPT.FT :
 AM.OHMM :
 LTHE. :
 MM. :
 OA.OHMM :
 PHES. :
 PHMX. :
 PHTS. :
 PHZC. :
 RD.OHMM :
 ROS. :
 RS.OHMM :
 SBL.MV :
 SCLN. :
 SP.MV :
 SPN. :
 VCDS. :
 VCLY. :
 VCWS. :
 VSHS. :
~P
~A
# ...
   1607.0000      1.6710      0.5651      1.8464      1.5510      0.4349      0.1840      0.4580      0.5521      1.5510      1.3284      1.6710    -20.4920    -95.0000    -20.4920    -29.2743      0.0232      0.0464      0.0464      0.1546
   1607.5000      1.7140      0.5654      1.8468      1.5700      0.4346      0.1840      0.4580      0.5520      1.5700      1.3549      1.7140    -20.0850    -95.0000    -20.0850    -28.6929      0.0234      0.0468      0.0468      0.1560
   1608.0000      1.8140      0.5660      1.8477      1.6790      0.4340      0.1840      0.4578      0.5517      1.6790      1.4146      1.8140    -19.2070    -95.0000    -19.2070    -27.4386      0.0238      0.0477      0.0477      0.1590
   1608.5000      1.9070      0.5659      1.8475      1.7230      0.4341      0.1840      0.4579      0.5518      1.7230      1.3981      1.9070    -19.4430    -95.0000    -19.4430    -27.7757      0.0237      0.0475      0.0475      0.1582
   1609.0000      2.0200      0.5634      1.8436      1.8250      0.4366      0.1842      0.4584      0.5528      1.8250      1.1611      2.0200    -23.2990    -95.0000    -23.2990    -33.2843      0.0218      0.0436      0.0436      0.1452
   1609.5000      2.1530      0.5619      1.8414      1.9390      0.4381      0.1843      0.4587      0.5534      1.9390      1.0491      2.1530    -25.4870    -95.0000    -25.4870    -36.4100      0.0207      0.0414      0.0414      0.1379
   1610.0000      2.2490      0.5612      1.8401      2.0820      0.4388      0.1843      0.4589      0.5537      2.0820      0.9932      2.2490    -26.6920    -95.0000    -26.6920    -38.1314      0.0201      0.0401      0.0401      0.1338
   1610.5000      2.3120      0.5608      1.8396      2.1720      0.4392      0.1843      0.4590      0.5539      2.1720      0.9680      2.3120    -27.2630    -95.0000    -27.2630    -38.9471      0.0198      0.0396      0.0396      0.1319
   1611.0000      2.3100      0.5610      1.8399      2.3250      0.4390      0.1843      0.4589      0.5538      2.3250      0.9824      2.3100    -26.9320    -95.0000    -26.9320    -38.4743      0.0200      0.0399      0.0399      0.1330
   1611.5000      2.3080      0.5612      1.8402      2.4180      0.4388      0.1843      0.4589      0.5537      2.4180      0.9944      2.3080    -26.6600    -95.0000    -26.6600    -38.0857      0.0201      0.0402      0.0402      0.1339
   1612.0000      2.3770      0.5614      1.8405      2.4340      0.4386      0.1843      0.4588      0.5536      2.4340      1.0066      2.3770    -26.3870    -95.0000    -26.3870    -37.6957      0.0202      0.0405      0.0405      0.1348
   1612.5000      2.4230      0.5630      1.8429      2.4270      0.4370      0.1842      0.4584      0.5530      2.4270      1.1235      2.4230    -23.9920    -95.0000    -23.9920    -34.2743      0.0214      0.0429      0.0429      0.1429
   1613.0000      1.7390      0.5631      1.8430      2.1580      0.4369      0.1842      0.4584      0.5529      2.1580      1.1286      1.7390    -23.8940    -95.0000    -23.8940    -34.1343      0.0215      0.0430      0.0430      0.1432
   1613.5000      1.6080      0.5628      1.8426      1.4200      0.4372      0.1842      0.4585      0.5530      1.4200      1.1092      1.6080    -24.2650    -95.0000    -24.2650    -34.6643      0.0213      0.0426      0.0426      0.1420
   1614.0000      1.3630      0.5626      1.8422      1.3220      0.4374      0.1842      0.4585      0.5531      1.3220      1.0903      1.3630    -24.6350    -95.0000    -24.6350    -35.1929      0.0211      0.0422      0.0422      0.1407
   1614.5000      1.3350      0.5624      1.8419      1.2850      0.4376      0.1842      0.4585      0.5532      1.2850      1.0734      1.3350    -24.9720    -95.0000    -24.9720    -35.6743      0.0209      0.0419      0.0419      0.1396
   1615.0000      1.3380      0.5622      1.8416      1.1700      0.4378      0.1842      0.4586      0.5532      1.1700      1.0592      1.3380    -25.2600    -95.0000    -25.2600    -36.0857      0.0208      0.0416      0.0416      0.1386
   1615.5000      1.3740      0.5622      1.8415      1.1390      0.4378      0.1842      0.4586      0.5533      1.1390      1.0545      1.3740    -25.3550    -95.0000    -25.3550    -36.2214      0.0207      0.0415      0.0415      0.1383
   1616.0000      1.4100      0.5621      1.8414      1.1640      0.4379      0.1842      0.4586      0.5533      1.1640      1.0498      1.4100    -25.4500    -95.0000    -25.4500    -36.3571      0.0207      0.0414      0.0414      0.1380
   1616.5000      1.5100      0.5621      1.8413      1.1880      0.4379      0.1842      0.4586      0.5533      1.1880      1.0457      1.5100    -25.5360    -95.0000    -25.5360    -36.4800      0.0207      0.0413      0.0413      0.1377
   1617.0000      1.6100      0.5618      1.8408      1.2580      0.4382      0.1843      0.4586      0.5534      1.2580      1.0223      1.6100    -26.0310    -95.0000    -26.0310    -37.1871      0.0204      0.0408      0.0408      0.1360
   1617.5000      1.7310      0.5614      1.8403      1.3220      0.4386      0.1843      0.4587      0.5535      1.3220      0.9995      1.7310    -26.5260    -95.0000    -26.5260    -37.8943      0.0202      0.0403      0.0403      0.1344
   1618.0000      1.8530      0.5598      1.8377      1.3870      0.4402      0.1844      0.4591      0.5542      1.3870      0.8929      1.8530    -29.0660    -95.0000    -29.0660    -41.5229      0.0189      0.0377      0.0377      0.1258
   1618.5000      2.0630      0.5586      1.8359      1.6410      0.4414      0.1845      0.4593      0.5547      1.6410      0.8264      2.0630    -30.8540    -95.0000    -30.8540    -44.0771      0.0180      0.0359      0.0359      0.1198
   1619.0000      2.2230      0.5574      1.8341      1.8440      0.4426      0.1846      0.4596      0.5552      1.8440      0.7641      2.2230    -32.7090    -95.0000    -32.7090    -46.7271      0.0170      0.0341      0.0341      0.1136
   1619.5000      2.3090      0.5565      1.8326      1.9740      0.4435      0.1847      0.4598      0.5556      1.9740      0.7352      2.3090    -34.2130    -95.0000    -34.2130    -48.8757      0.0163      0.0326      0.0326      0.1085
   1620.0000      2.4690      0.5567      1.8329      2.1810      0.4433      0.1846      0.4598      0.5555      2.1810      0.7394      2.4690    -33.8660    -95.0000    -33.8660    -48.3800      0.0165      0.0329      0.0329      0.1097
   1620.5000      2.6260      0.5582      1.8352      2.4650      0.4418      0.1845      0.4594      0.5549      2.4650      0.7992      2.6260    -31.6350    -95.0000    -31.6350    -45.1929      0.0176      0.0352      0.0352      0.1172
   1621.0000      2.7360      0.5592      1.8368      2.7060      0.4408      0.1844      0.4592      0.5544      2.7060      0.8550      2.7360    -30.0540    -95.0000    -30.0540    -42.9343      0.0184      0.0368      0.0368      0.1225
   1621.5000      2.8150      0.5597      1.8375      3.0060      0.4403      0.1844      0.4590      0.5542      3.0060      0.8844      2.8150    -29.2730    -95.0000    -29.2730    -41.8186      0.0188      0.0375      0.0375      0.1251
   1622.0000      2.7310      0.5594      1.8370      3.1500      0.4406      0.1844      0.4591      0.5543      3.1500      0.8658      2.7310    -29.7610    -95.0000    -29.7610    -42.5157      0.0185      0.0370      0.0370      0.1235
   1622.5000      2.5320      0.5586      1.8357      3.2530      0.4414      0.1845      0.4593      0.5547      3.2530      0.8174      2.5320    -31.0990    -95.0000    -31.0990    -44.4271      0.0178      0.0357      0.0357      0.1190
   1623.0000      2.3780      0.5581      1.8350      3.2580      0.4419      0.1845      0.4594      0.5549      3.2580      0.7927      2.3780    -31.8190    -95.0000    -31.8190    -45.4557      0.0175      0.0350      0.0350      0.1166
   1623.5000      2.2360      0.5579      1.8346      2.8460      0.4421      0.1845      0.4594      0.5550      2.8460      0.7793      2.2360    -32.2230    -95.0000    -32.2230    -46.0329      0.0173      0.0346      0.0346      0.1152
