~V
VERS. 2.00: Ver 2.00
WRAP.   NO:        
~W
 STRT.FT 200:
 STOP.FT 1850:
 STEP.FT 0.5:
 NULL. -999.250000:
 COMP. Standard (Texaco):Company
 WELL. KCL 24-32:Well
 FLD. :Field
 LOC. S30 T11N R22W:Location
 STAT. CA:State
 SRVC. :Service Company
 SON. :Service Order #
 DATE. :Log Date
 UWI. 0369000:Unique Well ID
~C
 DEPT.FT :
 AM.OHMM :
 LTHE. :
 MM. :
 OA.OHMM :
 PHES. :
 PHMX. :
 PHTS. :
 PHZC. :
 RD.OHMM :
 ROS. :
 RS.OHMM :
 SBL.MV :
 SCLN. :
 SP.MV :
 SPN. :
 VCDS. :
 VCLY. :
 VCWS. :
 VSHS. :
~P
~A
# ...
    740.0000     15.1980      0.5688      1.8847      4.1330      0.4312      0.1856      0.4735      0.5609      4.1330   -999.2500     15.1980     -5.6180   -999.2500     -5.6180     -8.0257      0.0423      0.0847      0.0847      0.2823
    740.5000     14.9610      0.5742      1.8930      4.0590      0.4258      0.1852      0.4723      0.5586      4.0590   -999.2500     14.9610     -5.1540   -999.2500     -5.1540     -7.3629      0.0465      0.0930      0.0930      0.3099
    741.0000     14.7250      0.5819      1.9152      4.0180      0.4181      0.1846      0.4705      0.5554      4.0180   -999.2500     14.7250     -4.4940   -999.2500     -4.4940     -6.4200      0.0524      0.1048      0.1048      0.3492
    741.5000     14.2380      0.5834      1.9227      3.9770      0.4166      0.1845      0.4701      0.5548      3.9770   -999.2500     14.2380     -4.3630   -999.2500     -4.3630     -6.2329      0.0535      0.1071      0.1071      0.3570
    742.0000     13.7510      0.5850      1.9302      3.9530      0.4150      0.1844      0.4697      0.5541      3.9530   -999.2500     13.7510     -4.2320   -999.2500     -4.2320     -6.0457      0.0547      0.1094      0.1094      0.3648
    742.5000     13.5820      0.5865      1.9375      3.9290      0.4135      0.1843      0.4694      0.5535      3.9290   -999.2500     13.5820     -4.1040   -999.2500     -4.1040     -5.8629      0.0559      0.1117      0.1117      0.3724
    743.0000     13.4120      0.5849      1.9297      3.9220      0.4151      0.1844      0.4697      0.5541      3.9220   -999.2500     13.4120     -4.2400   -999.2500     -4.2400     -6.0571      0.0546      0.1093      0.1093      0.3643
    743.5000     13.9070      0.5806      1.9086      3.9150      0.4194      0.1847      0.4707      0.5559      3.9150   -999.2500     13.9070     -4.6090   -999.2500     -4.6090     -6.5843      0.0513      0.1027      0.1027      0.3423
    744.0000     14.3880      0.5763      1.8961      3.9380      0.4237      0.1850      0.4717      0.5577      3.9380   -999.2500     14.3880     -4.9780   -999.2500     -4.9780     -7.1114      0.0481      0.0961      0.0961      0.3204
    744.5000     14.8680      0.5450      1.8479      3.9600      0.4550      0.1874      0.4790      0.5707      3.9600   -999.2500     14.8680    -10.5160   -999.2500    -10.5160    -15.0229      0.0240      0.0479      0.0479      0.1598
    745.0000     17.7960      0.5393      1.8392      4.2390      0.4607      0.1878      0.4803      0.5730      4.2390   -999.2500     17.7960    -13.0680   -999.2500    -13.0680    -18.6686      0.0196      0.0392      0.0392      0.1307
    745.5000     20.2920      0.5337      1.8304      4.4290      0.4663      0.1883      0.4816      0.5754      4.4290   -999.2500     20.2920    -15.6200   -999.2500    -15.6200    -22.3143      0.0152      0.0304      0.0304      0.1015
    746.0000     22.7560      0.5313      1.8268      4.6180      0.4687      0.1884      0.4821      0.5763      4.6180   -999.2500     22.7560    -16.6730   -999.2500    -16.6730    -23.8186      0.0134      0.0268      0.0268      0.0895
    746.5000     25.2190      0.5290      1.8232      4.8310      0.4710      0.1886      0.4826      0.5773      4.8310   -999.2500     25.2190    -17.7250   -999.2500    -17.7250    -25.3214      0.0116      0.0232      0.0232      0.0774
    747.0000     26.3160      0.5249      1.8169      5.0430      0.4751      0.1889      0.4835      0.5790      5.0430   -999.2500     26.3160    -19.5640   -999.2500    -19.5640    -27.9486      0.0085      0.0169      0.0169      0.0564
    747.5000     27.4130      0.5223      1.8128      5.1290      0.4777      0.1891      0.4841      0.5801      5.1290   -999.2500     27.4130    -20.7670   -999.2500    -20.7670    -29.6671      0.0064      0.0128      0.0128      0.0427
    748.0000     29.3080      0.5171      1.8048      5.1590      0.4829      0.1895      0.4853      0.5823      5.1590   -999.2500     29.3080    -23.1030   -999.2500    -23.1030    -33.0043      0.0024      0.0048      0.0048      0.0160
    748.5000     29.9380      0.5140      1.8000      5.1880      0.4860      0.1897      0.4860      0.5835      5.1880   -999.2500     29.9380    -24.5730   -999.2500    -24.5730    -35.1043      0.0000      0.0000      0.0000      0.0000
    749.0000     30.4020      0.5140      1.8000      5.2310      0.4860      0.1897      0.4860      0.5835      5.2310   -999.2500     30.4020    -24.9760   -999.2500    -24.9760    -35.6800      0.0000      0.0000      0.0000      0.0000
    749.5000     30.9310      0.5140      1.8000      5.2730      0.4860      0.1897      0.4860      0.5835      5.2730   -999.2500     30.9310    -25.2450   -999.2500    -25.2450    -36.0643      0.0000      0.0000      0.0000      0.0000
    750.0000     30.7390      0.5140      1.8000      5.2990      0.4860      0.1897      0.4860      0.5835      5.2990   -999.2500     30.7390    -25.5140   -999.2500    -25.5140    -36.4486      0.0000      0.0000      0.0000      0.0000
    750.5000     30.5470      0.5140      1.8000      5.2890      0.4860      0.1897      0.4860      0.5835      5.2890   -999.2500     30.5470    -26.0200   -999.2500    -26.0200    -37.1714      0.0000      0.0000      0.0000      0.0000
    751.0000     30.3560      0.5140      1.8000      5.2800      0.4860      0.1897      0.4860      0.5835      5.2800   -999.2500     30.3560    -25.9230   -999.2500    -25.9230    -37.0329      0.0000      0.0000      0.0000      0.0000
    751.5000     30.5350      0.5141      1.8000      5.2700      0.4859      0.1897      0.4859      0.5835      5.2700   -999.2500     30.5350    -25.2930   -999.2500    -25.2930    -36.1329      0.0000      0.0000      0.0000      0.0000
    752.0000     30.7150      0.5147      1.8009      5.2330      0.4853      0.1897      0.4858      0.5832      5.2330   -999.2500     30.7150    -24.2310   -999.2500    -24.2310    -34.6157      0.0005      0.0009      0.0009      0.0031
    752.5000     30.8770      0.5182      1.8063      5.1960      0.4818      0.1894      0.4850      0.5817      5.1960   -999.2500     30.8770    -22.6680   -999.2500    -22.6680    -32.3829      0.0031      0.0063      0.0063      0.0209
    753.0000     30.9400      0.5239      1.8151      5.1220      0.4761      0.1890      0.4837      0.5794      5.1220   -999.2500     30.9400    -20.1060   -999.2500    -20.1060    -28.7229      0.0075      0.0151      0.0151      0.0502
    753.5000     30.9030      0.5283      1.8219      5.0480      0.4717      0.1886      0.4826      0.5775      5.0480   -999.2500     30.9030    -18.1110   -999.2500    -18.1110    -25.8729      0.0110      0.0219      0.0219      0.0730
    754.0000     30.7350      0.5311      1.8262      4.9700      0.4689      0.1884      0.4820      0.5763      4.9700   -999.2500     30.7350    -16.8470   -999.2500    -16.8470    -24.0671      0.0131      0.0262      0.0262      0.0875
    754.5000     29.3310      0.5381      1.8370      4.8930      0.4619      0.1879      0.4804      0.5734      4.8930   -999.2500     29.3310    -13.7190   -999.2500    -13.7190    -19.5986      0.0185      0.0370      0.0370      0.1232
    755.0000     27.1950      0.5424      1.8435      4.8020      0.4576      0.1876      0.4794      0.5717      4.8020   -999.2500     27.1950    -11.8230   -999.2500    -11.8230    -16.8900      0.0217      0.0435      0.0435      0.1449
    755.5000     24.9590      0.5450      1.8476      4.7120      0.4550      0.1874      0.4788      0.5705      4.7120   -999.2500     24.9590    -10.6270   -999.2500    -10.6270    -15.1814      0.0238      0.0476      0.0476      0.1585
    756.0000     21.8880      0.5464      1.8496      4.6210      0.4536      0.1873      0.4784      0.5700      4.6210   -999.2500     21.8880    -10.0300   -999.2500    -10.0300    -14.3286      0.0248      0.0496      0.0496      0.1654
    756.5000     20.6190      0.5472      1.8509      4.5300      0.4528      0.1872      0.4782      0.5696      4.5300   -999.2500     20.6190     -9.6500   -999.2500     -9.6500    -13.7857      0.0255      0.0509      0.0509      0.1697
