~V
VERS. 2.00: Ver 2.00
WRAP.   NO:        
~W
 STRT.FT 200:
 STOP.FT 1850:
 STEP.FT 0.5:
 NULL. -999.250000:
 COMP. Standard (Texaco):Company
 WELL. KCL 24-32:Well
 FLD. :Field
 LOC. S30 T11N R22W:Location
 STAT. CA:State
 SRVC. :Service Company
 SON. :Service Order #
 DATE. :Log Date
 UWI. 0369000:Unique Well ID
~C
 DEPT.FT :
 AM.OHMM :
 LTHE. :
 MM. :
 OA.OHMM :
 PHES. :
 PHMX. :
 PHTS. :
 PHZC. :
 RD.OHMM :
 ROS. :
 RS.OHMM :
 SBL.MV :
 SCLN. :
 SP.MV :
 SPN. :
 VCDS. :
 VCLY. :
 VCWS. :
 VSHS. :
~P
~A
# ...
   1284.0000      2.2830      0.5601      1.8508      2.4280      0.4399      0.1851      0.4653      0.5580      2.4280   -999.2500      2.2830    -10.7060    -44.6752    -10.7060    -15.2943      0.0254      0.0508      0.0508      0.1695
   1284.5000      2.2690      0.5613      1.8526      2.4050      0.4387      0.1850      0.4650      0.5575      2.4050   -999.2500      2.2690     -9.9740    -44.6782     -9.9740    -14.2486      0.0263      0.0526      0.0526      0.1755
   1285.0000      2.2530      0.5627      1.8547      2.3820      0.4373      0.1849      0.4647      0.5570      2.3820   -999.2500      2.2530     -9.1440    -44.6812     -9.1440    -13.0629      0.0274      0.0547      0.0547      0.1823
   1285.5000      2.2380      0.5633      1.8557      2.4050      0.4367      0.1849      0.4645      0.5567      2.4050   -999.2500      2.2380     -8.7480    -44.6843     -8.7480    -12.4971      0.0278      0.0557      0.0557      0.1856
   1286.0000      2.1360      0.5644      1.8573      2.4240      0.4356      0.1848      0.4643      0.5562      2.4240   -999.2500      2.1360     -8.0830    -44.6873     -8.0830    -11.5471      0.0287      0.0573      0.0573      0.1911
   1286.5000      2.0670      0.5662      1.8601      2.4340      0.4338      0.1846      0.4638      0.5555      2.4340   -999.2500      2.0670     -6.9940    -44.6903     -6.9940     -9.9914      0.0301      0.0601      0.0601      0.2004
   1287.0000      1.9980      0.5789      1.8796      2.4400      0.4211      0.1837      0.4609      0.5502      2.4400   -999.2500      1.9980     -5.9040    -44.6934     -5.9040     -8.4343      0.0398      0.0796      0.0796      0.2652
   1287.5000      1.9370      0.5901      1.8968      2.4290      0.4099      0.1828      0.4583      0.5455      2.4290   -999.2500      1.9370     -4.9410    -44.6964     -4.9410     -7.0586      0.0484      0.0968      0.0968      0.3226
   1288.0000      1.8990      0.5869      1.8918      2.4180      0.4131      0.1831      0.4590      0.5469      2.4180   -999.2500      1.8990     -5.2190    -44.6994     -5.2190     -7.4557      0.0459      0.0918      0.0918      0.3060
   1288.5000      1.8840      0.5837      1.8868      2.4010      0.4163      0.1833      0.4597      0.5482      2.4010   -999.2500      1.8840     -5.4970    -44.7025     -5.4970     -7.8529      0.0434      0.0868      0.0868      0.2895
   1289.0000      1.8680      0.5662      1.8600      2.3920      0.4338      0.1846      0.4638      0.5555      2.3920   -999.2500      1.8680     -7.0200    -44.7055     -7.0200    -10.0286      0.0300      0.0600      0.0600      0.1998
   1289.5000      1.8440      0.5653      1.8586      2.3830      0.4347      0.1847      0.4640      0.5558      2.3830   -999.2500      1.8440     -7.5730    -44.7086     -7.5730    -10.8186      0.0293      0.0586      0.0586      0.1953
   1290.0000      1.8430      0.5644      1.8571      2.3870      0.4356      0.1848      0.4642      0.5562      2.3870   -999.2500      1.8430     -8.1770    -44.7116     -8.1770    -11.6814      0.0285      0.0571      0.0571      0.1903
   1290.5000      1.8420      0.5656      1.8590      2.3920      0.4344      0.1847      0.4639      0.5557      2.3920   -999.2500      1.8420     -7.4130    -44.7146     -7.4130    -10.5900      0.0295      0.0590      0.0590      0.1966
   1291.0000      1.8780      0.5752      1.8737      2.4140      0.4248      0.1839      0.4617      0.5517      2.4140   -999.2500      1.8780     -6.2320    -44.7177     -6.2320     -8.9029      0.0369      0.0737      0.0737      0.2457
   1291.5000      1.8940      0.5825      1.8850      2.4370      0.4175      0.1834      0.4599      0.5486      2.4370   -999.2500      1.8940     -5.6010    -44.7207     -5.6010     -8.0014      0.0425      0.0850      0.0850      0.2833
   1292.0000      1.9110      0.5750      1.8733      2.4580      0.4250      0.1840      0.4617      0.5518      2.4580   -999.2500      1.9110     -6.2540    -44.7237     -6.2540     -8.9343      0.0367      0.0733      0.0733      0.2444
   1292.5000      1.9300      0.5674      1.8617      2.4790      0.4326      0.1845      0.4634      0.5549      2.4790   -999.2500      1.9300     -6.9070    -44.7268     -6.9070     -9.8671      0.0308      0.0617      0.0617      0.2055
   1293.0000      1.9490      0.5683      1.8631      2.4950      0.4317      0.1845      0.4632      0.5545      2.4950   -999.2500      1.9490     -6.8270    -44.7298     -6.8270     -9.7529      0.0315      0.0631      0.0631      0.2103
   1293.5000      1.9480      0.5693      1.8645      2.5110      0.4307      0.1844      0.4630      0.5541      2.5110   -999.2500      1.9480     -6.7470    -44.7328     -6.7470     -9.6386      0.0323      0.0645      0.0645      0.2151
   1294.0000      1.9480      0.5780      1.8778      2.5250      0.4220      0.1837      0.4610      0.5505      2.5250   -999.2500      1.9480     -6.0010    -44.7359     -6.0010     -8.5729      0.0389      0.0778      0.0778      0.2595
   1294.5000      1.9470      0.5742      1.8721      2.5400      0.4258      0.1840      0.4618      0.5521      2.5400   -999.2500      1.9470     -6.3220    -44.7389     -6.3220     -9.0314      0.0361      0.0721      0.0721      0.2404
   1295.0000      1.9410      0.5705      1.8664      2.5460      0.4295      0.1843      0.4627      0.5536      2.5460   -999.2500      1.9410     -6.6420    -44.7420     -6.6420     -9.4886      0.0332      0.0664      0.0664      0.2213
   1295.5000      1.9350      0.5666      1.8604      2.5520      0.4334      0.1846      0.4636      0.5552      2.5520   -999.2500      1.9350     -6.9780    -44.7450     -6.9780     -9.9686      0.0302      0.0604      0.0604      0.2013
   1296.0000      1.9280      0.5659      1.8592      2.5560      0.4341      0.1846      0.4637      0.5555      2.5560   -999.2500      1.9280     -7.3150    -44.7480     -7.3150    -10.4500      0.0296      0.0592      0.0592      0.1974
   1296.5000      1.9230      0.5657      1.8589      2.5610      0.4343      0.1846      0.4638      0.5556      2.5610   -999.2500      1.9230     -7.4430    -44.7511     -7.4430    -10.6329      0.0295      0.0589      0.0589      0.1964
   1297.0000      1.9170      0.5655      1.8586      2.5570      0.4345      0.1847      0.4638      0.5556      2.5570   -999.2500      1.9170     -7.5710    -44.7541     -7.5710    -10.8157      0.0293      0.0586      0.0586      0.1953
   1297.5000      1.9140      0.5660      1.8593      2.5520      0.4340      0.1846      0.4637      0.5554      2.5520   -999.2500      1.9140     -7.2670    -44.7571     -7.2670    -10.3814      0.0297      0.0593      0.0593      0.1978
   1298.0000      1.9110      0.5669      1.8607      2.5400      0.4331      0.1846      0.4635      0.5551      2.5400   -999.2500      1.9110     -6.9620    -44.7602     -6.9620     -9.9457      0.0303      0.0607      0.0607      0.2023
   1298.5000      1.9080      0.5744      1.8722      2.5280      0.4256      0.1840      0.4617      0.5519      2.5280   -999.2500      1.9080     -6.3150    -44.7632     -6.3150     -9.0214      0.0361      0.0722      0.0722      0.2408
   1299.0000      1.9040      0.5790      1.8792      2.4970      0.4210      0.1836      0.4606      0.5500      2.4970   -999.2500      1.9040     -5.9260    -44.7663     -5.9260     -8.4657      0.0396      0.0792      0.0792      0.2639
   1299.5000      1.9020      0.5835      1.8861      2.4810      0.4165      0.1833      0.4596      0.5482      2.4810   -999.2500      1.9020     -5.5360    -44.7693     -5.5360     -7.9086      0.0431      0.0861      0.0861      0.2871
   1300.0000      1.8990      0.5926      1.9002      2.4650      0.4074      0.1826      0.4574      0.5444      2.4650   -999.2500      1.8990     -4.7570    -44.7723     -4.7570     -6.7957      0.0500      0.1001      0.1001      0.3335
   1300.5000      1.8880      0.5949      1.9114      2.4440      0.4051      0.1824      0.4569      0.5434      2.4440   -999.2500      1.8880     -4.5600    -44.7754     -4.5600     -6.5143      0.0518      0.1036      0.1036      0.3452
