~V
VERS. 2.00: Ver 2.00
WRAP.   NO:        
~W
 STRT.FT 200:
 STOP.FT 1850:
 STEP.FT 0.5:
 NULL. -999.250000:
 COMP. Standard (Texaco):Company
 WELL. KCL 24-32:Well
 FLD. :Field
 LOC. S30 T11N R22W:Location
 STAT. CA:State
 SRVC. :Service Company
 SON. :Service Order #
 DATE. :Log Date
 UWI. 0369000:Unique Well ID
~C
 DEPT.FT :
 AM.OHMM :
 LTHE. :
 MM. :
 OA.OHMM :
 PHES. :
 PHMX. :
 PHTS. :
 PHZC. :
 RD.OHMM :
 ROS. :
 RS.OHMM :
 SBL.MV :
 SCLN. :
 SP.MV :
 SPN. :
 VCDS. :
 VCLY. :
 VCWS. :
 VSHS. :
~P
~A
# ...
   1063.0000      2.0190      0.5581      1.8560      2.2900      0.4419      0.1857      0.4699      0.5615      2.2900   -999.2500      2.0190     -8.5610    -43.3330     -8.5610    -12.2300      0.0280      0.0560      0.0560      0.1866
   1063.5000      2.0460      0.5584      1.8564      2.3170      0.4416      0.1857      0.4698      0.5614      2.3170   -999.2500      2.0460     -8.3860    -43.3361     -8.3860    -11.9800      0.0282      0.0564      0.0564      0.1881
   1064.0000      2.0720      0.5584      1.8565      2.3440      0.4416      0.1857      0.4698      0.5613      2.3440   -999.2500      2.0720     -8.3540    -43.3391     -8.3540    -11.9343      0.0283      0.0565      0.0565      0.1884
   1064.5000      2.0720      0.5585      1.8566      2.3670      0.4415      0.1857      0.4698      0.5613      2.3670   -999.2500      2.0720     -8.3210    -43.3421     -8.3210    -11.8871      0.0283      0.0566      0.0566      0.1887
   1065.0000      2.0550      0.5586      1.8567      2.3650      0.4414      0.1857      0.4698      0.5613      2.3650   -999.2500      2.0550     -8.2890    -43.3452     -8.2890    -11.8414      0.0283      0.0567      0.0567      0.1890
   1065.5000      2.0380      0.5581      1.8560      2.3630      0.4419      0.1857      0.4699      0.5615      2.3630   -999.2500      2.0380     -8.5750    -43.3482     -8.5750    -12.2500      0.0280      0.0560      0.0560      0.1865
   1066.0000      1.9980      0.5578      1.8555      2.3510      0.4422      0.1857      0.4699      0.5616      2.3510   -999.2500      1.9980     -8.7590    -43.3512     -8.7590    -12.5129      0.0277      0.0555      0.0555      0.1849
   1066.5000      2.0080      0.5583      1.8563      2.3390      0.4417      0.1857      0.4698      0.5613      2.3390   -999.2500      2.0080     -8.4590    -43.3543     -8.4590    -12.0843      0.0281      0.0563      0.0563      0.1875
   1067.0000      2.0170      0.5588      1.8570      2.3270      0.4412      0.1857      0.4697      0.5611      2.3270   -999.2500      2.0170     -8.1600    -43.3573     -8.1600    -11.6571      0.0285      0.0570      0.0570      0.1901
   1067.5000      2.0470      0.5597      1.8583      2.3140      0.4403      0.1856      0.4695      0.5608      2.3140   -999.2500      2.0470     -7.6430    -43.3604     -7.6430    -10.9186      0.0292      0.0583      0.0583      0.1945
   1068.0000      2.0770      0.5606      1.8597      2.3020      0.4394      0.1855      0.4692      0.5604      2.3020   -999.2500      2.0770     -7.1270    -43.3634     -7.1270    -10.1814      0.0298      0.0597      0.0597      0.1989
   1068.5000      2.1000      0.5642      1.8652      2.2890      0.4358      0.1853      0.4684      0.5589      2.2890   -999.2500      2.1000     -6.7110    -43.3664     -6.7110     -9.5871      0.0326      0.0652      0.0652      0.2172
   1069.0000      2.1230      0.5690      1.8726      2.2770      0.4310      0.1849      0.4673      0.5569      2.2770   -999.2500      2.1230     -6.2940    -43.3695     -6.2940     -8.9914      0.0363      0.0726      0.0726      0.2420
   1069.5000      2.1270      0.5713      1.8761      2.2640      0.4287      0.1847      0.4667      0.5559      2.2640   -999.2500      2.1270     -6.0960    -43.3725     -6.0960     -8.7086      0.0381      0.0761      0.0761      0.2538
   1070.0000      2.1060      0.5737      1.8797      2.2520      0.4263      0.1845      0.4662      0.5549      2.2520   -999.2500      2.1060     -5.8970    -43.3755     -5.8970     -8.4243      0.0398      0.0797      0.0797      0.2657
   1070.5000      2.0860      0.5749      1.8816      2.2400      0.4251      0.1844      0.4659      0.5544      2.2400   -999.2500      2.0860     -5.7890    -43.3786     -5.7890     -8.2700      0.0408      0.0816      0.0816      0.2721
   1071.0000      2.0420      0.5762      1.8835      2.2350      0.4238      0.1843      0.4656      0.5539      2.2350   -999.2500      2.0420     -5.6820    -43.3816     -5.6820     -8.1171      0.0418      0.0835      0.0835      0.2785
   1071.5000      2.0200      0.5725      1.8779      2.2300      0.4275      0.1846      0.4664      0.5554      2.2300   -999.2500      2.0200     -6.0000    -43.3846     -6.0000     -8.5714      0.0389      0.0779      0.0779      0.2595
   1072.0000      1.9990      0.5628      1.8629      2.2320      0.4372      0.1854      0.4687      0.5594      2.2320   -999.2500      1.9990     -6.8360    -43.3877     -6.8360     -9.7657      0.0315      0.0629      0.0629      0.2098
   1072.5000      1.9650      0.5613      1.8606      2.2340      0.4387      0.1855      0.4690      0.5601      2.2340   -999.2500      1.9650     -6.9690    -43.3907     -6.9690     -9.9557      0.0303      0.0606      0.0606      0.2018
   1073.0000      1.9310      0.5620      1.8617      2.2360      0.4380      0.1854      0.4688      0.5597      2.2360   -999.2500      1.9310     -6.9030    -43.3938     -6.9030     -9.8614      0.0309      0.0617      0.0617      0.2058
   1073.5000      1.8840      0.5628      1.8629      2.2340      0.4372      0.1853      0.4686      0.5594      2.2340   -999.2500      1.8840     -6.8360    -43.3968     -6.8360     -9.7657      0.0315      0.0629      0.0629      0.2098
   1074.0000      1.8630      0.5667      1.8688      2.2320      0.4333      0.1851      0.4677      0.5578      2.2320   -999.2500      1.8630     -6.5050    -43.3998     -6.5050     -9.2929      0.0344      0.0688      0.0688      0.2295
   1074.5000      1.8470      0.5637      1.8642      2.2170      0.4363      0.1853      0.4684      0.5590      2.2170   -999.2500      1.8470     -6.7640    -43.4029     -6.7640     -9.6629      0.0321      0.0642      0.0642      0.2140
   1075.0000      1.8300      0.5609      1.8599      2.2010      0.4391      0.1855      0.4690      0.5602      2.2010   -999.2500      1.8300     -7.0230    -43.4059     -7.0230    -10.0329      0.0300      0.0599      0.0599      0.1998
   1075.5000      1.8110      0.5605      1.8593      2.1790      0.4395      0.1855      0.4691      0.5603      2.1790   -999.2500      1.8110     -7.2910    -43.4089     -7.2910    -10.4157      0.0296      0.0593      0.0593      0.1975
   1076.0000      1.7930      0.5601      1.8586      2.1570      0.4399      0.1855      0.4692      0.5605      2.1570   -999.2500      1.7930     -7.5580    -43.4120     -7.5580    -10.7971      0.0293      0.0586      0.0586      0.1952
   1076.5000      1.8040      0.5598      1.8581      2.1450      0.4402      0.1856      0.4693      0.5606      2.1450   -999.2500      1.8040     -7.7440    -43.4150     -7.7440    -11.0629      0.0290      0.0581      0.0581      0.1936
   1077.0000      1.8160      0.5599      1.8583      2.1320      0.4401      0.1856      0.4692      0.5606      2.1320   -999.2500      1.8160     -7.6780    -43.4180     -7.6780    -10.9686      0.0291      0.0583      0.0583      0.1942
   1077.5000      1.8520      0.5600      1.8584      2.1200      0.4400      0.1855      0.4692      0.5605      2.1200   -999.2500      1.8520     -7.6120    -43.4211     -7.6120    -10.8743      0.0292      0.0584      0.0584      0.1948
   1078.0000      1.8780      0.5602      1.8587      2.1180      0.4398      0.1855      0.4691      0.5604      2.1180   -999.2500      1.8780     -7.4960    -43.4241     -7.4960    -10.7086      0.0294      0.0587      0.0587      0.1958
   1078.5000      1.9020      0.5604      1.8590      2.1160      0.4396      0.1855      0.4691      0.5603      2.1160   -999.2500      1.9020     -7.3800    -43.4272     -7.3800    -10.5429      0.0295      0.0590      0.0590      0.1968
   1079.0000      1.9080      0.5605      1.8591      2.1260      0.4395      0.1855      0.4691      0.5603      2.1260   -999.2500      1.9080     -7.3390    -43.4302     -7.3390    -10.4843      0.0296      0.0591      0.0591      0.1971
   1079.5000      1.9150      0.5606      1.8592      2.1360      0.4394      0.1855      0.4690      0.5603      2.1360   -999.2500      1.9150     -7.2980    -43.4332     -7.2980    -10.4257      0.0296      0.0592      0.0592      0.1975
