~V
VERS. 2.00: Ver 2.00
WRAP.   NO:        
~W
 STRT.FT 200:
 STOP.FT 3880:
 STEP.FT 0.5:
 NULL. -999.250000:
 COMP. Standard (Chevron):Company
 WELL. KCL 24-37:Well
 FLD. :Field
 LOC. S19 T11N R22W:Location
 STAT. CA:State
 SRVC. :Service Company
 SON. :Service Order #
 DATE. :Log Date
 UWI. 0370300:Unique Well ID
~C
 DEPT.FT :
 LAT.OHMM :
 LTHE. :
 MM. :
 PHES. :
 PHMX. :
 PHTS. :
 PHZC. :
 RD.OHMM :
 ROS. :
 RS.OHMM :
 SBL.MV :
 SCLN. :
 SN.OHMM :
 SP.MV :
 SPN. :
 VCDS. :
 VCLY. :
 VCWS. :
 VCY. :
 VSHS. :
~P
~A
# ...
   3480.0000      3.7710      2.1101      2.8829      0.0000   -999.2500      0.2692      0.2419      3.7710   -999.2500      3.7060     -4.4926    -44.7240      3.7060     -7.0640     -4.2786      0.3039      0.6330      0.5731      0.6330      2.1101
   3480.5000      3.7740      2.0942      2.8807      0.0000   -999.2500      0.2695      0.2424      3.7740   -999.2500      3.7096     -4.8124    -44.7165      3.7096     -7.3890     -4.5832      0.3016      0.6283      0.5711      0.6283      2.0942
   3481.0000      3.7780      2.0782      2.8785      0.0000   -999.2500      0.2698      0.2428      3.7780   -999.2500      3.7136     -5.1332    -44.7091      3.7136     -7.7150     -4.8887      0.2993      0.6235      0.5690      0.6235      2.0782
   3481.5000      3.7170      2.0460      2.8741      0.0000   -999.2500      0.2703      0.2438      3.7170   -999.2500      3.7172     -5.7790    -44.7016      3.7172     -8.3660     -5.5038      0.2946      0.6138      0.5649      0.6138      2.0460
   3482.0000      3.7210      2.0385      2.8731      0.0000   -999.2500      0.2704      0.2440      3.7210   -999.2500      3.7208     -5.9298    -44.6942      3.7208     -8.5220     -5.6474      0.2935      0.6116      0.5640      0.6116      2.0385
   3482.5000      3.7240      2.0309      2.8721      0.0000   -999.2500      0.2706      0.2442      3.7240   -999.2500      3.7244     -6.0816    -44.6867      3.7244     -8.6790     -5.7920      0.2924      0.6093      0.5630      0.6093      2.0309
   3483.0000      3.7270      2.0234      2.8710      0.0000   -999.2500      0.2707      0.2445      3.7270   -999.2500      3.7280     -6.2324    -44.6793      3.7280     -8.8350     -5.9356      0.2914      0.6070      0.5620      0.6070      2.0234
   3483.5000      3.7300      2.0198      2.8706      0.0000   -999.2500      0.2707      0.2446      3.7300   -999.2500      3.7320     -6.3032    -44.6719      3.7320     -8.9110     -6.0031      0.2908      0.6059      0.5616      0.6059      2.0198
   3484.0000      3.7350      2.0163      2.8701      0.0000   -999.2500      0.2708      0.2447      3.7350   -999.2500      3.7356     -6.3730    -44.6644      3.7356     -8.9860     -6.0695      0.2903      0.6049      0.5611      0.6049      2.0163
   3484.5000      3.7050      2.0210      2.8708      0.0000   -999.2500      0.2707      0.2445      3.7050   -999.2500      3.7392     -6.2768    -44.6570      3.7392     -8.8950     -5.9779      0.2910      0.6063      0.5617      0.6063      2.0210
   3485.0000      3.6750      2.0257      2.8715      0.0000   -999.2500      0.2706      0.2444      3.6750   -999.2500      3.7420     -6.1816    -44.6495      3.7420     -8.8050     -5.8873      0.2917      0.6077      0.5623      0.6077      2.0257
   3485.5000      3.6780      2.0600      2.8763      0.0000   -999.2500      0.2700      0.2433      3.6780   -999.2500      3.7448     -5.4904    -44.6421      3.7448     -8.1190     -5.2290      0.2966      0.6180      0.5667      0.6180      2.0600
   3486.0000      3.6820      2.0773      2.8787      0.0000   -999.2500      0.2697      0.2428      3.6820   -999.2500      3.7504     -5.1422    -44.6347      3.7504     -7.7760     -4.8974      0.2991      0.6232      0.5689      0.6232      2.0773
   3486.5000      3.6520      2.0779      2.8788      0.0000   -999.2500      0.2697      0.2428      3.6520   -999.2500      3.7528     -5.1290    -44.6272      3.7528     -7.7680     -4.8848      0.2992      0.6234      0.5689      0.6234      2.0779
   3487.0000      3.6210      2.0785      2.8789      0.0000   -999.2500      0.2697      0.2428      3.6210   -999.2500      3.7556     -5.1158    -44.6198      3.7556     -7.7600     -4.8722      0.2993      0.6236      0.5690      0.6236      2.0785
   3487.5000      3.6250      2.0878      2.8802      0.0000   -999.2500      0.2695      0.2425      3.6250   -999.2500      3.7612     -4.9296    -44.6123      3.7612     -7.5790     -4.6949      0.3006      0.6263      0.5702      0.6263      2.0878
   3488.0000      3.6280      2.0885      2.8803      0.0000   -999.2500      0.2695      0.2425      3.6280   -999.2500      3.7636     -4.9145    -44.6049      3.7636     -7.5690     -4.6804      0.3007      0.6265      0.5703      0.6265      2.0885
   3488.5000      3.5990      2.0892      2.8805      0.0000   -999.2500      0.2695      0.2424      3.5990   -999.2500      3.7660     -4.8993    -44.5974      3.7660     -7.5590     -4.6660      0.3008      0.6268      0.5704      0.6268      2.0892
   3489.0000      3.5690      2.0982      2.8817      0.0000   -999.2500      0.2693      0.2422      3.5690   -999.2500      3.7684     -4.7171    -44.5900      3.7684     -7.3820     -4.4924      0.3021      0.6295      0.5715      0.6295      2.0982
   3489.5000      3.5730      2.0863      2.8801      0.0000   -999.2500      0.2695      0.2425      3.5730   -999.2500      3.7720     -4.9559    -44.5826      3.7720     -7.6260     -4.7199      0.3004      0.6259      0.5700      0.6259      2.0863
   3490.0000      3.5770      2.0743      2.8785      0.0000   -999.2500      0.2697      0.2429      3.5770   -999.2500      3.7760     -5.1957    -44.5751      3.7760     -7.8710     -4.9483      0.2987      0.6223      0.5684      0.6223      2.0743
   3490.5000      3.5800      2.0255      2.8717      0.0000   -999.2500      0.2706      0.2443      3.5800   -999.2500      3.7796     -6.1745    -44.5677      3.7796     -8.8550     -5.8805      0.2917      0.6076      0.5622      0.6076      2.0255
   3491.0000      3.5840      1.9930      2.8673      0.0000   -999.2500      0.2711      0.2453      3.5840   -999.2500      3.7832     -6.8253    -44.5602      3.7832     -9.5110     -6.5003      0.2870      0.5979      0.5581      0.5979      1.9930
   3491.5000      3.5880      1.9728      2.8645      0.0000   -999.2500      0.2715      0.2459      3.5880   -999.2500      3.7868     -7.2291    -44.5528      3.7868     -9.9200     -6.8848      0.2841      0.5918      0.5555      0.5918      1.9728
   3492.0000      3.5920      1.9526      2.8617      0.0000   -999.2500      0.2718      0.2465      3.5920   -999.2500      3.7904     -7.6329    -44.5453      3.7904    -10.3290     -7.2694      0.2812      0.5858      0.5530      0.5858      1.9526
   3492.5000      3.5960      1.9618      2.8630      0.0000   -999.2500      0.2716      0.2462      3.5960   -999.2500      3.7940     -7.4457    -44.5379      3.7940    -10.1470     -7.0911      0.2825      0.5885      0.5541      0.5885      1.9618
   3493.0000      3.6010      2.0124      2.8701      0.0000   -999.2500      0.2708      0.2447      3.6010   -999.2500      3.7980     -6.4315    -44.5305      3.7980     -9.1380     -6.1252      0.2898      0.6037      0.5606      0.6037      2.0124
   3493.5000      3.6040      2.0214      2.8713      0.0000   -999.2500      0.2706      0.2444      3.6040   -999.2500      3.8036     -6.2493    -44.5230      3.8036     -8.9610     -5.9517      0.2911      0.6064      0.5617      0.6064      2.0214
   3494.0000      3.6070      2.0055      2.8692      0.0000   -999.2500      0.2709      0.2449      3.6070   -999.2500      3.8392     -6.5671    -44.5156      3.8392     -9.2840     -6.2544      0.2888      0.6017      0.5597      0.6017      2.0055
   3494.5000      3.6100      1.9812      2.8658      0.0000   -999.2500      0.2713      0.2456      3.6100   -999.2500      3.8752     -7.0519    -44.5081      3.8752     -9.7740     -6.7161      0.2853      0.5944      0.5566      0.5944      1.9812
   3495.0000      3.6150      1.9404      2.8602      0.0000   -999.2500      0.2720      0.2468      3.6150   -999.2500      3.9452     -7.8687    -44.5000      3.9452    -10.5960     -7.4940      0.2794      0.5821      0.5514      0.5821      1.9404
   3495.5000      3.6180      1.9158      2.8568      0.0000   -999.2500      0.2724      0.2476      3.6180   -999.2500      4.0152     -8.3535    -44.4586      4.0152    -11.0860     -7.9557      0.2759      0.5747      0.5483      0.5747      1.9158
