~V
VERS. 2.00: Ver 2.00
WRAP.   NO:        
~W
 STRT.FT 200:
 STOP.FT 3880:
 STEP.FT 0.5:
 NULL. -999.250000:
 COMP. Standard (Chevron):Company
 WELL. KCL 24-37:Well
 FLD. :Field
 LOC. S19 T11N R22W:Location
 STAT. CA:State
 SRVC. :Service Company
 SON. :Service Order #
 DATE. :Log Date
 UWI. 0370300:Unique Well ID
~C
 DEPT.FT :
 LAT.OHMM :
 LTHE. :
 MM. :
 PHES. :
 PHMX. :
 PHTS. :
 PHZC. :
 RD.OHMM :
 ROS. :
 RS.OHMM :
 SBL.MV :
 SCLN. :
 SN.OHMM :
 SP.MV :
 SPN. :
 VCDS. :
 VCLY. :
 VCWS. :
 VCY. :
 VSHS. :
~P
~A
# ...
   3768.0000      7.0940      1.4384      2.8052      0.0000   -999.2500      0.2244      0.2592      7.0940   -999.2500      8.5536     -9.2470   -999.2500      8.5536    -13.2470     -8.8067      0.2071      0.4315      0.4315      0.4377      1.4384
   3768.5000      7.1310      1.3570      2.7940      0.0000   -999.2500      0.2117      0.2616      7.1310   -999.2500      8.5572     -9.8210   -999.2500      8.5572    -13.8210     -9.3533      0.1954      0.4071      0.4071      0.4214      1.3570
   3769.0000      7.1670      1.2757      2.7828      0.0000   -999.2500      0.1990      0.2640      7.1670   -999.2500      8.5604    -10.3940   -999.2500      8.5604    -14.3940     -9.8990      0.1837      0.3827      0.3827      0.4051      1.2757
   3769.5000      7.2400      1.3731      2.7963      0.0000   -999.2500      0.2142      0.2611      7.2400   -999.2500      8.5004     -9.7070   -999.2500      8.5004    -13.7070     -9.2448      0.1977      0.4119      0.4119      0.4246      1.3731
   3770.0000      7.2770      1.4221      2.8031      0.0000   -999.2500      0.2218      0.2596      7.2770   -999.2500      8.4384     -9.3620   -999.2500      8.4384    -13.3620     -8.9162      0.2048      0.4266      0.4266      0.4344      1.4221
   3770.5000      7.3130      1.4473      2.8066      0.0000   -999.2500      0.2258      0.2589      7.3130   -999.2500      8.4088     -9.1840   -999.2500      8.4088    -13.1840     -8.7467      0.2084      0.4342      0.4342      0.4395      1.4473
   3771.0000      7.2530      1.4962      2.8134      0.0000   -999.2500      0.2334      0.2574      7.2530   -999.2500      8.3788     -8.8390   -999.2500      8.3788    -12.8390     -8.4181      0.2155      0.4489      0.4489      0.4492      1.4962
   3771.5000      7.0580      1.5143      2.8160      0.0000   -999.2500      0.2362      0.2569      7.0580   -999.2500      8.3188     -8.6610   -999.2500      8.3188    -12.6610     -8.2486      0.2181      0.4543      0.4543      0.4543      1.5143
   3772.0000      6.8640      1.5313      2.8183      0.0000   -999.2500      0.2389      0.2563      6.8640   -999.2500      8.2568     -8.4820   -999.2500      8.2568    -12.4820     -8.0781      0.2205      0.4594      0.4594      0.4594      1.5313
   3772.5000      6.6690      1.5321      2.8185      0.0000   -999.2500      0.2390      0.2563      6.6690   -999.2500      8.1608     -8.4730   -999.2500      8.1608    -12.4730     -8.0695      0.2206      0.4596      0.4596      0.4596      1.5321
   3773.0000      6.4730      1.5330      2.8186      0.0000   -999.2500      0.2391      0.2563      6.4730   -999.2500      8.0648     -8.4640   -999.2500      8.0648    -12.4640     -8.0610      0.2207      0.4599      0.4599      0.4599      1.5330
   3773.5000      6.4110      1.5264      2.8177      0.0000   -999.2500      0.2381      0.2565      6.4110   -999.2500      7.9384     -8.5330   -999.2500      7.9384    -12.5330     -8.1267      0.2198      0.4579      0.4579      0.4579      1.5264
   3774.0000      6.7130      1.5199      2.8169      0.0000   -999.2500      0.2371      0.2567      6.7130   -999.2500      7.9424     -8.6020   -999.2500      7.9424    -12.6020     -8.1924      0.2189      0.4560      0.4560      0.4560      1.5199
   3774.5000      7.0160      1.5049      2.8148      0.0000   -999.2500      0.2348      0.2571      7.0160   -999.2500      7.9460     -8.7610   -999.2500      7.9460    -12.7610     -8.3438      0.2167      0.4515      0.4515      0.4515      1.5049
   3775.0000      7.2220      1.4853      2.8121      0.0000   -999.2500      0.2317      0.2577      7.2220   -999.2500      7.9492     -8.9160   -999.2500      7.9492    -12.9160     -8.4914      0.2139      0.4456      0.4456      0.4471      1.4853
   3775.5000      7.4580      1.4279      2.8042      0.0000   -999.2500      0.2227      0.2594      7.4580   -999.2500      8.0220     -9.3210   -999.2500      8.0220    -13.3210     -8.8771      0.2056      0.4284      0.4284      0.4356      1.4279
   3776.0000      7.6950      1.3706      2.7963      0.0000   -999.2500      0.2138      0.2611      7.6950   -999.2500      8.1248     -9.7250   -999.2500      8.1248    -13.7250     -9.2619      0.1974      0.4112      0.4112      0.4241      1.3706
   3776.5000      7.8310      1.3013      2.7867      0.0000   -999.2500      0.2030      0.2632      7.8310   -999.2500      8.2276    -10.2130   -999.2500      8.2276    -14.2130     -9.7267      0.1874      0.3904      0.3904      0.4103      1.3013
   3777.0000      7.9670      1.3975      2.8001      0.0000   -999.2500      0.2180      0.2603      7.9670   -999.2500      8.5656     -9.5350   -999.2500      8.5656    -13.5350     -9.0810      0.2012      0.4193      0.4193      0.4295      1.3975
   3777.5000      8.1060      1.5115      2.8159      0.0000   -999.2500      0.2358      0.2569      8.1060   -999.2500      8.7028     -8.6910   -999.2500      8.7028    -12.6910     -8.2771      0.2177      0.4534      0.4534      0.4534      1.5115
   3778.0000      8.1760      1.5441      2.8204      0.0000   -999.2500      0.2409      0.2559      8.1760   -999.2500      8.7732     -8.3460   -999.2500      8.7732    -12.3460     -7.9486      0.2224      0.4632      0.4632      0.4632      1.5441
   3778.5000      8.1810      1.5686      2.8238      0.0000   -999.2500      0.2447      0.2552      8.1810   -999.2500      8.7776     -8.0870   -999.2500      8.7776    -12.0870     -7.7019      0.2259      0.4706      0.4706      0.4706      1.5686
   3779.0000      7.9860      1.5932      2.8273      0.0000   -999.2500      0.2485      0.2544      7.9860   -999.2500      8.7480     -7.8270   -999.2500      8.7480    -11.8270     -7.4543      0.2294      0.4780      0.4780      0.4780      1.5932
   3779.5000      7.8580      1.6105      2.8297      0.0000   -999.2500      0.2512      0.2539      7.8580   -999.2500      8.7180     -7.6440   -999.2500      8.7180    -11.6440     -7.2800      0.2319      0.4831      0.4831      0.4831      1.6105
   3780.0000      7.8280      1.6430      2.8342      0.0000   -999.2500      0.2563      0.2529      7.8280   -999.2500      8.4592     -7.3000   -999.2500      8.4592    -11.3000     -6.9524      0.2366      0.4929      0.4929      0.4929      1.6430
   3780.5000      7.7980      1.6600      2.8366      0.0000   -999.2500      0.2590      0.2524      7.7980   -999.2500      8.3308     -7.1210   -999.2500      8.3308    -11.1210     -6.7819      0.2390      0.4980      0.4980      0.4980      1.6600
   3781.0000      7.8040      1.6687      2.8378      0.0000   -999.2500      0.2603      0.2521      7.8040   -999.2500      8.2688     -7.0290   -999.2500      8.2688    -11.0290     -6.6943      0.2403      0.5006      0.5006      0.5006      1.6687
   3781.5000      7.9410      1.6774      2.8391      0.0000   -999.2500      0.2617      0.2519      7.9410   -999.2500      8.2732     -6.9360   -999.2500      8.2732    -10.9360     -6.6057      0.2416      0.5032      0.5032      0.5032      1.6774
   3782.0000      8.0770      1.6948      2.8415      0.0000   -999.2500      0.2644      0.2513      8.0770   -999.2500      8.3440     -6.7530   -999.2500      8.3440    -10.7530     -6.4314      0.2440      0.5084      0.5084      0.5084      1.6948
   3782.5000      8.2800      1.7116      2.8439      0.0000   -999.2500      0.2670      0.2508      8.2800   -999.2500      8.4800     -6.5750   -999.2500      8.4800    -10.5750     -6.2619      0.2465      0.5135      0.5135      0.5135      1.7116
   3783.0000      8.4830      1.7282      2.8462      0.0000   -999.2500      0.2696      0.2503      8.4830   -999.2500      8.6160     -6.3990   -999.2500      8.6160    -10.3990     -6.0943      0.2489      0.5185      0.5185      0.5185      1.7282
   3783.5000      9.0200      1.7449      2.8485      0.0000   -999.2500      0.2722      0.2498      9.0200   -999.2500      9.0204     -6.2230   -999.2500      9.0204    -10.2230     -5.9267      0.2513      0.5235      0.5235      0.5235      1.7449
