~V
VERS. 2.00: Ver 2.00
WRAP.   NO:        
~W
 STRT.FT 200:
 STOP.FT 1850:
 STEP.FT 0.5:
 NULL. -999.250000:
 COMP. Standard (Texaco):Company
 WELL. KCL 24-32:Well
 FLD. :Field
 LOC. S30 T11N R22W:Location
 STAT. CA:State
 SRVC. :Service Company
 SON. :Service Order #
 DATE. :Log Date
 UWI. 0369000:Unique Well ID
~C
 DEPT.FT :
 AM.OHMM :
 LTHE. :
 MM. :
 OA.OHMM :
 PHES. :
 PHMX. :
 PHTS. :
 PHZC. :
 RD.OHMM :
 ROS. :
 RS.OHMM :
 SBL.MV :
 SCLN. :
 SP.MV :
 SPN. :
 VCDS. :
 VCLY. :
 VCWS. :
 VSHS. :
~P
~A
# ...
   1726.0000      3.5270      0.5535      1.8240      5.2660      0.4465      0.1846      0.4585      0.5555      5.2660      0.6324      3.5270    -42.6920    -95.0000    -42.6920    -60.9886      0.0120      0.0240      0.0240      0.0800
   1726.5000      3.5630      0.5541      1.8250      5.2020      0.4459      0.1846      0.4583      0.5553      5.2020      0.6420      3.5630    -41.7360    -95.0000    -41.7360    -59.6229      0.0125      0.0250      0.0250      0.0832
   1727.0000      3.4790      0.5555      1.8271      3.7940      0.4445      0.1845      0.4580      0.5547      3.7940      0.6638      3.4790    -39.6370    -95.0000    -39.6370    -56.6243      0.0135      0.0271      0.0271      0.0903
   1727.5000      3.3950      0.5569      1.8292      3.1900      0.4431      0.1844      0.4577      0.5541      3.1900      0.6865      3.3950    -37.5390    -95.0000    -37.5390    -53.6272      0.0146      0.0292      0.0292      0.0973
   1728.0000      2.9450      0.5570      1.8293      2.7740      0.4430      0.1844      0.4577      0.5541      2.7740      0.6877      2.9450    -37.4270    -95.0000    -37.4270    -53.4671      0.0147      0.0293      0.0293      0.0977
   1728.5000      2.7670      0.5547      1.8257      2.8070      0.4453      0.1846      0.4582      0.5550      2.8070      0.6496      2.7670    -40.9830    -95.0000    -40.9830    -58.5471      0.0129      0.0257      0.0257      0.0858
   1729.0000      2.5550      0.5544      1.8253      3.0340      0.4456      0.1846      0.4582      0.5551      3.0340      0.6449      2.5550    -41.4360    -95.0000    -41.4360    -59.1943      0.0126      0.0253      0.0253      0.0842
   1729.5000      2.3100      0.5558      1.8275      3.2040      0.4442      0.1845      0.4579      0.5545      3.2040      0.6676      2.3100    -39.2560    -95.0000    -39.2560    -56.0800      0.0137      0.0275      0.0275      0.0916
   1730.0000      2.1750      0.5564      1.8283      3.2440      0.4436      0.1844      0.4578      0.5543      3.2440      0.6769      2.1750    -38.3910    -95.0000    -38.3910    -54.8443      0.0142      0.0283      0.0283      0.0945
   1730.5000      2.0400      0.5569      1.8291      3.2830      0.4431      0.1844      0.4576      0.5541      3.2830      0.6848      2.0400    -37.6680    -95.0000    -37.6680    -53.8114      0.0145      0.0291      0.0291      0.0969
   1731.0000      1.8050      0.5574      1.8298      3.2020      0.4426      0.1843      0.4575      0.5539      3.2020      0.6928      1.8050    -36.9450    -95.0000    -36.9450    -52.7786      0.0149      0.0298      0.0298      0.0993
   1731.5000      1.5930      0.5575      1.8300      2.4850      0.4425      0.1843      0.4575      0.5538      2.4850      0.6947      1.5930    -36.7730    -95.0000    -36.7730    -52.5329      0.0150      0.0300      0.0300      0.0999
   1732.0000      1.4960      0.5576      1.8301      2.0850      0.4424      0.1843      0.4574      0.5538      2.0850      0.6966      1.4960    -36.6020    -95.0000    -36.6020    -52.2886      0.0151      0.0301      0.0301      0.1005
   1732.5000      1.4620      0.5574      1.8297      1.8470      0.4426      0.1843      0.4575      0.5539      1.8470      0.6915      1.4620    -37.0470    -95.0000    -37.0470    -52.9243      0.0149      0.0297      0.0297      0.0990
   1733.0000      1.4410      0.5571      1.8293      1.7050      0.4429      0.1844      0.4575      0.5540      1.7050      0.6865      1.4410    -37.4920    -95.0000    -37.4920    -53.5600      0.0146      0.0293      0.0293      0.0975
   1733.5000      1.4630      0.5573      1.8296      1.6730      0.4427      0.1843      0.4575      0.5539      1.6730      0.6898      1.4630    -37.1960    -95.0000    -37.1960    -53.1371      0.0148      0.0296      0.0296      0.0985
   1734.0000      1.5200      0.5576      1.8301      1.6400      0.4424      0.1843      0.4574      0.5537      1.6400      0.6953      1.5200    -36.6990    -95.0000    -36.6990    -52.4271      0.0150      0.0301      0.0301      0.1002
   1734.5000      1.5960      0.5582      1.8310      1.6280      0.4418      0.1843      0.4572      0.5535      1.6280      0.7057      1.5960    -35.7860    -95.0000    -35.7860    -51.1229      0.0155      0.0310      0.0310      0.1032
   1735.0000      1.7220      0.5586      1.8315      1.6160      0.4414      0.1842      0.4572      0.5533      1.6160      0.7112      1.7220    -35.3050    -95.0000    -35.3050    -50.4357      0.0157      0.0315      0.0315      0.1049
   1735.5000      1.8260      0.5589      1.8319      1.6280      0.4411      0.1842      0.4571      0.5532      1.6280      0.7168      1.8260    -34.8240    -95.0000    -34.8240    -49.7486      0.0160      0.0319      0.0319      0.1065
   1736.0000      1.9290      0.5600      1.8336      1.6480      0.4400      0.1841      0.4568      0.5527      1.6480      0.7368      1.9290    -33.2100    -95.0000    -33.2100    -47.4429      0.0168      0.0336      0.0336      0.1119
   1736.5000      2.0350      0.5609      1.8350      1.6670      0.4391      0.1841      0.4566      0.5523      1.6670      0.7814      2.0350    -31.7970    -95.0000    -31.7970    -45.4243      0.0175      0.0350      0.0350      0.1166
   1737.0000      2.1180      0.5614      1.8358      2.0410      0.4386      0.1840      0.4565      0.5521      2.0410      0.8082      2.1180    -30.9990    -95.0000    -30.9990    -44.2843      0.0179      0.0358      0.0358      0.1193
   1737.5000      2.0690      0.5612      1.8354      2.4190      0.4388      0.1840      0.4565      0.5522      2.4190      0.7950      2.0690    -31.3860    -95.0000    -31.3860    -44.8371      0.0177      0.0354      0.0354      0.1180
   1738.0000      2.0200      0.5603      1.8340      2.6430      0.4397      0.1841      0.4567      0.5526      2.6430      0.7495      2.0200    -32.7900    -95.0000    -32.7900    -46.8429      0.0170      0.0340      0.0340      0.1133
   1738.5000      1.9460      0.5595      1.8327      2.7750      0.4405      0.1842      0.4569      0.5529      2.7750      0.7259      1.9460    -34.0280    -95.0000    -34.0280    -48.6114      0.0164      0.0327      0.0327      0.1091
   1739.0000      1.8710      0.5592      1.8322      2.9060      0.4408      0.1842      0.4570      0.5530      2.9060      0.7199      1.8710    -34.5310    -95.0000    -34.5310    -49.3300      0.0161      0.0322      0.0322      0.1075
   1739.5000      1.8270      0.5590      1.8320      3.0690      0.4410      0.1842      0.4570      0.5531      3.0690      0.7167      1.8270    -34.8010    -95.0000    -34.8010    -49.7157      0.0160      0.0320      0.0320      0.1066
   1740.0000      1.8810      0.5588      1.8317      3.1020      0.4412      0.1842      0.4570      0.5532      3.1020      0.7135      1.8810    -35.0700    -95.0000    -35.0700    -50.1000      0.0158      0.0317      0.0317      0.1056
   1740.5000      1.9360      0.5586      1.8314      3.1350      0.4414      0.1842      0.4570      0.5532      3.1350      0.7095      1.9360    -35.4080    -95.0000    -35.4080    -50.5829      0.0157      0.0314      0.0314      0.1045
   1741.0000      2.0340      0.5589      1.8317      3.2150      0.4411      0.1842      0.4570      0.5531      3.2150      0.7136      2.0340    -35.0530    -95.0000    -35.0530    -50.0757      0.0159      0.0317      0.0317      0.1057
   1741.5000      2.1320      0.5591      1.8321      3.2880      0.4409      0.1842      0.4569      0.5530      3.2880      0.7177      2.1320    -34.6990    -95.0000    -34.6990    -49.5700      0.0160      0.0321      0.0321      0.1069
   1742.0000      2.4090      0.5593      1.8324      3.3460      0.4407      0.1842      0.4569      0.5529      3.3460      0.7214      2.4090    -34.3840    -95.0000    -34.3840    -49.1200      0.0162      0.0324      0.0324      0.1080
   1742.5000      2.5730      0.5596      1.8327      3.4040      0.4404      0.1842      0.4568      0.5528      3.4040      0.7251      2.5730    -34.0690    -95.0000    -34.0690    -48.6700      0.0164      0.0327      0.0327      0.1090
