~V
VERS. 2.00: Ver 2.00
WRAP.   NO:        
~W
 STRT.FT 200:
 STOP.FT 3880:
 STEP.FT 0.5:
 NULL. -999.250000:
 COMP. Standard (Chevron):Company
 WELL. KCL 24-37:Well
 FLD. :Field
 LOC. S19 T11N R22W:Location
 STAT. CA:State
 SRVC. :Service Company
 SON. :Service Order #
 DATE. :Log Date
 UWI. 0370300:Unique Well ID
~C
 DEPT.FT :
 LAT.OHMM :
 LTHE. :
 MM. :
 PHES. :
 PHMX. :
 PHTS. :
 PHZC. :
 RD.OHMM :
 ROS. :
 RS.OHMM :
 SBL.MV :
 SCLN. :
 SN.OHMM :
 SP.MV :
 SPN. :
 VCDS. :
 VCLY. :
 VCWS. :
 VCY. :
 VSHS. :
~P
~A
# ...
   3288.0000      3.0980      1.5850      2.7999      0.0000   -999.2500      0.2473      0.2596      3.0980   -999.2500      4.7604    -16.0124    -47.5471      4.7604    -16.5890    -15.2499      0.2282      0.4755      0.4755      0.4755      1.5850
   3288.5000      3.0370      1.6401      2.8076      0.0000   -999.2500      0.2559      0.2579      3.0370   -999.2500      4.5652    -14.8312    -47.5428      4.5652    -15.4130    -14.1249      0.2362      0.4920      0.4920      0.4920      1.6401
   3289.0000      3.0070      1.6875      2.8142      0.0000   -999.2500      0.2633      0.2565      3.0070   -999.2500      4.4360    -13.8150    -47.5386      4.4360    -14.4020    -13.1571      0.2430      0.5063      0.5063      0.5063      1.6875
   3289.5000      2.9770      1.7271      2.8197      0.0000   -999.2500      0.2694      0.2553      2.9770   -999.2500      4.4048    -12.9668    -47.5343      4.4048    -13.5590    -12.3493      0.2487      0.5181      0.5181      0.5181      1.7271
   3290.0000      2.9160      1.7590      2.8241      0.0000   -999.2500      0.2744      0.2543      2.9160   -999.2500      4.3732    -12.2846    -47.5300      4.3732    -12.8820    -11.6996      0.2533      0.5277      0.5277      0.5277      1.7590
   3290.5000      2.8970      1.7986      2.8297      0.0000   -999.2500      0.2764      0.2531      2.8970   -999.2500      4.3124    -11.4364    -47.5258      4.3124    -12.0390    -10.8918      0.2590      0.5396      0.5354      0.5396      1.7986
   3291.0000      2.8780      1.8071      2.8309      0.0000   -999.2500      0.2763      0.2529      2.8780   -999.2500      4.3160    -11.2532    -47.5215      4.3160    -11.8610    -10.7173      0.2602      0.5421      0.5365      0.5421      1.8071
   3291.5000      2.8580      1.8234      2.8331      0.0000   -999.2500      0.2760      0.2524      2.8580   -999.2500      4.2856    -10.9040    -47.5172      4.2856    -11.5170    -10.3848      0.2626      0.5470      0.5386      0.5470      1.8234
   3292.0000      2.8620      1.8201      2.8327      0.0000   -999.2500      0.2761      0.2525      2.8620   -999.2500      4.2552    -10.9738    -47.5129      4.2552    -11.5920    -10.4513      0.2621      0.5460      0.5381      0.5460      1.8201
   3292.5000      2.8660      1.8168      2.8323      0.0000   -999.2500      0.2761      0.2526      2.8660   -999.2500      4.2608    -11.0436    -47.5087      4.2608    -11.6670    -10.5177      0.2616      0.5450      0.5377      0.5450      1.8168
   3293.0000      2.9030      1.7980      2.8297      0.0000   -999.2500      0.2764      0.2531      2.9030   -999.2500      4.2644    -11.4434    -47.5044      4.2644    -12.0720    -10.8985      0.2589      0.5394      0.5353      0.5394      1.7980
   3293.5000      2.9390      1.7792      2.8271      0.0000   -999.2500      0.2767      0.2537      2.9390   -999.2500      4.2680    -11.8442    -47.5000      4.2680    -12.4780    -11.2802      0.2562      0.5338      0.5329      0.5338      1.7792
   3294.0000      2.9450      1.7567      2.8240      0.0000   -999.2500      0.2740      0.2544      2.9450   -999.2500      4.2716    -12.3230    -47.4926      4.2716    -12.9620    -11.7362      0.2530      0.5270      0.5270      0.5270      1.7567
   3294.5000      2.9480      1.7340      2.8209      0.0000   -999.2500      0.2705      0.2550      2.9480   -999.2500      4.2752    -12.8068    -47.4851      4.2752    -13.4510    -12.1970      0.2497      0.5202      0.5202      0.5202      1.7340
   3295.0000      2.9500      1.7229      2.8194      0.0000   -999.2500      0.2688      0.2554      2.9500   -999.2500      4.2792    -13.0426    -47.4777      4.2792    -13.6920    -12.4216      0.2481      0.5169      0.5169      0.5169      1.7229
   3295.5000      3.0220      1.7117      2.8179      0.0000   -999.2500      0.2670      0.2557      3.0220   -999.2500      4.2484    -13.2785    -47.4702      4.2484    -13.9330    -12.6461      0.2465      0.5135      0.5135      0.5135      1.7117
   3296.0000      3.0250      1.6892      2.8148      0.0000   -999.2500      0.2635      0.2564      3.0250   -999.2500      4.2180    -13.7573    -47.4628      4.2180    -14.4170    -13.1022      0.2432      0.5068      0.5068      0.5068      1.6892
   3296.5000      3.0280      1.6821      2.8138      0.0000   -999.2500      0.2624      0.2566      3.0280   -999.2500      4.2236    -13.9081    -47.4553      4.2236    -14.5730    -13.2458      0.2422      0.5046      0.5046      0.5046      1.6821
   3297.0000      3.0320      1.6749      2.8129      0.0000   -999.2500      0.2613      0.2568      3.0320   -999.2500      4.1932    -14.0579    -47.4479      4.1932    -14.7280    -13.3884      0.2412      0.5025      0.5025      0.5025      1.6749
   3297.5000      3.0370      1.6755      2.8130      0.0000   -999.2500      0.2614      0.2568      3.0370   -999.2500      4.1628    -14.0427    -47.4405      4.1628    -14.7180    -13.3740      0.2413      0.5027      0.5027      0.5027      1.6755
   3298.0000      3.0410      1.6762      2.8131      0.0000   -999.2500      0.2615      0.2567      3.0410   -999.2500      4.1684    -14.0265    -47.4330      4.1684    -14.7070    -13.3586      0.2414      0.5029      0.5029      0.5029      1.6762
   3298.5000      3.0440      1.6925      2.8154      0.0000   -999.2500      0.2640      0.2562      3.0440   -999.2500      4.1720    -13.6773    -47.4256      4.1720    -14.3630    -13.0260      0.2437      0.5077      0.5077      0.5077      1.6925
   3299.0000      3.0480      1.7087      2.8177      0.0000   -999.2500      0.2666      0.2557      3.0480   -999.2500      4.1756    -13.3281    -47.4181      4.1756    -14.0190    -12.6934      0.2461      0.5126      0.5126      0.5126      1.7087
   3299.5000      3.0170      1.7406      2.8221      0.0000   -999.2500      0.2715      0.2548      3.0170   -999.2500      4.1784    -12.6459    -47.4107      4.1784    -13.3420    -12.0437      0.2506      0.5222      0.5222      0.5222      1.7406
   3300.0000      2.9870      1.7489      2.8233      0.0000   -999.2500      0.2728      0.2545      2.9870   -999.2500      4.1812    -12.4667    -47.4033      4.1812    -13.1680    -11.8731      0.2518      0.5247      0.5247      0.5247      1.7489
   3300.5000      2.9930      1.7572      2.8245      0.0000   -999.2500      0.2741      0.2543      2.9930   -999.2500      4.1868    -12.2885    -47.3958      4.1868    -12.9950    -11.7033      0.2530      0.5272      0.5272      0.5272      1.7572
   3301.0000      3.0630      1.7424      2.8224      0.0000   -999.2500      0.2718      0.2547      3.0630   -999.2500      4.1900    -12.6023    -47.3884      4.1900    -13.3140    -12.0022      0.2509      0.5227      0.5227      0.5227      1.7424
   3301.5000      3.0660      1.7273      2.8204      0.0000   -999.2500      0.2695      0.2552      3.0660   -999.2500      4.1932    -12.9221    -47.3809      4.1932    -13.6390    -12.3068      0.2487      0.5182      0.5182      0.5182      1.7273
   3302.0000      3.0690      1.7278      2.8205      0.0000   -999.2500      0.2695      0.2551      3.0690   -999.2500      4.1992    -12.9089    -47.3735      4.1992    -13.6310    -12.2942      0.2488      0.5183      0.5183      0.5183      1.7278
   3302.5000      3.0750      1.7205      2.8195      0.0000   -999.2500      0.2684      0.2554      3.0750   -999.2500      4.2352    -13.0617    -47.3660      4.2352    -13.7890    -12.4397      0.2478      0.5162      0.5162      0.5162      1.7205
   3303.0000      3.1120      1.7211      2.8196      0.0000   -999.2500      0.2685      0.2553      3.1120   -999.2500      4.2716    -13.0485    -47.3586      4.2716    -13.7810    -12.4272      0.2478      0.5163      0.5163      0.5163      1.7211
   3303.5000      3.1480      1.7138      2.8186      0.0000   -999.2500      0.2674      0.2556      3.1480   -999.2500      4.2756    -13.2013    -47.3512      4.2756    -13.9390    -12.5727      0.2468      0.5141      0.5141      0.5141      1.7138
