~V
VERS. 2.00: Ver 2.00
WRAP.   NO:        
~W
 STRT.FT 200:
 STOP.FT 1850:
 STEP.FT 0.5:
 NULL. -999.250000:
 COMP. Standard (Texaco):Company
 WELL. KCL 24-32:Well
 FLD. :Field
 LOC. S30 T11N R22W:Location
 STAT. CA:State
 SRVC. :Service Company
 SON. :Service Order #
 DATE. :Log Date
 UWI. 0369000:Unique Well ID
~C
 DEPT.FT :
 AM.OHMM :
 LTHE. :
 MM. :
 OA.OHMM :
 PHES. :
 PHMX. :
 PHTS. :
 PHZC. :
 RD.OHMM :
 ROS. :
 RS.OHMM :
 SBL.MV :
 SCLN. :
 SP.MV :
 SPN. :
 VCDS. :
 VCLY. :
 VCWS. :
 VSHS. :
~P
~A
# ...
    842.0000      3.7730      0.5547      1.8591      6.7200      0.4453      0.1865      0.4749      0.5655      6.7200   -999.2500      3.7730     -7.3300    -41.9725     -7.3300    -10.4714      0.0296      0.0591      0.0591      0.1971
    842.5000      3.5310      0.5547      1.8592      6.4420      0.4453      0.1865      0.4749      0.5655      6.4420   -999.2500      3.5310     -7.3170    -41.9821     -7.3170    -10.4529      0.0296      0.0592      0.0592      0.1972
    843.0000      3.3940      0.5552      1.8599      6.1970      0.4448      0.1864      0.4747      0.5653      6.1970   -999.2500      3.3940     -7.0330    -41.9917     -7.0330    -10.0471      0.0300      0.0599      0.0599      0.1997
    843.5000      3.3300      0.5553      1.8600      6.0560      0.4447      0.1864      0.4747      0.5652      6.0560   -999.2500      3.3300     -7.0010    -42.0000     -7.0010    -10.0014      0.0300      0.0600      0.0600      0.2000
    844.0000      3.2660      0.5551      1.8598      5.9090      0.4449      0.1864      0.4747      0.5653      5.9090   -999.2500      3.2660     -7.0850    -42.0030     -7.0850    -10.1214      0.0299      0.0598      0.0598      0.1992
    844.5000      3.1920      0.5550      1.8595      5.8950      0.4450      0.1864      0.4748      0.5653      5.8950   -999.2500      3.1920     -7.1700    -42.0061     -7.1700    -10.2429      0.0298      0.0595      0.0595      0.1985
    845.0000      3.1630      0.5546      1.8589      5.9370      0.4454      0.1865      0.4748      0.5655      5.9370   -999.2500      3.1630     -7.4060    -42.0091     -7.4060    -10.5800      0.0295      0.0589      0.0589      0.1964
    845.5000      3.1350      0.5554      1.8602      5.9780      0.4446      0.1864      0.4746      0.5652      5.9780   -999.2500      3.1350     -6.9900    -42.0121     -6.9900     -9.9857      0.0301      0.0602      0.0602      0.2006
    846.0000      3.1040      0.5603      1.8676      6.2220      0.4397      0.1860      0.4735      0.5631      6.2220   -999.2500      3.1040     -6.5730    -42.0152     -6.5730     -9.3900      0.0338      0.0676      0.0676      0.2254
    846.5000      3.1050      0.5674      1.8785      6.3020      0.4326      0.1855      0.4719      0.5602      6.3020   -999.2500      3.1050     -5.9660    -42.0182     -5.9660     -8.5229      0.0392      0.0785      0.0785      0.2615
    847.0000      3.1060      0.5745      1.8893      6.2970      0.4255      0.1850      0.4702      0.5572      6.2970   -999.2500      3.1060     -5.3580    -42.0213     -5.3580     -7.6543      0.0447      0.0893      0.0893      0.2977
    847.5000      3.1070      0.5808      1.8991      6.2920      0.4192      0.1845      0.4687      0.5546      6.2920   -999.2500      3.1070     -4.8110    -42.0243     -4.8110     -6.8729      0.0495      0.0991      0.0991      0.3303
    848.0000      3.1230      0.5812      1.8997      6.2870      0.4188      0.1844      0.4686      0.5544      6.2870   -999.2500      3.1230     -4.7780    -42.0273     -4.7780     -6.8257      0.0498      0.0997      0.0997      0.3323
    848.5000      3.1430      0.5816      1.9008      6.2810      0.4184      0.1844      0.4685      0.5543      6.2810   -999.2500      3.1430     -4.7460    -42.0304     -4.7460     -6.7800      0.0501      0.1003      0.1003      0.3342
    849.0000      3.1630      0.5813      1.8998      6.2840      0.4187      0.1844      0.4686      0.5544      6.2840   -999.2500      3.1630     -4.7720    -42.0334     -4.7720     -6.8171      0.0499      0.0998      0.0998      0.3326
    849.5000      3.1820      0.5810      1.8993      6.2870      0.4190      0.1845      0.4686      0.5545      6.2870   -999.2500      3.1820     -4.7990    -42.0364     -4.7990     -6.8557      0.0497      0.0993      0.0993      0.3310
    850.0000      3.2340      0.5810      1.8993      6.2900      0.4190      0.1845      0.4686      0.5545      6.2900   -999.2500      3.2340     -4.8010    -42.0395     -4.8010     -6.8586      0.0496      0.0993      0.0993      0.3309
    850.5000      3.2860      0.5811      1.8994      6.3900      0.4189      0.1844      0.4686      0.5544      6.3900   -999.2500      3.2860     -4.7930    -42.0425     -4.7930     -6.8471      0.0497      0.0994      0.0994      0.3314
    851.0000      3.4040      0.5812      1.8996      6.4570      0.4188      0.1844      0.4685      0.5544      6.4570   -999.2500      3.4040     -4.7850    -42.0455     -4.7850     -6.8357      0.0498      0.0996      0.0996      0.3318
    851.5000      3.5230      0.5814      1.8998      6.5260      0.4186      0.1844      0.4685      0.5543      6.5260   -999.2500      3.5230     -4.7700    -42.0486     -4.7700     -6.8143      0.0499      0.0998      0.0998      0.3327
    852.0000      3.5980      0.5816      1.9003      6.5940      0.4184      0.1844      0.4684      0.5542      6.5940   -999.2500      3.5980     -4.7550    -42.0516     -4.7550     -6.7929      0.0500      0.1001      0.1001      0.3336
    852.5000      3.6730      0.5803      1.8981      6.6270      0.4197      0.1845      0.4687      0.5547      6.6270   -999.2500      3.6730     -4.8640    -42.0547     -4.8640     -6.9486      0.0491      0.0981      0.0981      0.3271
    853.0000      3.7260      0.5791      1.8962      6.6600      0.4209      0.1846      0.4690      0.5553      6.6600   -999.2500      3.7260     -4.9730    -42.0577     -4.9730     -7.1043      0.0481      0.0962      0.0962      0.3207
    853.5000      3.7760      0.5741      1.8886      6.6740      0.4259      0.1850      0.4702      0.5573      6.6740   -999.2500      3.7760     -5.4000    -42.0607     -5.4000     -7.7143      0.0443      0.0886      0.0886      0.2952
    854.0000      3.7960      0.5692      1.8809      6.6870      0.4308      0.1853      0.4713      0.5594      6.6870   -999.2500      3.7960     -5.8270    -42.0638     -5.8270     -8.3243      0.0405      0.0809      0.0809      0.2698
    854.5000      3.8220      0.5640      1.8730      6.6830      0.4360      0.1857      0.4725      0.5615      6.6830   -999.2500      3.8220     -6.2710    -42.0668     -6.2710     -8.9586      0.0365      0.0730      0.0730      0.2434
    855.0000      3.8350      0.5589      1.8651      6.6790      0.4411      0.1861      0.4737      0.5636      6.6790   -999.2500      3.8350     -6.7150    -42.0698     -6.7150     -9.5929      0.0325      0.0651      0.0651      0.2170
    855.5000      3.8580      0.5611      1.8685      6.6710      0.4389      0.1859      0.4731      0.5627      6.6710   -999.2500      3.8580     -6.5240    -42.0729     -6.5240     -9.3200      0.0342      0.0685      0.0685      0.2283
    856.0000      3.8820      0.5633      1.8719      6.6620      0.4367      0.1858      0.4726      0.5618      6.6620   -999.2500      3.8820     -6.3340    -42.0759     -6.3340     -9.0486      0.0359      0.0719      0.0719      0.2396
    856.5000      3.8880      0.5656      1.8753      6.6500      0.4344      0.1856      0.4721      0.5608      6.6500   -999.2500      3.8880     -6.1430    -42.0789     -6.1430     -8.7757      0.0377      0.0753      0.0753      0.2510
    857.0000      3.8510      0.5678      1.8787      6.6380      0.4322      0.1854      0.4716      0.5599      6.6380   -999.2500      3.8510     -5.9520    -42.0820     -5.9520     -8.5029      0.0394      0.0787      0.0787      0.2624
    857.5000      3.8000      0.5712      1.8839      6.6310      0.4288      0.1852      0.4708      0.5585      6.6310   -999.2500      3.8000     -5.6610    -42.0850     -5.6610     -8.0871      0.0420      0.0839      0.0839      0.2797
    858.0000      3.7400      0.5746      1.8891      6.6240      0.4254      0.1849      0.4700      0.5571      6.6240   -999.2500      3.7400     -5.3700    -42.0881     -5.3700     -7.6714      0.0446      0.0891      0.0891      0.2970
    858.5000      3.6800      0.5802      1.8977      6.6200      0.4198      0.1845      0.4686      0.5547      6.6200   -999.2500      3.6800     -4.8890    -42.0911     -4.8890     -6.9843      0.0488      0.0977      0.0977      0.3257
