~V
VERS. 2.00: Ver 2.00
WRAP.   NO:        
~W
 STRT.FT 200:
 STOP.FT 3880:
 STEP.FT 0.5:
 NULL. -999.250000:
 COMP. Standard (Chevron):Company
 WELL. KCL 24-37:Well
 FLD. :Field
 LOC. S19 T11N R22W:Location
 STAT. CA:State
 SRVC. :Service Company
 SON. :Service Order #
 DATE. :Log Date
 UWI. 0370300:Unique Well ID
~C
 DEPT.FT :
 LAT.OHMM :
 LTHE. :
 MM. :
 PHES. :
 PHMX. :
 PHTS. :
 PHZC. :
 RD.OHMM :
 ROS. :
 RS.OHMM :
 SBL.MV :
 SCLN. :
 SN.OHMM :
 SP.MV :
 SPN. :
 VCDS. :
 VCLY. :
 VCWS. :
 VCY. :
 VSHS. :
~P
~A
# ...
   2520.0000      4.8470      1.6122      2.7628      0.0000   -999.2500      0.2515      0.2664      4.8470   -999.2500      3.7840     -7.3010    -22.4999      3.7840    -11.3010     -6.9533      0.2322      0.4837      0.4837      0.4837      1.6122
   2520.5000      4.7840      1.5816      2.7585      0.0000   -999.2500      0.2467      0.2673      4.7840   -999.2500      3.7212     -7.6200    -22.5256      3.7212    -11.6200     -7.2571      0.2277      0.4745      0.4745      0.4745      1.5816
   2521.0000      4.7210      1.5833      2.7588      0.0000   -999.2500      0.2470      0.2673      4.7210   -999.2500      3.6580     -7.6110    -22.5512      3.6580    -11.6110     -7.2486      0.2280      0.4750      0.4750      0.4750      1.5833
   2521.5000      4.7250      1.6015      2.7614      0.0000   -999.2500      0.2498      0.2667      4.7250   -999.2500      3.6616     -7.4350    -22.5769      3.6616    -11.4350     -7.0810      0.2306      0.4805      0.4805      0.4805      1.6015
   2522.0000      4.7270      1.6195      2.7639      0.0000   -999.2500      0.2526      0.2662      4.7270   -999.2500      3.6648     -7.2600    -22.6025      3.6648    -11.2600     -6.9143      0.2332      0.4859      0.4859      0.4859      1.6195
   2522.5000      4.7300      1.6540      2.7687      0.0000   -999.2500      0.2580      0.2652      4.7300   -999.2500      3.6340     -6.9170    -22.6281      3.6340    -10.9170     -6.5876      0.2382      0.4962      0.4962      0.4962      1.6540
   2523.0000      4.6680      1.6064      2.7621      0.0000   -999.2500      0.2506      0.2666      4.6680   -999.2500      3.6032     -7.4100    -22.6538      3.6032    -11.4100     -7.0571      0.2313      0.4819      0.4819      0.4819      1.6064
   2523.5000      4.6710      1.5590      2.7556      0.0000   -999.2500      0.2432      0.2680      4.6710   -999.2500      3.6084     -7.9030    -22.6794      3.6084    -11.9030     -7.5267      0.2245      0.4677      0.4677      0.4677      1.5590
   2524.0000      4.6730      1.5281      2.7513      0.0000   -999.2500      0.2384      0.2689      4.6730   -999.2500      3.6108     -8.2270    -22.7051      3.6108    -12.2270     -7.8352      0.2201      0.4584      0.4584      0.4584      1.5281
   2524.5000      4.6790      1.4960      2.7469      0.0000   -999.2500      0.2334      0.2699      4.6790   -999.2500      3.6132     -8.5510    -22.7307      3.6132    -12.5510     -8.1438      0.2154      0.4488      0.4488      0.4492      1.4960
   2525.0000      4.6820      1.4497      2.7405      0.0000   -999.2500      0.2262      0.2713      4.6820   -999.2500      3.6168     -8.8770    -22.7563      3.6168    -12.8770     -8.4543      0.2088      0.4349      0.4349      0.4399      1.4497
   2525.5000      4.6840      1.4035      2.7341      0.0000   -999.2500      0.2189      0.2726      4.6840   -999.2500      3.6200     -9.2030    -22.7820      3.6200    -13.2030     -8.7648      0.2021      0.4210      0.4210      0.4307      1.4035
   2526.0000      4.6870      1.5678      2.7569      0.0000   -999.2500      0.2446      0.2677      4.6870   -999.2500      3.6252     -7.8570    -22.8076      3.6252    -11.8570     -7.4829      0.2258      0.4703      0.4703      0.4703      1.5678
   2526.5000      4.6570      1.6672      2.7707      0.0000   -999.2500      0.2601      0.2647      4.6570   -999.2500      3.5956     -6.8440    -22.8333      3.5956    -10.8440     -6.5181      0.2401      0.5002      0.5002      0.5002      1.6672
   2527.0000      4.6270      1.6930      2.7743      0.0000   -999.2500      0.2641      0.2639      4.6270   -999.2500      3.5656     -6.5870    -22.8589      3.5656    -10.5870     -6.2733      0.2438      0.5079      0.5079      0.5079      1.6930
   2527.5000      4.6320      1.7187      2.7779      0.0000   -999.2500      0.2681      0.2632      4.6320   -999.2500      3.5688     -6.3300    -22.8845      3.5688    -10.3300     -6.0286      0.2475      0.5156      0.5156      0.5156      1.7187
   2528.0000      4.6350      1.7530      2.7827      0.0000   -999.2500      0.2735      0.2621      4.6350   -999.2500      3.5724     -5.9830    -22.9102      3.5724     -9.9830     -5.6981      0.2524      0.5259      0.5259      0.5259      1.7530
   2528.5000      4.6370      1.7545      2.7829      0.0000   -999.2500      0.2737      0.2621      4.6370   -999.2500      3.5416     -5.9740    -22.9358      3.5416     -9.9740     -5.6895      0.2527      0.5264      0.5264      0.5264      1.7545
   2529.0000      4.6070      1.7560      2.7832      0.0000   -999.2500      0.2739      0.2620      4.6070   -999.2500      3.5108     -5.9650    -22.9615      3.5108     -9.9650     -5.6810      0.2529      0.5268      0.5268      0.5268      1.7560
   2529.5000      4.5770      1.7576      2.7834      0.0000   -999.2500      0.2742      0.2620      4.5770   -999.2500      3.4808     -5.9560    -22.9871      3.4808     -9.9560     -5.6724      0.2531      0.5273      0.5273      0.5273      1.7576
   2530.0000      4.5830      1.7592      2.7836      0.0000   -999.2500      0.2744      0.2619      4.5830   -999.2500      3.4512     -5.9460    -23.0127      3.4512     -9.9460     -5.6629      0.2533      0.5277      0.5277      0.5277      1.7592
   2530.5000      4.5200      1.7607      2.7839      0.0000   -999.2500      0.2747      0.2619      4.5200   -999.2500      3.4544     -5.9370    -23.0384      3.4544     -9.9370     -5.6543      0.2535      0.5282      0.5282      0.5282      1.7607
   2531.0000      4.4570      1.7620      2.7841      0.0000   -999.2500      0.2749      0.2618      4.4570   -999.2500      3.4580     -5.9300    -23.0640      3.4580     -9.9300     -5.6476      0.2537      0.5286      0.5286      0.5286      1.7620
   2531.5000      4.4370      1.7633      2.7843      0.0000   -999.2500      0.2751      0.2618      4.4370   -999.2500      3.4632     -5.9230    -23.0897      3.4632     -9.9230     -5.6410      0.2539      0.5290      0.5290      0.5290      1.7633
   2532.0000      4.4170      1.7650      2.7845      0.0000   -999.2500      0.2753      0.2617      4.4170   -999.2500      3.4664     -5.9120    -23.1153      3.4664     -9.9120     -5.6305      0.2542      0.5295      0.5295      0.5295      1.7650
   2532.5000      4.3970      1.7668      2.7848      0.0000   -999.2500      0.2756      0.2617      4.3970   -999.2500      3.4696     -5.9000    -23.1409      3.4696     -9.9000     -5.6190      0.2544      0.5300      0.5300      0.5300      1.7668
   2533.0000      4.3680      1.7682      2.7851      0.0000   -999.2500      0.2758      0.2616      4.3680   -999.2500      3.4720     -5.8910    -23.1666      3.4720     -9.8910     -5.6105      0.2546      0.5305      0.5305      0.5305      1.7682
   2533.5000      4.3390      1.7695      2.7853      0.0000   -999.2500      0.2760      0.2616      4.3390   -999.2500      3.4744     -5.8840    -23.1922      3.4744     -9.8840     -5.6038      0.2548      0.5309      0.5309      0.5309      1.7695
   2534.0000      4.2760      1.7708      2.7855      0.0000   -999.2500      0.2763      0.2615      4.2760   -999.2500      3.4136     -5.8770    -23.2179      3.4136     -9.8770     -5.5971      0.2550      0.5313      0.5313      0.5313      1.7708
   2534.5000      4.2790      1.7805      2.7868      0.0000   -999.2500      0.2778      0.2612      4.2790   -999.2500      3.4168     -5.7820    -23.2435      3.4168     -9.7820     -5.5067      0.2564      0.5342      0.5342      0.5342      1.7805
   2535.0000      4.2160      1.7901      2.7882      0.0000   -999.2500      0.2793      0.2609      4.2160   -999.2500      3.4200     -5.6880    -23.2692      3.4200     -9.6880     -5.4171      0.2578      0.5370      0.5370      0.5370      1.7901
   2535.5000      4.2200      1.7917      2.7884      0.0000   -999.2500      0.2795      0.2609      4.2200   -999.2500      3.4224     -5.6780    -23.2948      3.4224     -9.6780     -5.4076      0.2580      0.5375      0.5375      0.5375      1.7917
