~V
VERS. 2.00: Ver 2.00
WRAP.   NO:        
~W
 STRT.FT 200:
 STOP.FT 1850:
 STEP.FT 0.5:
 NULL. -999.250000:
 COMP. Standard (Texaco):Company
 WELL. KCL 24-32:Well
 FLD. :Field
 LOC. S30 T11N R22W:Location
 STAT. CA:State
 SRVC. :Service Company
 SON. :Service Order #
 DATE. :Log Date
 UWI. 0369000:Unique Well ID
~C
 DEPT.FT :
 AM.OHMM :
 LTHE. :
 MM. :
 OA.OHMM :
 PHES. :
 PHMX. :
 PHTS. :
 PHZC. :
 RD.OHMM :
 ROS. :
 RS.OHMM :
 SBL.MV :
 SCLN. :
 SP.MV :
 SPN. :
 VCDS. :
 VCLY. :
 VCWS. :
 VSHS. :
~P
~A
# ...
   1182.0000      2.0770      0.5681      1.8669      2.4520      0.4319      0.1847      0.4654      0.5559      2.4520   -999.2500      2.0770     -6.6160    -44.0557     -6.6160     -9.4514      0.0334      0.0669      0.0669      0.2229
   1182.5000      2.1000      0.5625      1.8582      2.4680      0.4375      0.1851      0.4667      0.5583      2.4680   -999.2500      2.1000     -7.7050    -44.0587     -7.7050    -11.0071      0.0291      0.0582      0.0582      0.1941
   1183.0000      2.1230      0.5630      1.8591      2.4840      0.4370      0.1851      0.4665      0.5580      2.4840   -999.2500      2.1230     -7.3580    -44.0618     -7.3580    -10.5114      0.0295      0.0591      0.0591      0.1970
   1183.5000      2.1520      0.5636      1.8600      2.4970      0.4364      0.1850      0.4664      0.5578      2.4970   -999.2500      2.1520     -7.0110    -44.0648     -7.0110    -10.0157      0.0300      0.0600      0.0600      0.1999
   1184.0000      2.1640      0.5757      1.8785      2.5090      0.4243      0.1841      0.4636      0.5528      2.5090   -999.2500      2.1640     -5.9660    -44.0679     -5.9660     -8.5229      0.0392      0.0785      0.0785      0.2615
   1184.5000      2.1730      0.5822      1.8885      2.5240      0.4178      0.1836      0.4620      0.5500      2.5240   -999.2500      2.1730     -5.4040    -44.0709     -5.4040     -7.7200      0.0443      0.0885      0.0885      0.2950
   1185.0000      2.1760      0.5805      1.8859      2.5380      0.4195      0.1838      0.4624      0.5507      2.5380   -999.2500      2.1760     -5.5490    -44.0739     -5.5490     -7.9271      0.0430      0.0859      0.0859      0.2864
   1185.5000      2.1650      0.5789      1.8833      2.5640      0.4211      0.1839      0.4628      0.5514      2.5640   -999.2500      2.1650     -5.6950    -44.0770     -5.6950     -8.1357      0.0417      0.0833      0.0833      0.2777
   1186.0000      2.1580      0.5755      1.8782      2.5810      0.4245      0.1841      0.4636      0.5528      2.5810   -999.2500      2.1580     -5.9830    -44.0800     -5.9830     -8.5471      0.0391      0.0782      0.0782      0.2605
   1186.5000      2.1500      0.5836      1.8906      2.5990      0.4164      0.1835      0.4617      0.5494      2.5990   -999.2500      2.1500     -5.2870    -44.0830     -5.2870     -7.5529      0.0453      0.0906      0.0906      0.3020
   1187.0000      2.1460      0.5890      1.8989      2.5780      0.4110      0.1831      0.4604      0.5472      2.5780   -999.2500      2.1460     -4.8230    -44.0861     -4.8230     -6.8900      0.0494      0.0989      0.0989      0.3296
   1187.5000      2.1420      0.5926      1.9138      2.5670      0.4074      0.1829      0.4596      0.5457      2.5670   -999.2500      2.1420     -4.5180    -44.0891     -4.5180     -6.4543      0.0522      0.1043      0.1043      0.3477
   1188.0000      2.1620      0.5962      1.9313      2.5530      0.4038      0.1826      0.4587      0.5442      2.5530   -999.2500      2.1620     -4.2130    -44.0921     -4.2130     -6.0186      0.0549      0.1098      0.1098      0.3659
   1188.5000      2.1820      0.5925      1.9134      2.5390      0.4075      0.1829      0.4595      0.5457      2.5390   -999.2500      2.1820     -4.5260    -44.0952     -4.5260     -6.4657      0.0521      0.1042      0.1042      0.3473
   1189.0000      2.2030      0.5889      1.8986      2.5240      0.4111      0.1831      0.4604      0.5472      2.5240   -999.2500      2.2030     -4.8400    -44.0982     -4.8400     -6.9143      0.0493      0.0986      0.0986      0.3286
   1189.5000      2.3260      0.5830      1.8896      2.5170      0.4170      0.1836      0.4617      0.5496      2.5170   -999.2500      2.3260     -5.3440    -44.1013     -5.3440     -7.6343      0.0448      0.0896      0.0896      0.2986
   1190.0000      2.3990      0.5735      1.8749      2.5090      0.4265      0.1843      0.4640      0.5536      2.5090   -999.2500      2.3990     -6.1640    -44.1043     -6.1640     -8.8057      0.0375      0.0749      0.0749      0.2498
   1190.5000      2.4720      0.5640      1.8603      2.5520      0.4360      0.1850      0.4662      0.5575      2.5520   -999.2500      2.4720     -6.9850    -44.1073     -6.9850     -9.9786      0.0301      0.0603      0.0603      0.2009
   1191.0000      2.8920      0.5600      1.8542      2.6680      0.4400      0.1853      0.4671      0.5592      2.6680   -999.2500      2.8920     -9.3090    -44.1104     -9.3090    -13.2986      0.0271      0.0542      0.0542      0.1807
   1191.5000      3.0460      0.5583      1.8515      2.8010      0.4417      0.1854      0.4675      0.5599      2.8010   -999.2500      3.0460    -10.3970    -44.1134    -10.3970    -14.8529      0.0257      0.0515      0.0515      0.1715
   1192.0000      3.3700      0.5568      1.8492      2.8990      0.4432      0.1855      0.4678      0.5605      2.8990   -999.2500      3.3700    -11.2850    -44.1164    -11.2850    -16.1214      0.0246      0.0492      0.0492      0.1641
   1192.5000      3.6910      0.5560      1.8479      2.9970      0.4440      0.1856      0.4680      0.5608      2.9970   -999.2500      3.6910    -11.8230    -44.1195    -11.8230    -16.8900      0.0239      0.0479      0.0479      0.1596
   1193.0000      3.8870      0.5557      1.8474      3.2240      0.4443      0.1856      0.4680      0.5609      3.2240   -999.2500      3.8870    -12.0010    -44.1225    -12.0010    -17.1443      0.0237      0.0474      0.0474      0.1581
   1193.5000      4.0640      0.5554      1.8470      3.2970      0.4446      0.1856      0.4681      0.5611      3.2970   -999.2500      4.0640    -12.1800    -44.1255    -12.1800    -17.4000      0.0235      0.0470      0.0470      0.1566
   1194.0000      4.1970      0.5552      1.8467      3.3700      0.4448      0.1857      0.4681      0.5611      3.3700   -999.2500      4.1970    -12.3060    -44.1286    -12.3060    -17.5800      0.0233      0.0467      0.0467      0.1556
   1194.5000      4.2470      0.5550      1.8464      3.4730      0.4450      0.1857      0.4681      0.5612      3.4730   -999.2500      4.2470    -12.4320    -44.1316    -12.4320    -17.7600      0.0232      0.0464      0.0464      0.1545
   1195.0000      4.2780      0.5548      1.8460      3.5050      0.4452      0.1857      0.4682      0.5613      3.5050   -999.2500      4.2780    -12.5590    -44.1347    -12.5590    -17.9414      0.0230      0.0460      0.0460      0.1535
   1195.5000      4.3090      0.5547      1.8458      3.5580      0.4453      0.1857      0.4682      0.5613      3.5580   -999.2500      4.3090    -12.6680    -44.1377    -12.6680    -18.0971      0.0229      0.0458      0.0458      0.1526
   1196.0000      4.3340      0.5545      1.8455      3.5770      0.4455      0.1857      0.4682      0.5614      3.5770   -999.2500      4.3340    -12.7780    -44.1407    -12.7780    -18.2543      0.0227      0.0455      0.0455      0.1516
   1196.5000      4.2500      0.5543      1.8452      3.5970      0.4457      0.1857      0.4683      0.5615      3.5970   -999.2500      4.2500    -12.8880    -44.1438    -12.8880    -18.4114      0.0226      0.0452      0.0452      0.1507
   1197.0000      4.1150      0.5542      1.8449      3.6160      0.4458      0.1857      0.4683      0.5615      3.6160   -999.2500      4.1150    -13.0100    -44.1468    -13.0100    -18.5857      0.0225      0.0449      0.0449      0.1497
   1197.5000      3.9270      0.5540      1.8446      3.6120      0.4460      0.1857      0.4683      0.5616      3.6120   -999.2500      3.9270    -13.1310    -44.1498    -13.1310    -18.7586      0.0223      0.0446      0.0446      0.1487
   1198.0000      3.5140      0.5538      1.8443      3.5570      0.4462      0.1858      0.4684      0.5617      3.5570   -999.2500      3.5140    -13.2600    -44.1529    -13.2600    -18.9429      0.0221      0.0443      0.0443      0.1476
   1198.5000      3.3490      0.5536      1.8440      3.4730      0.4464      0.1858      0.4684      0.5618      3.4730   -999.2500      3.3490    -13.3890    -44.1559    -13.3890    -19.1271      0.0220      0.0440      0.0440      0.1466
