~V
VERS. 2.00: Ver 2.00
WRAP.   NO:        
~W
 STRT.FT 200:
 STOP.FT 1850:
 STEP.FT 0.5:
 NULL. -999.250000:
 COMP. Standard (Texaco):Company
 WELL. KCL 24-32:Well
 FLD. :Field
 LOC. S30 T11N R22W:Location
 STAT. CA:State
 SRVC. :Service Company
 SON. :Service Order #
 DATE. :Log Date
 UWI. 0369000:Unique Well ID
~C
 DEPT.FT :
 AM.OHMM :
 LTHE. :
 MM. :
 OA.OHMM :
 PHES. :
 PHMX. :
 PHTS. :
 PHZC. :
 RD.OHMM :
 ROS. :
 RS.OHMM :
 SBL.MV :
 SCLN. :
 SP.MV :
 SPN. :
 VCDS. :
 VCLY. :
 VCWS. :
 VSHS. :
~P
~A
    200.0000   -999.2500      1.0000   -999.2500   -999.2500      0.0000 49090916870222007100000000000.0000      0.5000 270000019174388625000000000000.0000   -999.2500   -999.2500   -999.2500   -999.2500   -999.2500   -999.2500   -999.2500      0.3500   -999.2500      0.7000      1.0000
    200.5000   -999.2500      1.0000   -999.2500   -999.2500      0.0000 49090916870222007100000000000.0000      0.5000 270000019174388625000000000000.0000   -999.2500   -999.2500   -999.2500   -999.2500   -999.2500   -999.2500   -999.2500      0.3500   -999.2500      0.7000      1.0000
    201.0000   -999.2500      1.0000   -999.2500   -999.2500      0.0000 49090916870222007100000000000.0000      0.5000 270000019174388625000000000000.0000   -999.2500   -999.2500   -999.2500   -999.2500   -999.2500   -999.2500   -999.2500      0.3500   -999.2500      0.7000      1.0000
    201.5000   -999.2500      1.0000   -999.2500   -999.2500      0.0000 49090916870222007100000000000.0000      0.5000 270000019174388625000000000000.0000   -999.2500   -999.2500   -999.2500   -999.2500   -999.2500   -999.2500   -999.2500      0.3500   -999.2500      0.7000      1.0000
    202.0000      0.1220      1.0000   -999.2500   -999.2500      0.0000 49090916870222007100000000000.0000      0.5000 270000019174388625000000000000.0000   -999.2500   -999.2500      0.1220   -999.2500   -999.2500   -999.2500   -999.2500      0.3500   -999.2500      0.7000      1.0000
    202.5000      1.1640      0.8500   -999.2500      0.6530      0.1500 49090916870222007100000000000.0000      0.5000 270000019174388625000000000000.0000      0.6530   -999.2500      1.1640   -999.2500   -999.2500   -999.2500   -999.2500      0.3500   -999.2500      0.7000      0.8500
    203.0000      2.2050      0.8500   -999.2500      0.6160      0.1500 49090916870222007100000000000.0000      0.5000 270000019174388625000000000000.0000      0.6160   -999.2500      2.2050   -999.2500   -999.2500   -999.2500   -999.2500      0.3500   -999.2500      0.7000      0.8500
    203.5000      3.2470      0.8500   -999.2500      0.4450      0.1500 49090916870222007100000000000.0000      0.5000 270000019174388625000000000000.0000      0.4450   -999.2500      3.2470   -999.2500   -999.2500   -999.2500   -999.2500      0.3500   -999.2500      0.7000      0.8500
    204.0000     10.8080      0.8500   -999.2500      0.4100      0.1500 49090916870222007100000000000.0000      0.5000 270000019174388625000000000000.0000      0.4100   -999.2500     10.8080   -999.2500   -999.2500   -999.2500   -999.2500      0.3500   -999.2500      0.7000      0.8500
    204.5000     14.1050      0.8500   -999.2500      0.7070      0.1500 49090916870222007100000000000.0000      0.5000 270000019174388625000000000000.0000      0.7070   -999.2500     14.1050   -999.2500   -999.2500   -999.2500   -999.2500      0.3500   -999.2500      0.7000      0.8500
    205.0000     15.5020      0.8500   -999.2500      2.3040      0.1500 49090916870222007100000000000.0000      0.5000 270000019174388625000000000000.0000      2.3040   -999.2500     15.5020   -999.2500   -999.2500   -999.2500   -999.2500      0.3500   -999.2500      0.7000      0.8500
    205.5000     16.5990      0.8500   -999.2500      3.5670      0.1500 49090916870222007100000000000.0000      0.5000 270000019174388625000000000000.0000      3.5670   -999.2500     16.5990   -999.2500   -999.2500   -999.2500   -999.2500      0.3500   -999.2500      0.7000      0.8500
    206.0000     17.3290      0.8500   -999.2500      4.0990      0.1500 49090916870222007100000000000.0000      0.5000 270000019174388625000000000000.0000      4.0990   -999.2500     17.3290   -999.2500   -999.2500   -999.2500   -999.2500      0.3500   -999.2500      0.7000      0.8500
    206.5000     17.8270      0.8500   -999.2500      3.7620      0.1500 49090916870222007100000000000.0000      0.5000 270000019174388625000000000000.0000      3.7620   -999.2500     17.8270   -999.2500   -999.2500   -999.2500   -999.2500      0.3500   -999.2500      0.7000      0.8500
    207.0000     17.9570      0.8500   -999.2500      3.4260      0.1500 49090916870222007100000000000.0000      0.5000 270000019174388625000000000000.0000      3.4260   -999.2500     17.9570   -999.2500   -999.2500   -999.2500   -999.2500      0.3500   -999.2500      0.7000      0.8500
    207.5000     17.1210      0.8500   -999.2500      3.0400      0.1500 49090916870222007100000000000.0000      0.5000 270000019174388625000000000000.0000      3.0400   -999.2500     17.1210   -999.2500   -999.2500   -999.2500   -999.2500      0.3500   -999.2500      0.7000      0.8500
    208.0000     15.8180      0.8500   -999.2500      2.6540      0.1500 49090916870222007100000000000.0000      0.5000 270000019174388625000000000000.0000      2.6540   -999.2500     15.8180   -999.2500   -999.2500   -999.2500   -999.2500      0.3500   -999.2500      0.7000      0.8500
    208.5000     14.8820      0.8500   -999.2500      2.4180      0.1500 49090916870222007100000000000.0000      0.5000 270000019174388625000000000000.0000      2.4180   -999.2500     14.8820   -999.2500   -999.2500   -999.2500   -999.2500      0.3500   -999.2500      0.7000      0.8500
    209.0000     14.5130      0.8500   -999.2500      2.1830      0.1500 49090916870222007100000000000.0000      0.5000 270000019174388625000000000000.0000      2.1830   -999.2500     14.5130   -999.2500   -999.2500   -999.2500   -999.2500      0.3500   -999.2500      0.7000      0.8500
    209.5000     14.1440      0.8500   -999.2500      1.9470      0.1500 49090916870222007100000000000.0000      0.5000 270000019174388625000000000000.0000      1.9470   -999.2500     14.1440   -999.2500   -999.2500   -999.2500   -999.2500      0.3500   -999.2500      0.7000      0.8500
    210.0000     13.7400      0.8500   -999.2500      1.7420      0.1500 49090916870222007100000000000.0000      0.5000 270000019174388625000000000000.0000      1.7420   -999.2500     13.7400   -999.2500   -999.2500   -999.2500   -999.2500      0.3500   -999.2500      0.7000      0.8500
    210.5000     13.6050      0.8500   -999.2500      1.7060      0.1500 49090916870222007100000000000.0000      0.5000 270000019174388625000000000000.0000      1.7060   -999.2500     13.6050   -999.2500   -999.2500   -999.2500   -999.2500      0.3500   -999.2500      0.7000      0.8500
    211.0000     13.7520      0.8500   -999.2500      1.6710      0.1500 49090916870222007100000000000.0000      0.5000 270000019174388625000000000000.0000      1.6710   -999.2500     13.7520   -999.2500   -999.2500   -999.2500   -999.2500      0.3500   -999.2500      0.7000      0.8500
    211.5000     13.9000      0.8500   -999.2500      1.6350      0.1500 49090916870222007100000000000.0000      0.5000 270000019174388625000000000000.0000      1.6350   -999.2500     13.9000   -999.2500   -999.2500   -999.2500   -999.2500      0.3500   -999.2500      0.7000      0.8500
    212.0000     14.5790      0.8500   -999.2500      1.5990      0.1500 49090916870222007100000000000.0000      0.5000 270000019174388625000000000000.0000      1.5990   -999.2500     14.5790   -999.2500   -999.2500   -999.2500   -999.2500      0.3500   -999.2500      0.7000      0.8500
    212.5000     15.2590      0.8500   -999.2500      3.5280      0.1500 49090916870222007100000000000.0000      0.5000 270000019174388625000000000000.0000      3.5280   -999.2500     15.2590   -999.2500   -999.2500   -999.2500   -999.2500      0.3500   -999.2500      0.7000      0.8500
    213.0000     15.5900      0.8500   -999.2500      6.3580      0.1500 49090916870222007100000000000.0000      0.5000 270000019174388625000000000000.0000      6.3580   -999.2500     15.5900   -999.2500   -999.2500   -999.2500   -999.2500      0.3500   -999.2500      0.7000      0.8500
    213.5000     15.9220      0.8500   -999.2500      9.7220      0.1500 49090916870222007100000000000.0000      0.5000 270000019174388625000000000000.0000      9.7220   -999.2500     15.9220   -999.2500   -999.2500   -999.2500   -999.2500      0.3500   -999.2500      0.7000      0.8500
