~V
VERS. 2.00: Ver 2.00
WRAP.   NO:        
~W
 STRT.FT 200:
 STOP.FT 1850:
 STEP.FT 0.5:
 NULL. -999.250000:
 COMP. Standard (Texaco):Company
 WELL. KCL 24-32:Well
 FLD. :Field
 LOC. S30 T11N R22W:Location
 STAT. CA:State
 SRVC. :Service Company
 SON. :Service Order #
 DATE. :Log Date
 UWI. 0369000:Unique Well ID
~C
 DEPT.FT :
 AM.OHMM :
 LTHE. :
 MM. :
 OA.OHMM :
 PHES. :
 PHMX. :
 PHTS. :
 PHZC. :
 RD.OHMM :
 ROS. :
 RS.OHMM :
 SBL.MV :
 SCLN. :
 SP.MV :
 SPN. :
 VCDS. :
 VCLY. :
 VCWS. :
 VSHS. :
~P
~A
# ...
    638.0000     16.5510      0.5392      1.8430      2.1170      0.4608      0.1881      0.4823      0.5744      2.1170   -999.2500     16.5510    -11.9550   -999.2500    -11.9550    -17.0786      0.0215      0.0430      0.0430      0.1434
    638.5000     18.6810      0.5392      1.8431      2.3160      0.4608      0.1881      0.4823      0.5743      2.3160   -999.2500     18.6810    -11.9420   -999.2500    -11.9420    -17.0600      0.0215      0.0431      0.0431      0.1435
    639.0000     19.8440      0.5393      1.8431      2.7360      0.4607      0.1881      0.4823      0.5743      2.7360   -999.2500     19.8440    -11.9300   -999.2500    -11.9300    -17.0429      0.0215      0.0431      0.0431      0.1437
    639.5000     21.1570      0.5176      1.8097      3.3080      0.4824      0.1897      0.4873      0.5833      3.3080   -999.2500     21.1570    -21.6650   -999.2500    -21.6650    -30.9500      0.0049      0.0097      0.0097      0.0324
    640.0000     22.4700      0.5148      1.8054      4.0740      0.4852      0.1899      0.4879      0.5845      4.0740   -999.2500     22.4700    -22.9350   -999.2500    -22.9350    -32.7643      0.0027      0.0054      0.0054      0.0179
    640.5000     27.0310      0.5145      1.8049      4.9930      0.4855      0.1899      0.4879      0.5846      4.9930   -999.2500     27.0310    -23.0720   -999.2500    -23.0720    -32.9600      0.0024      0.0049      0.0049      0.0163
    641.0000     28.3610      0.5203      1.8138      5.3320      0.4797      0.1895      0.4866      0.5822      5.3320   -999.2500     28.3610    -20.4770   -999.2500    -20.4770    -29.2529      0.0069      0.0138      0.0138      0.0460
    641.5000     29.3570      0.5219      1.8163      5.8980      0.4781      0.1894      0.4862      0.5815      5.8980   -999.2500     29.3570    -19.7490   -999.2500    -19.7490    -28.2129      0.0081      0.0163      0.0163      0.0543
    642.0000     32.5200      0.5232      1.8183      6.1040      0.4768      0.1893      0.4859      0.5809      6.1040   -999.2500     32.5200    -19.1680   -999.2500    -19.1680    -27.3829      0.0091      0.0183      0.0183      0.0609
    642.5000     36.8820      0.5245      1.8203      5.8570      0.4755      0.1892      0.4856      0.5804      5.8570   -999.2500     36.8820    -18.5870   -999.2500    -18.5870    -26.5529      0.0101      0.0203      0.0203      0.0676
    643.0000     41.2440      0.5288      1.8269      5.3290      0.4712      0.1888      0.4846      0.5786      5.3290   -999.2500     41.2440    -16.6610   -999.2500    -16.6610    -23.8014      0.0134      0.0269      0.0269      0.0896
    643.5000     45.0060      0.5325      1.8326      4.8150      0.4675      0.1886      0.4838      0.5770      4.8150   -999.2500     45.0060    -14.9990   -999.2500    -14.9990    -21.4271      0.0163      0.0326      0.0326      0.1086
    644.0000     47.6350      0.5338      1.8345      4.8010      0.4662      0.1885      0.4835      0.5765      4.8010   -999.2500     47.6350    -14.4360   -999.2500    -14.4360    -20.6229      0.0173      0.0345      0.0345      0.1150
    644.5000     47.5650      0.5349      1.8362      5.2140      0.4651      0.1884      0.4832      0.5760      5.2140   -999.2500     47.5650    -13.9390   -999.2500    -13.9390    -19.9129      0.0181      0.0362      0.0362      0.1207
    645.0000     46.4940      0.5360      1.8379      5.2800      0.4640      0.1883      0.4829      0.5756      5.2800   -999.2500     46.4940    -13.4430   -999.2500    -13.4430    -19.2043      0.0190      0.0379      0.0379      0.1264
    645.5000     44.2250      0.5363      1.8382      5.0860      0.4637      0.1883      0.4829      0.5755      5.0860   -999.2500     44.2250    -13.3470   -999.2500    -13.3470    -19.0671      0.0191      0.0382      0.0382      0.1275
    646.0000     26.9910      0.5351      1.8364      4.5520      0.4649      0.1884      0.4831      0.5760      4.5520   -999.2500     26.9910    -13.8850   -999.2500    -13.8850    -19.8357      0.0182      0.0364      0.0364      0.1213
    646.5000     26.6870      0.5306      1.8295      3.7310      0.4694      0.1887      0.4841      0.5778      3.7310   -999.2500     26.6870    -15.8880   -999.2500    -15.8880    -22.6971      0.0148      0.0295      0.0295      0.0984
    647.0000     28.2830      0.5278      1.8252      3.4840      0.4722      0.1889      0.4848      0.5790      3.4840   -999.2500     28.2830    -17.1580   -999.2500    -17.1580    -24.5114      0.0126      0.0252      0.0252      0.0839
    647.5000     30.6790      0.5274      1.8246      3.5430      0.4726      0.1889      0.4848      0.5791      3.5430   -999.2500     30.6790    -17.3280   -999.2500    -17.3280    -24.7543      0.0123      0.0246      0.0246      0.0820
    648.0000     35.8410      0.5301      1.8287      3.9090      0.4699      0.1887      0.4842      0.5780      3.9090   -999.2500     35.8410    -16.1320   -999.2500    -16.1320    -23.0457      0.0143      0.0287      0.0287      0.0956
    648.5000     37.6040      0.5335      1.8339      4.5080      0.4665      0.1885      0.4834      0.5766      4.5080   -999.2500     37.6040    -14.6030   -999.2500    -14.6030    -20.8614      0.0170      0.0339      0.0339      0.1131
    649.0000     38.4010      0.5351      1.8363      4.7340      0.4649      0.1883      0.4831      0.5759      4.7340   -999.2500     38.4010    -13.9070   -999.2500    -13.9070    -19.8671      0.0182      0.0363      0.0363      0.1211
    649.5000     37.3640      0.5367      1.8388      5.2330      0.4633      0.1882      0.4827      0.5752      5.2330   -999.2500     37.3640    -13.1780   -999.2500    -13.1780    -18.8257      0.0194      0.0388      0.0388      0.1294
    650.0000     34.0610      0.5378      1.8404      5.7590      0.4622      0.1881      0.4824      0.5748      5.7590   -999.2500     34.0610    -12.7160   -999.2500    -12.7160    -18.1657      0.0202      0.0404      0.0404      0.1347
    650.5000     18.3930      0.5384      1.8413      6.3380      0.4616      0.1881      0.4823      0.5745      6.3380   -999.2500     18.3930    -12.4530   -999.2500    -12.4530    -17.7900      0.0207      0.0413      0.0413      0.1377
    651.0000     16.0890      0.5385      1.8415      6.3910      0.4615      0.1881      0.4822      0.5745      6.3910   -999.2500     16.0890    -12.4060   -999.2500    -12.4060    -17.7229      0.0207      0.0415      0.0415      0.1382
    651.5000     14.8530      0.5386      1.8416      6.4440      0.4614      0.1881      0.4822      0.5744      6.4440   -999.2500     14.8530    -12.3590   -999.2500    -12.3590    -17.6557      0.0208      0.0416      0.0416      0.1388
    652.0000     14.1820      0.5388      1.8418      5.4490      0.4612      0.1881      0.4822      0.5744      5.4490   -999.2500     14.1820    -12.2990   -999.2500    -12.2990    -17.5700      0.0209      0.0418      0.0418      0.1394
    652.5000     14.1790      0.5387      1.8417      4.5490      0.4613      0.1881      0.4822      0.5744      4.5490   -999.2500     14.1790    -12.3340   -999.2500    -12.3340    -17.6200      0.0209      0.0417      0.0417      0.1390
    653.0000     14.5090      0.5386      1.8416      3.9420      0.4614      0.1881      0.4822      0.5744      3.9420   -999.2500     14.5090    -12.3700   -999.2500    -12.3700    -17.6714      0.0208      0.0416      0.0416      0.1386
    653.5000     14.8390      0.5349      1.8359      4.2270      0.4651      0.1884      0.4830      0.5759      4.2270   -999.2500     14.8390    -14.0420   -999.2500    -14.0420    -20.0600      0.0179      0.0359      0.0359      0.1195
    654.0000     16.1190      0.5304      1.8289      4.4170      0.4696      0.1887      0.4840      0.5778      4.4170   -999.2500     16.1190    -16.0780   -999.2500    -16.0780    -22.9686      0.0144      0.0289      0.0289      0.0963
    654.5000     17.3980      0.5265      1.8229      4.6060      0.4735      0.1890      0.4849      0.5794      4.6060   -999.2500     17.3980    -17.8310   -999.2500    -17.8310    -25.4729      0.0114      0.0229      0.0229      0.0762
