~V
VERS. 2.00: Ver 2.00
WRAP.   NO:        
~W
 STRT.FT 200:
 STOP.FT 1850:
 STEP.FT 0.5:
 NULL. -999.250000:
 COMP. Standard (Texaco):Company
 WELL. KCL 24-32:Well
 FLD. :Field
 LOC. S30 T11N R22W:Location
 STAT. CA:State
 SRVC. :Service Company
 SON. :Service Order #
 DATE. :Log Date
 UWI. 0369000:Unique Well ID
~C
 DEPT.FT :
 AM.OHMM :
 LTHE. :
 MM. :
 OA.OHMM :
 PHES. :
 PHMX. :
 PHTS. :
 PHZC. :
 RD.OHMM :
 ROS. :
 RS.OHMM :
 SBL.MV :
 SCLN. :
 SP.MV :
 SPN. :
 VCDS. :
 VCLY. :
 VCWS. :
 VSHS. :
~P
~A
# ...
    298.0000     12.4080      0.5109      1.8124     24.3750      0.4891      0.1909      0.4953      0.5901     24.3750   -999.2500     12.4080    -20.8690   -999.2500    -20.8690    -29.8129      0.0062      0.0124      0.0124      0.0415
    298.5000     13.3730      0.5044      1.8023     23.3220      0.4956      0.1914      0.4968      0.5928     23.3220   -999.2500     13.3730    -23.8380   -999.2500    -23.8380    -34.0543      0.0011      0.0023      0.0023      0.0076
    299.0000     14.3380      0.5029      1.8000     22.2690      0.4971      0.1915      0.4971      0.5934     22.2690   -999.2500     14.3380    -25.6070   -999.2500    -25.6070    -36.5814      0.0000      0.0000      0.0000      0.0000
    299.5000     16.2650      0.5029      1.8000     21.1310      0.4971      0.1915      0.4971      0.5934     21.1310   -999.2500     16.2650    -27.4100   -999.2500    -27.4100    -39.1571      0.0000      0.0000      0.0000      0.0000
    300.0000     16.9630      0.5029      1.8000     21.6640      0.4971      0.1915      0.4971      0.5934     21.6640   -999.2500     16.9630    -28.6790   -999.2500    -28.6790    -40.9700      0.0000      0.0000      0.0000      0.0000
    300.5000     17.5610      0.5029      1.8000     22.1960      0.4971      0.1915      0.4971      0.5934     22.1960   -999.2500     17.5610    -30.0460   -999.2500    -30.0460    -42.9229      0.0000      0.0000      0.0000      0.0000
    301.0000     18.0600      0.5029      1.8000     24.6260      0.4971      0.1915      0.4971      0.5934     24.6260   -999.2500     18.0600    -30.7150   -999.2500    -30.7150    -43.8786      0.0000      0.0000      0.0000      0.0000
    301.5000     18.4260      0.5030      1.8000     25.9910      0.4970      0.1915      0.4970      0.5934     25.9910   -999.2500     18.4260    -31.0820   -999.2500    -31.0820    -44.4029      0.0000      0.0000      0.0000      0.0000
    302.0000     18.6580      0.5030      1.8000     26.9890      0.4970      0.1915      0.4970      0.5934     26.9890   -999.2500     18.6580    -31.4490   -999.2500    -31.4490    -44.9271      0.0000      0.0000      0.0000      0.0000
    302.5000     18.8230      0.5030      1.8000     27.8220      0.4970      0.1915      0.4970      0.5933     27.8220   -999.2500     18.8230    -32.4520   -999.2500    -32.4520    -46.3600      0.0000      0.0000      0.0000      0.0000
    303.0000     18.3220      0.5030      1.8000     28.5200      0.4970      0.1915      0.4970      0.5933     28.5200   -999.2500     18.3220    -32.4860   -999.2500    -32.4860    -46.4086      0.0000      0.0000      0.0000      0.0000
    303.5000     16.7200      0.5030      1.8000     29.0520      0.4970      0.1915      0.4970      0.5933     29.0520   -999.2500     16.7200    -32.0890   -999.2500    -32.0890    -45.8414      0.0000      0.0000      0.0000      0.0000
    304.0000     15.1530      0.5030      1.8000     29.2850      0.4970      0.1915      0.4970      0.5933     29.2850   -999.2500     15.1530    -30.8240   -999.2500    -30.8240    -44.0343      0.0000      0.0000      0.0000      0.0000
    304.5000     14.7850      0.5030      1.8000     29.5180      0.4970      0.1915      0.4970      0.5933     29.5180   -999.2500     14.7850    -30.3250   -999.2500    -30.3250    -43.3214      0.0000      0.0000      0.0000      0.0000
    305.0000     14.8840      0.5030      1.8000     28.9330      0.4970      0.1915      0.4970      0.5933     28.9330   -999.2500     14.8840    -29.9930   -999.2500    -29.9930    -42.8471      0.0000      0.0000      0.0000      0.0000
    305.5000     15.0000      0.5031      1.8000     28.3480      0.4969      0.1915      0.4969      0.5933     28.3480   -999.2500     15.0000    -29.9290   -999.2500    -29.9290    -42.7557      0.0000      0.0000      0.0000      0.0000
    306.0000     15.1160      0.5031      1.8000     27.0300      0.4969      0.1915      0.4969      0.5933     27.0300   -999.2500     15.1160    -30.0630   -999.2500    -30.0630    -42.9471      0.0000      0.0000      0.0000      0.0000
    306.5000     15.3460      0.5031      1.8000     25.7120      0.4969      0.1915      0.4969      0.5933     25.7120   -999.2500     15.3460    -30.5310   -999.2500    -30.5310    -43.6157      0.0000      0.0000      0.0000      0.0000
    307.0000     15.5110      0.5031      1.8000     24.9940      0.4969      0.1915      0.4969      0.5932     24.9940   -999.2500     15.5110    -32.2660   -999.2500    -32.2660    -46.0943      0.0000      0.0000      0.0000      0.0000
    307.5000     16.5090      0.5031      1.8000     24.2760      0.4969      0.1915      0.4969      0.5932     24.2760   -999.2500     16.5090    -34.0000   -999.2500    -34.0000    -48.5714      0.0000      0.0000      0.0000      0.0000
    308.0000     17.2410      0.5031      1.8000     23.8740      0.4969      0.1915      0.4969      0.5932     23.8740   -999.2500     17.2410    -36.3350   -999.2500    -36.3350    -51.9071      0.0000      0.0000      0.0000      0.0000
    308.5000     17.6740      0.5031      1.8000     24.5230      0.4969      0.1915      0.4969      0.5932     24.5230   -999.2500     17.6740    -36.8020   -999.2500    -36.8020    -52.5743      0.0000      0.0000      0.0000      0.0000
    309.0000     18.1070      0.5031      1.8000     25.1720      0.4969      0.1915      0.4969      0.5932     25.1720   -999.2500     18.1070    -36.9030   -999.2500    -36.9030    -52.7186      0.0000      0.0000      0.0000      0.0000
    309.5000     18.5050      0.5032      1.8000     27.3690      0.4968      0.1915      0.4968      0.5932     27.3690   -999.2500     18.5050    -36.5720   -999.2500    -36.5720    -52.2457      0.0000      0.0000      0.0000      0.0000
    310.0000     18.9040      0.5032      1.8000     28.5350      0.4968      0.1915      0.4968      0.5932     28.5350   -999.2500     18.9040    -35.7410   -999.2500    -35.7410    -51.0586      0.0000      0.0000      0.0000      0.0000
    310.5000     19.1350      0.5032      1.8000     29.8670      0.4968      0.1915      0.4968      0.5932     29.8670   -999.2500     19.1350    -34.9090   -999.2500    -34.9090    -49.8700      0.0000      0.0000      0.0000      0.0000
    311.0000     19.3000      0.5032      1.8000     30.7650      0.4968      0.1915      0.4968      0.5932     30.7650   -999.2500     19.3000    -33.9440   -999.2500    -33.9440    -48.4914      0.0000      0.0000      0.0000      0.0000
    311.5000     19.5320      0.5032      1.8000     31.5300      0.4968      0.1915      0.4968      0.5931     31.5300   -999.2500     19.5320    -33.3130   -999.2500    -33.3130    -47.5900      0.0000      0.0000      0.0000      0.0000
    312.0000     20.4960      0.5032      1.8000     31.6960      0.4968      0.1915      0.4968      0.5931     31.6960   -999.2500     20.4960    -33.2140   -999.2500    -33.2140    -47.4486      0.0000      0.0000      0.0000      0.0000
    312.5000     21.1630      0.5032      1.8000     31.5950      0.4968      0.1915      0.4968      0.5931     31.5950   -999.2500     21.1630    -33.4490   -999.2500    -33.4490    -47.7843      0.0000      0.0000      0.0000      0.0000
    313.0000     21.5940      0.5032      1.8000     31.4930      0.4968      0.1915      0.4968      0.5931     31.4930   -999.2500     21.5940    -33.7170   -999.2500    -33.7170    -48.1671      0.0000      0.0000      0.0000      0.0000
    313.5000     21.6430      0.5033      1.8000     31.3920      0.4967      0.1915      0.4967      0.5931     31.3920   -999.2500     21.6430    -33.9850   -999.2500    -33.9850    -48.5500      0.0000      0.0000      0.0000      0.0000
    314.0000     21.6930      0.5033      1.8000     31.3900      0.4967      0.1915      0.4967      0.5931     31.3900   -999.2500     21.6930    -34.1860   -999.2500    -34.1860    -48.8372      0.0000      0.0000      0.0000      0.0000
    314.5000     21.6080      0.5033      1.8000     31.8890      0.4967      0.1915      0.4967      0.5931     31.8890   -999.2500     21.6080    -34.2880   -999.2500    -34.2880    -48.9829      0.0000      0.0000      0.0000      0.0000
