~V
VERS. 2.00: Ver 2.00
WRAP.   NO:        
~W
 STRT.FT 200:
 STOP.FT 3880:
 STEP.FT 0.5:
 NULL. -999.250000:
 COMP. Standard (Chevron):Company
 WELL. KCL 24-37:Well
 FLD. :Field
 LOC. S19 T11N R22W:Location
 STAT. CA:State
 SRVC. :Service Company
 SON. :Service Order #
 DATE. :Log Date
 UWI. 0370300:Unique Well ID
~C
 DEPT.FT :
 LAT.OHMM :
 LTHE. :
 MM. :
 PHES. :
 PHMX. :
 PHTS. :
 PHZC. :
 RD.OHMM :
 ROS. :
 RS.OHMM :
 SBL.MV :
 SCLN. :
 SN.OHMM :
 SP.MV :
 SPN. :
 VCDS. :
 VCLY. :
 VCWS. :
 VCY. :
 VSHS. :
~P
~A
# ...
   2424.0000     10.6820   -999.2500   -999.2500   -999.2500   -999.2500   -999.2500   -999.2500     10.6820   -999.2500     12.1396    -15.8030    -28.5000     12.1396    -19.8030    -15.0505   -999.2500   -999.2500   -999.2500   -999.2500   -999.2500
   2424.5000     10.1550   -999.2500   -999.2500   -999.2500   -999.2500   -999.2500   -999.2500     10.1550   -999.2500      9.8880    -12.9640    -28.5000      9.8880    -16.9640    -12.3467   -999.2500   -999.2500   -999.2500   -999.2500   -999.2500
   2425.0000      9.0960   -999.2500   -999.2500   -999.2500   -999.2500   -999.2500   -999.2500      9.0960   -999.2500      8.8308    -12.6240    -28.5000      8.8308    -16.6240    -12.0229   -999.2500   -999.2500   -999.2500   -999.2500   -999.2500
   2425.5000      8.7680   -999.2500   -999.2500   -999.2500   -999.2500   -999.2500   -999.2500      8.7680   -999.2500      8.0388    -12.7830    -28.5000      8.0388    -16.7830    -12.1743   -999.2500   -999.2500   -999.2500   -999.2500   -999.2500
   2426.0000      8.8380   -999.2500   -999.2500   -999.2500   -999.2500   -999.2500   -999.2500      8.8380   -999.2500      7.9420    -13.6080    -28.5000      7.9420    -17.6080    -12.9600   -999.2500   -999.2500   -999.2500   -999.2500   -999.2500
   2426.5000      8.9070   -999.2500   -999.2500   -999.2500   -999.2500   -999.2500   -999.2500      8.9070   -999.2500      7.8456    -14.9330    -28.5000      7.8456    -18.9330    -14.2219   -999.2500   -999.2500   -999.2500   -999.2500   -999.2500
   2427.0000      9.0110   -999.2500   -999.2500   -999.2500   -999.2500   -999.2500   -999.2500      9.0110   -999.2500      7.8828    -15.7580    -28.5000      7.8828    -19.7580    -15.0076   -999.2500   -999.2500   -999.2500   -999.2500   -999.2500
   2427.5000      9.1140   -999.2500   -999.2500   -999.2500   -999.2500   -999.2500   -999.2500      9.1140   -999.2500      7.9200    -16.2500    -28.5000      7.9200    -20.2500    -15.4762   -999.2500   -999.2500   -999.2500   -999.2500   -999.2500
   2428.0000      9.1840   -999.2500   -999.2500   -999.2500   -999.2500   -999.2500   -999.2500      9.1840   -999.2500      7.8576    -16.2420    -28.5000      7.8576    -20.2420    -15.4686   -999.2500   -999.2500   -999.2500   -999.2500   -999.2500
   2428.5000      9.2550   -999.2500   -999.2500   -999.2500   -999.2500   -999.2500   -999.2500      9.2550   -999.2500      7.7952    -16.0680    -28.5000      7.7952    -20.0680    -15.3029   -999.2500   -999.2500   -999.2500   -999.2500   -999.2500
   2429.0000      9.2610   -999.2500   -999.2500   -999.2500   -999.2500   -999.2500   -999.2500      9.2610   -999.2500      7.6668    -15.3950    -28.5000      7.6668    -19.3950    -14.6619   -999.2500   -999.2500   -999.2500   -999.2500   -999.2500
   2429.5000      9.0660   -999.2500   -999.2500   -999.2500   -999.2500   -999.2500   -999.2500      9.0660   -999.2500      7.6044    -14.0550    -28.5000      7.6044    -18.0550    -13.3857   -999.2500   -999.2500   -999.2500   -999.2500   -999.2500
   2430.0000      8.8700   -999.2500   -999.2500   -999.2500   -999.2500   -999.2500   -999.2500      8.8700   -999.2500      7.5080    -12.8820    -28.5000      7.5080    -16.8820    -12.2686   -999.2500   -999.2500   -999.2500   -999.2500   -999.2500
   2430.5000      8.6740   -999.2500   -999.2500   -999.2500   -999.2500   -999.2500   -999.2500      8.6740   -999.2500      7.4112    -11.3750    -28.5000      7.4112    -15.3750    -10.8333   -999.2500   -999.2500   -999.2500   -999.2500   -999.2500
   2431.0000      8.1490   -999.2500   -999.2500   -999.2500   -999.2500   -999.2500   -999.2500      8.1490   -999.2500      7.1520     -9.5310    -28.5000      7.1520    -13.5310     -9.0771   -999.2500   -999.2500   -999.2500   -999.2500   -999.2500
   2431.5000      7.8210   -999.2500   -999.2500   -999.2500   -999.2500   -999.2500   -999.2500      7.8210   -999.2500      6.9568     -8.0250    -28.5000      6.9568    -12.0250     -7.6429   -999.2500   -999.2500   -999.2500   -999.2500   -999.2500
   2432.0000      7.6240      1.7731      2.7840      0.0000   -999.2500      0.2766      0.2625      7.6240   -999.2500      6.5628     -7.1850    -28.5000      6.5628    -11.1850     -6.8429      0.2553      0.5319      0.5319      0.5319      1.7731
   2432.5000      7.4290      1.8646      2.7966      0.0000   -999.2500      0.2839      0.2597      7.4290   -999.2500      6.3680     -6.0120    -28.5000      6.3680    -10.0120     -5.7257      0.2685      0.5594      0.5524      0.5594      1.8646
   2433.0000      7.3330      1.8912      2.8003      0.0000   -999.2500      0.2834      0.2589      7.3330   -999.2500      5.7748     -5.6710    -28.5000      5.7748     -9.6710     -5.4009      0.2723      0.5673      0.5558      0.5673      1.8912
   2433.5000      7.2360      1.8657      2.7968      0.0000   -999.2500      0.2839      0.2597      7.2360   -999.2500      5.4452     -5.9970    -28.5000      5.4452     -9.9970     -5.7114      0.2687      0.5597      0.5525      0.5597      1.8657
   2434.0000      6.9770      1.8144      2.7897      0.0000   -999.2500      0.2831      0.2612      6.9770   -999.2500      5.1840     -6.6550    -28.5000      5.1840    -10.6550     -6.3381      0.2613      0.5443      0.5443      0.5443      1.8144
   2434.5000      6.9150      1.7761      2.7844      0.0000   -999.2500      0.2771      0.2624      6.9150   -999.2500      5.0544     -7.1470    -28.5000      5.0544    -11.1470     -6.8067      0.2558      0.5328      0.5328      0.5328      1.7761
   2435.0000      6.7200      1.7766      2.7845      0.0000   -999.2500      0.2772      0.2624      6.7200   -999.2500      4.9248     -7.1400    -28.5000      4.9248    -11.1400     -6.8000      0.2558      0.5330      0.5330      0.5330      1.7766
   2435.5000      6.6230      1.8161      2.7899      0.0000   -999.2500      0.2833      0.2612      6.6230   -999.2500      4.7628     -6.6330    -28.5000      4.7628    -10.6330     -6.3171      0.2615      0.5448      0.5448      0.5448      1.8161
   2436.0000      6.5270      1.8558      2.7954      0.0000   -999.2500      0.2840      0.2600      6.5270   -999.2500      4.6008     -6.1250    -28.5000      4.6008    -10.1250     -5.8333      0.2672      0.5567      0.5512      0.5567      1.8558
   2436.5000      6.3330      1.9212      2.8045      0.0000   -999.2500      0.2829      0.2580      6.3330   -999.2500      4.4080     -5.2850    -28.5000      4.4080     -9.2850     -5.0333      0.2767      0.5764      0.5595      0.5764      1.9212
   2437.0000      6.1380      1.9348      2.8064      0.0000   -999.2500      0.2827      0.2576      6.1380   -999.2500      4.3444     -5.1110    -28.5000      4.3444     -9.1110     -4.8676      0.2786      0.5804      0.5613      0.5804      1.9348
   2437.5000      6.0750      1.9743      2.8118      0.0000   -999.2500      0.2820      0.2564      6.0750   -999.2500      4.2812     -4.6040    -28.5000      4.2812     -8.6040     -4.3848      0.2843      0.5923      0.5663      0.5923      1.9743
   2438.0000      6.0120      2.0139      2.8173      0.0000   -999.2500      0.2813      0.2552      6.0120   -999.2500      4.1524     -4.0970    -28.5000      4.1524     -8.0970     -3.9019      0.2900      0.6042      0.5713      0.6042      2.0139
   2438.5000      5.8850      2.0405      2.8210      0.0000   -999.2500      0.2808      0.2544      5.8850   -999.2500      4.0240     -3.7560    -28.5000      4.0240     -7.7560     -3.5771      0.2938      0.6121      0.5747      0.6121      2.0405
   2439.0000      5.8890      2.0670      2.8247      0.0000   -999.2500      0.2804      0.2536      5.8890   -999.2500      3.9284     -3.4160    -28.5000      3.9284     -7.4160     -3.2533      0.2976      0.6201      0.5780      0.6201      2.0670
   2439.5000      5.8260      2.0809      2.8266      0.0000   -999.2500      0.2801      0.2532      5.8260   -999.2500      3.8328     -3.2370    -28.5000      3.8328     -7.2370     -3.0829      0.2997      0.6243      0.5798      0.6243      2.0809
