~V
VERS. 2.00: Ver 2.00
WRAP.   NO:        
~W
 STRT.FT 200:
 STOP.FT 3880:
 STEP.FT 0.5:
 NULL. -999.250000:
 COMP. Standard (Chevron):Company
 WELL. KCL 24-37:Well
 FLD. :Field
 LOC. S19 T11N R22W:Location
 STAT. CA:State
 SRVC. :Service Company
 SON. :Service Order #
 DATE. :Log Date
 UWI. 0370300:Unique Well ID
~C
 DEPT.FT :
 LAT.OHMM :
 LTHE. :
 MM. :
 PHES. :
 PHMX. :
 PHTS. :
 PHZC. :
 RD.OHMM :
 ROS. :
 RS.OHMM :
 SBL.MV :
 SCLN. :
 SN.OHMM :
 SP.MV :
 SPN. :
 VCDS. :
 VCLY. :
 VCWS. :
 VCY. :
 VSHS. :
~P
~A
# ...
   3096.0000      3.6880      1.9963      2.8467      0.0000   -999.2500      0.2750      0.2492      3.6880   -999.2500      3.8212     -6.9237    -45.6475      3.8212     -7.7510     -6.5940      0.2875      0.5989      0.5625      0.5989      1.9963
   3096.5000      3.6910      1.9886      2.8456      0.0000   -999.2500      0.2751      0.2494      3.6910   -999.2500      3.8236     -7.0828    -45.6560      3.8236     -7.9070     -6.7455      0.2864      0.5966      0.5615      0.5966      1.9886
   3097.0000      3.6950      1.9890      2.8457      0.0000   -999.2500      0.2751      0.2494      3.6950   -999.2500      3.8616     -7.0748    -45.6644      3.8616     -7.8960     -6.7379      0.2864      0.5967      0.5615      0.5967      1.9890
   3097.5000      3.6980      1.9976      2.8469      0.0000   -999.2500      0.2750      0.2491      3.6980   -999.2500      3.8992     -6.9008    -45.6729      3.8992     -7.7190     -6.5722      0.2877      0.5993      0.5626      0.5993      1.9976
   3098.0000      3.7040      2.0060      2.8481      0.0000   -999.2500      0.2748      0.2488      3.7040   -999.2500      3.9360     -6.7288    -45.6813      3.9360     -7.5440     -6.4084      0.2889      0.6018      0.5637      0.6018      2.0060
   3098.5000      3.7080      2.0144      2.8493      0.0000   -999.2500      0.2747      0.2486      3.7080   -999.2500      3.9728     -6.5569    -45.6898      3.9728     -7.3690     -6.2446      0.2901      0.6043      0.5648      0.6043      2.0144
   3099.0000      3.7110      2.0232      2.8505      0.0000   -999.2500      0.2745      0.2483      3.7110   -999.2500      4.0428     -6.3779    -45.6983      4.0428     -7.1870     -6.0742      0.2913      0.6070      0.5659      0.6070      2.0232
   3099.5000      3.6810      2.0276      2.8512      0.0000   -999.2500      0.2744      0.2482      3.6810   -999.2500      4.0468     -6.2889    -45.7067      4.0468     -7.0950     -5.9895      0.2920      0.6083      0.5664      0.6083      2.0276
   3100.0000      3.6500      2.0320      2.8518      0.0000   -999.2500      0.2744      0.2480      3.6500   -999.2500      4.0164     -6.2000    -45.7152      4.0164     -7.0030     -5.9047      0.2926      0.6096      0.5670      0.6096      2.0320
   3100.5000      3.6570      2.0326      2.8519      0.0000   -999.2500      0.2743      0.2480      3.6570   -999.2500      3.9864     -6.1880    -45.7236      3.9864     -6.9880     -5.8933      0.2927      0.6098      0.5670      0.6098      2.0326
   3101.0000      3.6600      2.0249      2.8509      0.0000   -999.2500      0.2745      0.2482      3.6600   -999.2500      3.9264     -6.3480    -45.7321      3.9264     -7.1450     -6.0457      0.2916      0.6075      0.5661      0.6075      2.0249
   3101.5000      3.6630      2.0252      2.8509      0.0000   -999.2500      0.2745      0.2482      3.6630   -999.2500      3.9308     -6.3431    -45.7406      3.9308     -7.1370     -6.0410      0.2916      0.6076      0.5661      0.6076      2.0252
   3102.0000      3.6700      2.0255      2.8510      0.0000   -999.2500      0.2745      0.2482      3.6700   -999.2500      3.9348     -6.3381    -45.7490      3.9348     -7.1290     -6.0363      0.2917      0.6076      0.5661      0.6076      2.0255
   3102.5000      3.6740      2.0261      2.8511      0.0000   -999.2500      0.2744      0.2482      3.6740   -999.2500      3.8732     -6.3261    -45.7575      3.8732     -7.1140     -6.0249      0.2918      0.6078      0.5662      0.6078      2.0261
   3103.0000      3.6780      2.0265      2.8512      0.0000   -999.2500      0.2744      0.2482      3.6780   -999.2500      3.8772     -6.3191    -45.7659      3.8772     -7.1040     -6.0182      0.2918      0.6079      0.5662      0.6079      2.0265
   3103.5000      3.6490      2.0389      2.8530      0.0000   -999.2500      0.2742      0.2478      3.6490   -999.2500      3.8476     -6.0652    -45.7744      3.8476     -6.8470     -5.7764      0.2936      0.6117      0.5678      0.6117      2.0389
   3104.0000      3.6190      2.0513      2.8547      0.0000   -999.2500      0.2740      0.2474      3.6190   -999.2500      3.8180     -5.8102    -45.7829      3.8180     -6.5890     -5.5335      0.2954      0.6154      0.5694      0.6154      2.0513
   3104.5000      3.6240      2.0600      2.8559      0.0000   -999.2500      0.2738      0.2472      3.6240   -999.2500      3.6912     -5.6322    -45.7913      3.6912     -6.4080     -5.3640      0.2966      0.6180      0.5705      0.6180      2.0600
   3105.0000      3.6290      2.0685      2.8571      0.0000   -999.2500      0.2737      0.2469      3.6290   -999.2500      3.6956     -5.4583    -45.7998      3.6956     -6.2310     -5.1984      0.2979      0.6205      0.5716      0.6205      2.0685
   3105.5000      3.6340      2.0770      2.8583      0.0000   -999.2500      0.2735      0.2466      3.6340   -999.2500      3.6336     -5.2843    -45.8083      3.6336     -6.0540     -5.0327      0.2991      0.6231      0.5726      0.6231      2.0770
   3106.0000      3.6380      2.0774      2.8584      0.0000   -999.2500      0.2735      0.2466      3.6380   -999.2500      3.6380     -5.2773    -45.8167      3.6380     -6.0440     -5.0260      0.2991      0.6232      0.5727      0.6232      2.0774
   3106.5000      3.6080      2.0858      2.8596      0.0000   -999.2500      0.2734      0.2464      3.6080   -999.2500      3.6424     -5.1044    -45.8252      3.6424     -5.8680     -4.8613      0.3004      0.6257      0.5737      0.6257      2.0858
   3107.0000      3.5790      2.0781      2.8586      0.0000   -999.2500      0.2735      0.2466      3.5790   -999.2500      3.6128     -5.2634    -45.8336      3.6128     -6.0240     -5.0128      0.2993      0.6234      0.5728      0.6234      2.0781
   3107.5000      3.5830      2.0825      2.8592      0.0000   -999.2500      0.2734      0.2465      3.5830   -999.2500      3.5828     -5.1754    -45.8421      3.5828     -5.9330     -4.9290      0.2999      0.6247      0.5733      0.6247      2.0825
   3108.0000      3.5870      2.0868      2.8598      0.0000   -999.2500      0.2734      0.2463      3.5870   -999.2500      3.5872     -5.0875    -45.8506      3.5872     -5.8420     -4.8452      0.3005      0.6260      0.5738      0.6260      2.0868
   3108.5000      3.5940      2.0874      2.8599      0.0000   -999.2500      0.2733      0.2463      3.5940   -999.2500      3.5916     -5.0755    -45.8590      3.5916     -5.8270     -4.8338      0.3006      0.6262      0.5739      0.6262      2.0874
   3109.0000      3.5970      2.0876      2.8600      0.0000   -999.2500      0.2733      0.2463      3.5970   -999.2500      3.5980     -5.0715    -45.8675      3.5980     -5.8200     -4.8300      0.3006      0.6263      0.5739      0.6263      2.0876
   3109.5000      3.6000      2.0879      2.8601      0.0000   -999.2500      0.2733      0.2463      3.6000   -999.2500      3.6012     -5.0665    -45.8759      3.6012     -5.8120     -4.8253      0.3007      0.6264      0.5740      0.6264      2.0879
   3110.0000      3.5400      2.0883      2.8601      0.0000   -999.2500      0.2733      0.2463      3.5400   -999.2500      3.6048     -5.0596    -45.8844      3.6048     -5.8020     -4.8186      0.3007      0.6265      0.5740      0.6265      2.0883
   3110.5000      3.5440      2.0887      2.8602      0.0000   -999.2500      0.2733      0.2462      3.5440   -999.2500      3.6092     -5.0526    -45.8929      3.6092     -5.7920     -4.8120      0.3008      0.6266      0.5741      0.6266      2.0887
   3111.0000      3.5470      2.0893      2.8603      0.0000   -999.2500      0.2733      0.2462      3.5470   -999.2500      3.6132     -5.0406    -45.9013      3.6132     -5.7770     -4.8006      0.3009      0.6268      0.5741      0.6268      2.0893
   3111.5000      3.5510      2.0897      2.8604      0.0000   -999.2500      0.2733      0.2462      3.5510   -999.2500      3.5844     -5.0337    -45.9098      3.5844     -5.7670     -4.7940      0.3009      0.6269      0.5742      0.6269      2.0897
