~V
VERS. 2.00: Ver 2.00
WRAP.   NO:        
~W
 STRT.FT 200:
 STOP.FT 3880:
 STEP.FT 0.5:
 NULL. -999.250000:
 COMP. Standard (Chevron):Company
 WELL. KCL 24-37:Well
 FLD. :Field
 LOC. S19 T11N R22W:Location
 STAT. CA:State
 SRVC. :Service Company
 SON. :Service Order #
 DATE. :Log Date
 UWI. 0370300:Unique Well ID
~C
 DEPT.FT :
 LAT.OHMM :
 LTHE. :
 MM. :
 PHES. :
 PHMX. :
 PHTS. :
 PHZC. :
 RD.OHMM :
 ROS. :
 RS.OHMM :
 SBL.MV :
 SCLN. :
 SN.OHMM :
 SP.MV :
 SPN. :
 VCDS. :
 VCLY. :
 VCWS. :
 VCY. :
 VSHS. :
~P
~A
# ...
   3000.0000      3.5180      1.5802      2.7839      0.0000   -999.2500      0.2465      0.2626      3.5180   -999.2500      3.5840    -14.9199    -44.0230      3.5840    -16.3290    -14.2094      0.2275      0.4741      0.4741      0.4741      1.5802
   3000.5000      3.5230      1.5679      2.7823      0.0000   -999.2500      0.2446      0.2630      3.5230   -999.2500      3.5232    -15.1659    -44.0314      3.5232    -16.5720    -14.4438      0.2258      0.4704      0.4704      0.4704      1.5679
   3001.0000      3.4930      1.5556      2.7806      0.0000   -999.2500      0.2427      0.2633      3.4930   -999.2500      3.4928    -15.4130    -44.0399      3.4928    -16.8160    -14.6790      0.2240      0.4667      0.4667      0.4667      1.5556
   3001.5000      3.4620      1.5144      2.7749      0.0000   -999.2500      0.2362      0.2646      3.4620   -999.2500      3.4624    -16.2330    -44.0484      3.4624    -17.6330    -15.4600      0.2181      0.4543      0.4543      0.4543      1.5144
   3002.0000      3.4680      1.4594      2.7673      0.0000   -999.2500      0.2277      0.2662      3.4680   -999.2500      3.4680    -17.0580    -44.0568      3.4680    -18.4550    -16.2457      0.2102      0.4378      0.4378      0.4419      1.4594
   3002.5000      3.4720      1.4351      2.7640      0.0000   -999.2500      0.2239      0.2669      3.4720   -999.2500      3.4716    -17.3831    -44.0653      3.4716    -18.7770    -16.5553      0.2066      0.4305      0.4305      0.4370      1.4351
   3003.0000      3.4740      1.5076      2.7740      0.0000   -999.2500      0.2352      0.2647      3.4740   -999.2500      3.4752    -16.3761    -44.0737      3.4752    -17.7670    -15.5963      0.2171      0.4523      0.4523      0.4523      1.5076
   3003.5000      3.4770      1.6175      2.7893      0.0000   -999.2500      0.2523      0.2614      3.4770   -999.2500      3.4788    -14.1991    -44.0822      3.4788    -15.5870    -13.5230      0.2329      0.4853      0.4853      0.4853      1.6175
   3004.0000      3.4470      1.6265      2.7905      0.0000   -999.2500      0.2537      0.2612      3.4470   -999.2500      3.4160    -14.0242    -44.0907      3.4160    -15.4090    -13.3563      0.2342      0.4879      0.4879      0.4879      1.6265
   3004.5000      3.4180      1.6018      2.7872      0.0000   -999.2500      0.2499      0.2619      3.4180   -999.2500      3.4188    -14.5162    -44.0991      3.4188    -15.8980    -13.8249      0.2307      0.4806      0.4806      0.4806      1.6018
   3005.0000      3.4230      1.5854      2.7849      0.0000   -999.2500      0.2473      0.2624      3.4230   -999.2500      3.4216    -14.8462    -44.1076      3.4216    -16.2250    -14.1392      0.2283      0.4756      0.4756      0.4756      1.5854
   3005.5000      3.4270      1.5689      2.7826      0.0000   -999.2500      0.2447      0.2629      3.4270   -999.2500      3.4272    -15.1762    -44.1161      3.4272    -16.5520    -14.4536      0.2259      0.4707      0.4707      0.4707      1.5689
   3006.0000      3.4310      1.5025      2.7735      0.0000   -999.2500      0.2344      0.2649      3.4310   -999.2500      3.3968    -16.4963    -44.1245      3.3968    -17.8690    -15.7107      0.2164      0.4508      0.4508      0.4508      1.5025
   3006.5000      3.4340      1.4292      2.7634      0.0000   -999.2500      0.2230      0.2671      3.4340   -999.2500      3.3664    -17.4873    -44.1330      3.3664    -18.8570    -16.6546      0.2058      0.4288      0.4288      0.4358      1.4292
   3007.0000      3.4360      1.3798      2.7565      0.0000   -999.2500      0.2152      0.2685      3.4360   -999.2500      3.4380    -18.1453    -44.1414      3.4380    -19.5120    -17.2813      0.1987      0.4139      0.4139      0.4260      1.3798
   3007.5000      3.5080      1.3490      2.7523      0.0000   -999.2500      0.2104      0.2695      3.5080   -999.2500      3.4408    -18.5564    -44.1499      3.4408    -19.9200    -17.6727      0.1943      0.4047      0.4047      0.4198      1.3490
   3008.0000      3.5120      1.3182      2.7481      0.0000   -999.2500      0.2056      0.2704      3.5120   -999.2500      3.4436    -18.9674    -44.1584      3.4436    -20.3280    -18.0642      0.1898      0.3955      0.3955      0.4136      1.3182
   3008.5000      3.5150      1.2692      2.7413      0.0000   -999.2500      0.1980      0.2718      3.5150   -999.2500      3.4804    -19.6204    -44.1668      3.4804    -20.9780    -18.6861      0.1828      0.3808      0.3808      0.4038      1.2692
   3009.0000      3.5510      1.2072      2.7328      0.0000   -999.2500      0.1883      0.2737      3.5510   -999.2500      3.5172    -20.4455    -44.1753      3.5172    -21.8000    -19.4719      0.1738      0.3622      0.3622      0.3914      1.2072
   3009.5000      3.5870      1.1700      2.7276      0.0000   -999.2500      0.1825      0.2748      3.5870   -999.2500      3.5892    -20.9425    -44.1837      3.5892    -22.2940    -19.9452      0.1685      0.3510      0.3510      0.3840      1.1700
   3010.0000      3.6570      0.8818      2.6710      0.1182   -999.2500      0.2910      0.2767      3.6570   -999.2500      3.7916    -21.7675    -44.1922      3.7916    -23.1160    -20.7310      0.1596      0.3324      0.3324      0.3716      0.8818
   3010.5000      3.7270      0.8625      2.5634      0.1375   -999.2500      0.2929      0.2800      3.7270   -999.2500      3.9944    -23.2575    -44.2007      3.9944    -24.6030    -22.1500      0.1434      0.2988      0.2988      0.3492      0.8625
   3011.0000      3.7990      0.8572      2.5340      0.1428   -999.2500      0.2934      0.2809      3.7990   -999.2500      4.1972    -23.6686    -44.2091      4.1972    -25.0110    -22.5415      0.1390      0.2896      0.2896      0.3431      0.8572
   3011.5000      3.8030      0.8519      2.5047      0.1481   -999.2500      0.2940      0.2818      3.8030   -999.2500      4.5324    -24.0796    -44.2176      4.5324    -25.4190    -22.9330      0.1346      0.2804      0.2804      0.3370      0.8519
   3012.0000      3.8720      0.8477      2.4818      0.1523   -999.2500      0.2944      0.2826      3.8720   -999.2500      4.9340    -24.4006    -44.2260      4.9340    -25.7370    -23.2387      0.1312      0.2733      0.2733      0.3322      0.8477
   3012.5000      3.9410      0.8457      2.4705      0.1543   -999.2500      0.2946      0.2829      3.9410   -999.2500      4.9368    -24.5617    -44.2345      4.9368    -25.8950    -23.3921      0.1295      0.2697      0.2697      0.3298      0.8457
   3013.0000      3.9780      0.8437      2.4592      0.1563   -999.2500      0.2947      0.2832      3.9780   -999.2500      4.9396    -24.7227    -44.2430      4.9396    -26.0530    -23.5454      0.1278      0.2662      0.2662      0.3275      0.8437
   3013.5000      4.0140      0.8417      2.4484      0.1583   -999.2500      0.2949      0.2836      4.0140   -999.2500      4.8104    -24.8767    -44.2514      4.8104    -26.2040    -23.6921      0.1262      0.2628      0.2628      0.3252      0.8417
   3014.0000      4.0200      0.8397      2.4374      0.1603   -999.2500      0.2951      0.2839      4.0200   -999.2500      4.6816    -25.0348    -44.2599      4.6816    -26.3590    -23.8426      0.1245      0.2594      0.2594      0.3229      0.8397
   3014.5000      4.0240      0.8399      2.4381      0.1601   -999.2500      0.2951      0.2839      4.0240   -999.2500      4.4872    -25.0298    -44.2683      4.4872    -26.3510    -23.8379      0.1246      0.2596      0.2596      0.3231      0.8399
   3015.0000      4.0260      0.8400      2.4389      0.1600   -999.2500      0.2951      0.2839      4.0260   -999.2500      4.2928    -25.0238    -44.2768      4.2928    -26.3420    -23.8322      0.1247      0.2598      0.2598      0.3232      0.8400
   3015.5000      4.0290      0.8402      2.4402      0.1598   -999.2500      0.2951      0.2838      4.0290   -999.2500      4.1636    -25.0119    -44.2853      4.1636    -26.3270    -23.8208      0.1249      0.2602      0.2602      0.3235      0.8402
