~V
VERS. 2.00: Ver 2.00
WRAP.   NO:        
~W
 STRT.FT 200:
 STOP.FT 3880:
 STEP.FT 0.5:
 NULL. -999.250000:
 COMP. Standard (Chevron):Company
 WELL. KCL 24-37:Well
 FLD. :Field
 LOC. S19 T11N R22W:Location
 STAT. CA:State
 SRVC. :Service Company
 SON. :Service Order #
 DATE. :Log Date
 UWI. 0370300:Unique Well ID
~C
 DEPT.FT :
 LAT.OHMM :
 LTHE. :
 MM. :
 PHES. :
 PHMX. :
 PHTS. :
 PHZC. :
 RD.OHMM :
 ROS. :
 RS.OHMM :
 SBL.MV :
 SCLN. :
 SN.OHMM :
 SP.MV :
 SPN. :
 VCDS. :
 VCLY. :
 VCWS. :
 VCY. :
 VSHS. :
~P
~A
# ...
   3384.0000      3.9240      1.8507      2.8419      0.0000   -999.2500      0.2746      0.2506      3.9240   -999.2500      3.9900    -10.0240    -46.1529      3.9900    -11.5980     -9.5466      0.2665      0.5552      0.5411      0.5552      1.8507
   3384.5000      3.9280      1.8511      2.8419      0.0000   -999.2500      0.2746      0.2506      3.9280   -999.2500      3.9940    -10.0128    -46.1455      3.9940    -11.5920     -9.5360      0.2666      0.5553      0.5412      0.5553      1.8511
   3385.0000      3.9320      1.8279      2.8388      0.0000   -999.2500      0.2750      0.2513      3.9320   -999.2500      3.9980    -10.4946    -46.1380      3.9980    -12.0790     -9.9948      0.2632      0.5484      0.5382      0.5484      1.8279
   3385.5000      3.9360      1.8122      2.8366      0.0000   -999.2500      0.2753      0.2518      3.9360   -999.2500      4.0020    -10.8184    -46.1306      4.0020    -12.4080    -10.3032      0.2610      0.5437      0.5362      0.5437      1.8122
   3386.0000      3.9400      1.7886      2.8334      0.0000   -999.2500      0.2757      0.2525      3.9400   -999.2500      4.0060    -11.3052    -46.1231      4.0060    -12.9000    -10.7669      0.2576      0.5366      0.5332      0.5366      1.7886
   3386.5000      3.9760      1.7651      2.8301      0.0000   -999.2500      0.2754      0.2532      3.9760   -999.2500      4.0432    -11.7910    -46.1157      4.0432    -13.3910    -11.2295      0.2542      0.5295      0.5295      0.5295      1.7651
   3387.0000      4.0120      1.7657      2.8303      0.0000   -999.2500      0.2755      0.2532      4.0120   -999.2500      4.0804    -11.7768    -46.1083      4.0804    -13.3820    -11.2160      0.2543      0.5297      0.5297      0.5297      1.7657
   3387.5000      4.0180      1.7621      2.8298      0.0000   -999.2500      0.2749      0.2533      4.0180   -999.2500      4.0836    -11.8496    -46.1008      4.0836    -13.4600    -11.2853      0.2537      0.5286      0.5286      0.5286      1.7621
   3388.0000      3.9880      1.7586      2.8293      0.0000   -999.2500      0.2743      0.2534      3.9880   -999.2500      4.0872    -11.9214    -46.0934      4.0872    -13.5370    -11.3537      0.2532      0.5276      0.5276      0.5276      1.7586
   3388.5000      3.9580      1.7674      2.8306      0.0000   -999.2500      0.2757      0.2531      3.9580   -999.2500      4.0904    -11.7362    -46.0859      4.0904    -13.3570    -11.1774      0.2545      0.5302      0.5302      0.5302      1.7674
   3389.0000      3.9640      1.7518      2.8284      0.0000   -999.2500      0.2733      0.2536      3.9640   -999.2500      4.1276    -12.0580    -46.0785      4.1276    -13.6840    -11.4838      0.2523      0.5255      0.5255      0.5255      1.7518
   3389.5000      3.9680      1.7362      2.8263      0.0000   -999.2500      0.2708      0.2540      3.9680   -999.2500      4.1648    -12.3798    -46.0710      4.1648    -14.0110    -11.7903      0.2500      0.5209      0.5209      0.5209      1.7362
   3390.0000      3.9710      1.7048      2.8220      0.0000   -999.2500      0.2660      0.2550      3.9710   -999.2500      4.2020    -13.0276    -46.0636      4.2020    -14.6640    -12.4073      0.2455      0.5115      0.5115      0.5115      1.7048
   3390.5000      3.9740      1.6813      2.8187      0.0000   -999.2500      0.2623      0.2557      3.9740   -999.2500      4.2392    -13.5144    -46.0562      4.2392    -15.1560    -12.8709      0.2421      0.5044      0.5044      0.5044      1.6813
   3391.0000      3.9140      1.6738      2.8177      0.0000   -999.2500      0.2611      0.2559      3.9140   -999.2500      4.3116    -13.6672    -46.0487      4.3116    -15.3140    -13.0164      0.2410      0.5021      0.5021      0.5021      1.6738
   3391.5000      3.9180      1.6663      2.8167      0.0000   -999.2500      0.2599      0.2561      3.9180   -999.2500      4.3144    -13.8201    -46.0413      4.3144    -15.4720    -13.1620      0.2399      0.4999      0.4999      0.4999      1.6663
   3392.0000      3.9220      1.6466      2.8140      0.0000   -999.2500      0.2569      0.2567      3.9220   -999.2500      4.3176    -14.2249    -46.0338      4.3176    -15.8820    -13.5475      0.2371      0.4940      0.4940      0.4940      1.6466
   3392.5000      3.8910      1.6269      2.8113      0.0000   -999.2500      0.2538      0.2573      3.8910   -999.2500      4.3236    -14.6307    -46.0264      4.3236    -16.2930    -13.9340      0.2343      0.4881      0.4881      0.4881      1.6269
   3393.0000      3.8610      1.6036      2.8081      0.0000   -999.2500      0.2502      0.2580      3.8610   -999.2500      4.2936    -15.1115    -46.0190      4.2936    -16.7790    -14.3919      0.2309      0.4811      0.4811      0.4811      1.6036
   3393.5000      3.8640      1.5919      2.8065      0.0000   -999.2500      0.2483      0.2583      3.8640   -999.2500      4.2632    -15.3523    -46.0115      4.2632    -17.0250    -14.6212      0.2292      0.4776      0.4776      0.4776      1.5919
   3394.0000      3.8670      1.5801      2.8049      0.0000   -999.2500      0.2465      0.2587      3.8670   -999.2500      4.2352    -15.5931    -46.0041      4.2352    -17.2710    -14.8506      0.2275      0.4740      0.4740      0.4740      1.5801
   3394.5000      3.8730      1.5648      2.8028      0.0000   -999.2500      0.2441      0.2591      3.8730   -999.2500      4.2068    -15.9079    -45.9966      4.2068    -17.5910    -15.1504      0.2253      0.4694      0.4694      0.4694      1.5648
   3395.0000      3.8440      1.5573      2.8018      0.0000   -999.2500      0.2429      0.2593      3.8440   -999.2500      4.1768    -16.0607    -45.9892      4.1768    -17.7490    -15.2959      0.2242      0.4672      0.4672      0.4672      1.5573
   3395.5000      3.8150      1.5578      2.8019      0.0000   -999.2500      0.2430      0.2593      3.8150   -999.2500      4.1468    -16.0475    -45.9817      4.1468    -17.7410    -15.2833      0.2243      0.4673      0.4673      0.4673      1.5578
   3396.0000      3.8180      1.5744      2.8042      0.0000   -999.2500      0.2456      0.2588      3.8180   -999.2500      4.1168    -15.7013    -45.9743      4.1168    -17.4000    -14.9536      0.2267      0.4723      0.4723      0.4723      1.5744
   3396.5000      3.8210      1.6315      2.8122      0.0000   -999.2500      0.2545      0.2571      3.8210   -999.2500      4.0864    -14.5171    -45.9669      4.0864    -16.2210    -13.8258      0.2349      0.4895      0.4895      0.4895      1.6315
   3397.0000      3.8250      1.6804      2.8190      0.0000   -999.2500      0.2621      0.2556      3.8250   -999.2500      4.0916    -13.5039    -45.9594      4.0916    -15.2130    -12.8609      0.2420      0.5041      0.5041      0.5041      1.6804
   3397.5000      3.8290      1.7453      2.8280      0.0000   -999.2500      0.2723      0.2537      3.8290   -999.2500      4.0964    -12.1587    -45.9520      4.0964    -13.8730    -11.5797      0.2513      0.5236      0.5236      0.5236      1.7453
   3398.0000      3.8350      1.8023      2.8359      0.0000   -999.2500      0.2753      0.2520      3.8350   -999.2500      4.0996    -10.9795    -45.9445      4.0996    -12.6990    -10.4567      0.2595      0.5407      0.5348      0.5407      1.8023
   3398.5000      3.8380      1.8592      2.8438      0.0000   -999.2500      0.2743      0.2502      3.8380   -999.2500      4.1028     -9.8003    -45.9371      4.1028    -11.5250     -9.3336      0.2677      0.5578      0.5421      0.5578      1.8592
   3399.0000      3.8410      1.8760      2.8462      0.0000   -999.2500      0.2740      0.2497      3.8410   -999.2500      4.1084     -9.4531    -45.9296      4.1084    -11.1830     -9.0030      0.2701      0.5628      0.5442      0.5628      1.8760
   3399.5000      3.8470      1.9090      2.8508      0.0000   -999.2500      0.2735      0.2487      3.8470   -999.2500      4.1116     -8.7689    -45.9222      4.1116    -10.5040     -8.3514      0.2749      0.5727      0.5484      0.5727      1.9090
