~V
VERS. 2.00: Ver 2.00
WRAP.   NO:        
~W
 STRT.FT 200:
 STOP.FT 3880:
 STEP.FT 0.5:
 NULL. -999.250000:
 COMP. Standard (Chevron):Company
 WELL. KCL 24-37:Well
 FLD. :Field
 LOC. S19 T11N R22W:Location
 STAT. CA:State
 SRVC. :Service Company
 SON. :Service Order #
 DATE. :Log Date
 UWI. 0370300:Unique Well ID
~C
 DEPT.FT :
 LAT.OHMM :
 LTHE. :
 MM. :
 PHES. :
 PHMX. :
 PHTS. :
 PHZC. :
 RD.OHMM :
 ROS. :
 RS.OHMM :
 SBL.MV :
 SCLN. :
 SN.OHMM :
 SP.MV :
 SPN. :
 VCDS. :
 VCLY. :
 VCWS. :
 VCY. :
 VSHS. :
~P
~A
# ...
   3192.0000      3.6490      2.1964      2.8795      0.0000   -999.2500      0.2706      0.2422      3.6490   -999.2500      3.7816     -2.9135    -47.2720      3.7816     -3.1590     -2.7748      0.3163      0.6589      0.5869      0.6589      2.1964
   3192.5000      3.6530      2.1576      2.8741      0.0000   -999.2500      0.2713      0.2433      3.6530   -999.2500      3.8184     -3.7386    -47.2805      3.8184     -3.9810     -3.5605      0.3107      0.6473      0.5820      0.6473      2.1576
   3193.0000      3.6900      2.1032      2.8666      0.0000   -999.2500      0.2722      0.2450      3.6900   -999.2500      3.8548     -4.8976    -47.2889      3.8548     -5.1370     -4.6644      0.3029      0.6310      0.5751      0.6310      2.1032
   3193.5000      3.7260      2.0566      2.8602      0.0000   -999.2500      0.2730      0.2464      3.7260   -999.2500      3.9256     -5.8896    -47.2974      3.9256     -6.1260     -5.6092      0.2962      0.6170      0.5692      0.6170      2.0566
   3194.0000      3.8650      2.0372      2.8576      0.0000   -999.2500      0.2733      0.2469      3.8650   -999.2500      3.9960     -6.3037    -47.3058      3.9960     -6.5370     -6.0035      0.2934      0.6112      0.5667      0.6112      2.0372
   3194.5000      3.9360      2.0178      2.8549      0.0000   -999.2500      0.2737      0.2475      3.9360   -999.2500      4.2032     -6.7177    -47.3143      4.2032     -6.9480     -6.3978      0.2906      0.6053      0.5642      0.6053      2.0178
   3195.0000      4.0390      1.8699      2.8344      0.0000   -999.2500      0.2762      0.2520      4.0390   -999.2500      4.2740     -9.8697    -47.3228      4.2740    -10.0970     -9.3997      0.2693      0.5610      0.5454      0.5610      1.8699
   3195.5000      4.1420      1.8390      2.8302      0.0000   -999.2500      0.2767      0.2529      4.1420   -999.2500      4.3448    -10.5288    -47.3312      4.3448    -10.7530    -10.0274      0.2648      0.5517      0.5415      0.5517      1.8390
   3196.0000      4.3490      1.8707      2.8346      0.0000   -999.2500      0.2762      0.2519      4.3490   -999.2500      4.4152     -9.8558    -47.3397      4.4152    -10.0770     -9.3865      0.2694      0.5612      0.5455      0.5612      1.8707
   3196.5000      4.4200      1.8867      2.8368      0.0000   -999.2500      0.2759      0.2514      4.4200   -999.2500      4.4188     -9.5158    -47.3482      4.4188     -9.7340     -9.0627      0.2717      0.5660      0.5476      0.5660      1.8867
   3197.0000      4.4230      1.8950      2.8380      0.0000   -999.2500      0.2757      0.2512      4.4230   -999.2500      4.4220     -9.3419    -47.3566      4.4220     -9.5570     -8.8970      0.2729      0.5685      0.5486      0.5685      1.8950
   3197.5000      4.4270      1.9110      2.8403      0.0000   -999.2500      0.2755      0.2507      4.4270   -999.2500      4.4284     -9.0019    -47.3651      4.4284     -9.2140     -8.5732      0.2752      0.5733      0.5506      0.5733      1.9110
   3198.0000      4.4300      1.9348      2.8436      0.0000   -999.2500      0.2750      0.2500      4.4300   -999.2500      4.4308     -8.4949    -47.3735      4.4308     -8.7040     -8.0904      0.2786      0.5805      0.5537      0.5805      1.9348
   3198.5000      4.4330      1.9821      2.8502      0.0000   -999.2500      0.2742      0.2486      4.4330   -999.2500      4.4332     -7.4889    -47.3820      4.4332     -7.6950     -7.1323      0.2854      0.5946      0.5597      0.5946      1.9821
   3199.0000      4.3380      1.9981      2.8524      0.0000   -999.2500      0.2740      0.2481      4.3380   -999.2500      4.4376     -7.1490    -47.3905      4.4376     -7.3520     -6.8085      0.2877      0.5994      0.5617      0.5994      1.9981
   3199.5000      4.2430      2.0063      2.8536      0.0000   -999.2500      0.2738      0.2478      4.2430   -999.2500      4.4420     -6.9750    -47.3989      4.4420     -7.1750     -6.6429      0.2889      0.6019      0.5627      0.6019      2.0063
   3200.0000      4.1830      2.0027      2.8531      0.0000   -999.2500      0.2739      0.2479      4.1830   -999.2500      4.3156     -7.0530    -47.4074      4.3156     -7.2500     -6.7172      0.2884      0.6008      0.5623      0.6008      2.0027
   3200.5000      4.2530      1.9991      2.8526      0.0000   -999.2500      0.2739      0.2480      4.2530   -999.2500      4.2528     -7.1311    -47.4158      4.2528     -7.3250     -6.7915      0.2879      0.5997      0.5618      0.5997      1.9991
   3201.0000      4.2570      2.0076      2.8538      0.0000   -999.2500      0.2738      0.2478      4.2570   -999.2500      4.2564     -6.9521    -47.4243      4.2564     -7.1430     -6.6210      0.2891      0.6023      0.5629      0.6023      2.0076
   3201.5000      4.2260      2.0236      2.8561      0.0000   -999.2500      0.2735      0.2473      4.2260   -999.2500      4.2604     -6.6111    -47.4328      4.2604     -6.7990     -6.2963      0.2914      0.6071      0.5649      0.6071      2.0236
   3202.0000      4.1960      2.0396      2.8583      0.0000   -999.2500      0.2732      0.2468      4.1960   -999.2500      4.2640     -6.2702    -47.4412      4.2640     -6.4550     -5.9716      0.2937      0.6119      0.5669      0.6119      2.0396
   3202.5000      4.2010      2.0244      2.8562      0.0000   -999.2500      0.2735      0.2472      4.2010   -999.2500      4.2676     -6.5962    -47.4497      4.2676     -6.7780     -6.2821      0.2915      0.6073      0.5650      0.6073      2.0244
   3203.0000      4.1390      2.0092      2.8542      0.0000   -999.2500      0.2737      0.2477      4.1390   -999.2500      4.3036     -6.9212    -47.4581      4.3036     -7.1000     -6.5916      0.2893      0.6028      0.5631      0.6028      2.0092
   3203.5000      4.1420      1.9941      2.8521      0.0000   -999.2500      0.2740      0.2481      4.1420   -999.2500      4.3392     -7.2462    -47.4666      4.3392     -7.4220     -6.9012      0.2871      0.5982      0.5611      0.5982      1.9941
   3204.0000      4.0800      2.0101      2.8543      0.0000   -999.2500      0.2737      0.2477      4.0800   -999.2500      4.4776     -6.9053    -47.4751      4.4776     -7.0780     -6.5764      0.2895      0.6030      0.5632      0.6030      2.0101
   3204.5000      4.0170      2.0417      2.8587      0.0000   -999.2500      0.2732      0.2467      4.0170   -999.2500      4.5476     -6.2313    -47.4835      4.5476     -6.4010     -5.9346      0.2940      0.6125      0.5672      0.6125      2.0417
   3205.0000      3.9530      2.0577      2.8610      0.0000   -999.2500      0.2729      0.2462      3.9530   -999.2500      4.6164     -5.8903    -47.4920      4.6164     -6.0570     -5.6098      0.2963      0.6173      0.5692      0.6173      2.0577
   3205.5000      3.8900      2.0658      2.8621      0.0000   -999.2500      0.2727      0.2460      3.8900   -999.2500      4.6856     -5.7184    -47.5005      4.6856     -5.8820     -5.4461      0.2975      0.6197      0.5702      0.6197      2.0658
   3206.0000      3.7620      2.0739      2.8633      0.0000   -999.2500      0.2726      0.2457      3.7620   -999.2500      4.9224     -5.5464    -47.5089      4.9224     -5.7070     -5.2823      0.2986      0.6222      0.5712      0.6222      2.0739
   3206.5000      3.8650      2.0589      2.8612      0.0000   -999.2500      0.2728      0.2462      3.8650   -999.2500      5.1592     -5.8674    -47.5174      5.1592     -6.0250     -5.5880      0.2965      0.6177      0.5693      0.6177      2.0589
   3207.0000      3.9670      2.0282      2.8570      0.0000   -999.2500      0.2734      0.2471      3.9670   -999.2500      5.6292     -6.5255    -47.5258      5.6292     -6.6800     -6.2147      0.2921      0.6085      0.5654      0.6085      2.0282
   3207.5000      4.3700      2.0131      2.8549      0.0000   -999.2500      0.2736      0.2475      4.3700   -999.2500      6.0972     -6.8505    -47.5343      6.0972     -7.0020     -6.5243      0.2899      0.6039      0.5635      0.6039      2.0131
