~V
VERS. 2.00: Ver 2.00
WRAP.   NO:        
~W
 STRT.FT 200:
 STOP.FT 3880:
 STEP.FT 0.5:
 NULL. -999.250000:
 COMP. Standard (Chevron):Company
 WELL. KCL 24-37:Well
 FLD. :Field
 LOC. S19 T11N R22W:Location
 STAT. CA:State
 SRVC. :Service Company
 SON. :Service Order #
 DATE. :Log Date
 UWI. 0370300:Unique Well ID
~C
 DEPT.FT :
 LAT.OHMM :
 LTHE. :
 MM. :
 PHES. :
 PHMX. :
 PHTS. :
 PHZC. :
 RD.OHMM :
 ROS. :
 RS.OHMM :
 SBL.MV :
 SCLN. :
 SN.OHMM :
 SP.MV :
 SPN. :
 VCDS. :
 VCLY. :
 VCWS. :
 VCY. :
 VSHS. :
~P
~A
# ...
   2808.0000      3.1780      2.0326      2.8363      0.0000   -999.2500      0.2773      0.2509      3.1780   -999.2500      2.9792     -5.0433    -37.2692      2.9792     -7.6160     -4.8031      0.2927      0.6098      0.5700      0.6098      2.0326
   2808.5000      3.1820      2.0380      2.8371      0.0000   -999.2500      0.2772      0.2508      3.1820   -999.2500      2.9496     -4.9573    -37.2949      2.9496     -7.5270     -4.7212      0.2935      0.6114      0.5706      0.6114      2.0380
   2809.0000      3.1850      2.0487      2.8386      0.0000   -999.2500      0.2770      0.2504      3.1850   -999.2500      2.9200     -4.7803    -37.3205      2.9200     -7.3470     -4.5527      0.2950      0.6146      0.5720      0.6146      2.0487
   2809.5000      3.1890      2.0491      2.8387      0.0000   -999.2500      0.2770      0.2504      3.1890   -999.2500      2.9244     -4.7774    -37.3462      2.9244     -7.3410     -4.5499      0.2951      0.6147      0.5720      0.6147      2.0491
   2810.0000      3.1930      2.0494      2.8388      0.0000   -999.2500      0.2770      0.2504      3.1930   -999.2500      2.9292     -4.7744    -37.3718      2.9292     -7.3350     -4.5470      0.2951      0.6148      0.5721      0.6148      2.0494
   2810.5000      3.1960      2.0502      2.8389      0.0000   -999.2500      0.2769      0.2504      3.1960   -999.2500      2.9328     -4.7644    -37.3975      2.9328     -7.3220     -4.5375      0.2952      0.6151      0.5722      0.6151      2.0502
   2811.0000      3.1670      2.0555      2.8397      0.0000   -999.2500      0.2769      0.2502      3.1670   -999.2500      2.9364     -4.6785    -37.4231      2.9364     -7.2330     -4.4557      0.2960      0.6167      0.5728      0.6167      2.0555
   2811.5000      3.1370      2.0608      2.8404      0.0000   -999.2500      0.2768      0.2501      3.1370   -999.2500      2.9172     -4.5925    -37.4487      2.9172     -7.1440     -4.3738      0.2968      0.6182      0.5735      0.6182      2.0608
   2812.0000      3.1740      2.0617      2.8406      0.0000   -999.2500      0.2767      0.2500      3.1740   -999.2500      2.8984     -4.5815    -37.4744      2.8984     -7.1300     -4.3634      0.2969      0.6185      0.5736      0.6185      2.0617
   2812.5000      3.2110      2.0720      2.8420      0.0000   -999.2500      0.2766      0.2497      3.2110   -999.2500      2.8792     -4.4095    -37.5000      2.8792     -6.9550     -4.1996      0.2984      0.6216      0.5749      0.6216      2.0720
   2813.0000      3.2150      2.0723      2.8421      0.0000   -999.2500      0.2765      0.2497      3.2150   -999.2500      2.8828     -4.4076    -37.5257      2.8828     -6.9500     -4.1977      0.2984      0.6217      0.5750      0.6217      2.0723
   2813.5000      3.2180      2.0727      2.8422      0.0000   -999.2500      0.2765      0.2497      3.2180   -999.2500      2.8864     -4.4046    -37.5513      2.8864     -6.9440     -4.1949      0.2985      0.6218      0.5750      0.6218      2.0727
   2814.0000      3.2240      2.0781      2.8429      0.0000   -999.2500      0.2764      0.2495      3.2240   -999.2500      2.8568     -4.3156    -37.5770      2.8568     -6.8520     -4.1101      0.2992      0.6234      0.5757      0.6234      2.0781
   2814.5000      3.2270      2.0835      2.8437      0.0000   -999.2500      0.2763      0.2493      3.2270   -999.2500      2.8276     -4.2267    -37.6026      2.8276     -6.7600     -4.0254      0.3000      0.6251      0.5764      0.6251      2.0835
   2815.0000      3.2310      2.0843      2.8439      0.0000   -999.2500      0.2763      0.2493      3.2310   -999.2500      2.8320     -4.2167    -37.6282      2.8320     -6.7470     -4.0159      0.3001      0.6253      0.5765      0.6253      2.0843
   2815.5000      3.2340      2.0847      2.8439      0.0000   -999.2500      0.2763      0.2493      3.2340   -999.2500      2.8368     -4.2137    -37.6539      2.8368     -6.7410     -4.0131      0.3002      0.6254      0.5765      0.6254      2.0847
   2816.0000      3.2360      2.0850      2.8440      0.0000   -999.2500      0.2763      0.2493      3.2360   -999.2500      2.8736     -4.2108    -37.6795      2.8736     -6.7350     -4.0102      0.3002      0.6255      0.5765      0.6255      2.0850
   2816.5000      3.1760      2.0858      2.8441      0.0000   -999.2500      0.2763      0.2493      3.1760   -999.2500      2.9104     -4.2008    -37.7052      2.9104     -6.7220     -4.0007      0.3003      0.6257      0.5766      0.6257      2.0858
   2817.0000      3.1790      2.0812      2.8435      0.0000   -999.2500      0.2764      0.2494      3.1790   -999.2500      2.8912     -4.2808    -37.7308      2.8912     -6.7990     -4.0770      0.2997      0.6244      0.5761      0.6244      2.0812
   2817.5000      3.1820      2.0766      2.8429      0.0000   -999.2500      0.2764      0.2495      3.1820   -999.2500      2.8720     -4.3618    -37.7565      2.8720     -6.8770     -4.1541      0.2990      0.6230      0.5755      0.6230      2.0766
   2818.0000      3.1850      2.0771      2.8430      0.0000   -999.2500      0.2764      0.2495      3.1850   -999.2500      2.8528     -4.3559    -37.7821      2.8528     -6.8680     -4.1485      0.2991      0.6231      0.5755      0.6231      2.0771
   2818.5000      3.1880      2.0482      2.8390      0.0000   -999.2500      0.2769      0.2504      3.1880   -999.2500      2.8576     -4.8509    -37.8077      2.8576     -7.3600     -4.6199      0.2949      0.6145      0.5718      0.6145      2.0482
   2819.0000      3.1920      2.0193      2.8351      0.0000   -999.2500      0.2774      0.2512      3.1920   -999.2500      2.8620     -5.3459    -37.8334      2.8620     -7.8520     -5.0914      0.2908      0.6058      0.5682      0.6058      2.0193
   2819.5000      3.1960      1.9905      2.8311      0.0000   -999.2500      0.2779      0.2521      3.1960   -999.2500      2.8992     -5.8410    -37.8590      2.8992     -8.3440     -5.5628      0.2866      0.5971      0.5645      0.5971      1.9905
   2820.0000      3.1990      1.9617      2.8271      0.0000   -999.2500      0.2784      0.2529      3.1990   -999.2500      2.9360     -6.3360    -37.8847      2.9360     -8.8360     -6.0343      0.2825      0.5885      0.5608      0.5885      1.9617
   2820.5000      3.2050      1.9329      2.8232      0.0000   -999.2500      0.2788      0.2538      3.2050   -999.2500      2.9388     -6.8310    -37.9103      2.9388     -9.3280     -6.5057      0.2783      0.5799      0.5572      0.5799      1.9329
   2821.0000      3.2080      1.9042      2.8192      0.0000   -999.2500      0.2793      0.2547      3.2080   -999.2500      2.9420     -7.3261    -37.9360      2.9420     -9.8200     -6.9772      0.2742      0.5713      0.5535      0.5713      1.9042
   2821.5000      3.2100      1.8173      2.8072      0.0000   -999.2500      0.2808      0.2573      3.2100   -999.2500      2.9448     -8.8151    -37.9616      2.9448    -11.3060     -8.3953      0.2617      0.5452      0.5425      0.5452      1.8173
   2822.0000      3.1820      1.6914      2.7898      0.0000   -999.2500      0.2639      0.2610      3.1820   -999.2500      2.9496    -10.9741    -37.9872      2.9496    -13.4620    -10.4515      0.2436      0.5074      0.5074      0.5074      1.6914
   2822.5000      3.1530      1.6431      2.7832      0.0000   -999.2500      0.2563      0.2625      3.1530   -999.2500      2.9540    -11.8062    -38.0129      2.9540    -14.2910    -11.2440      0.2366      0.4929      0.4929      0.4929      1.6431
   2823.0000      3.0900      1.4678      2.7589      0.0000   -999.2500      0.2290      0.2677      3.0900   -999.2500      2.9576    -14.6322    -38.0385      2.9576    -17.1140    -13.9354      0.2114      0.4403      0.4403      0.4436      1.4678
   2823.5000      3.0280      1.2791      2.7328      0.0000   -999.2500      0.1995      0.2734      3.0280   -999.2500      2.9612    -16.7962    -38.0642      2.9612    -19.2750    -15.9964      0.1842      0.3837      0.3837      0.4058      1.2791
