~V
VERS. 2.00: Ver 2.00
WRAP.   NO:        
~W
 STRT.FT 200:
 STOP.FT 1850:
 STEP.FT 0.5:
 NULL. -999.250000:
 COMP. Standard (Texaco):Company
 WELL. KCL 24-32:Well
 FLD. :Field
 LOC. S30 T11N R22W:Location
 STAT. CA:State
 SRVC. :Service Company
 SON. :Service Order #
 DATE. :Log Date
 UWI. 0369000:Unique Well ID
~C
 DEPT.FT :
 AM.OHMM :
 LTHE. :
 MM. :
 OA.OHMM :
 PHES. :
 PHMX. :
 PHTS. :
 PHZC. :
 RD.OHMM :
 ROS. :
 RS.OHMM :
 SBL.MV :
 SCLN. :
 SP.MV :
 SPN. :
 VCDS. :
 VCLY. :
 VCWS. :
 VSHS. :
~P
~A
# ...
    961.0000      3.2580      0.5541      1.8538      4.9860      0.4459      0.1862      0.4728      0.5643      4.9860   -999.2500      3.2580     -9.3640    -42.7136     -9.3640    -13.3771      0.0269      0.0538      0.0538      0.1794
    961.5000      3.2640      0.5549      1.8550      4.9930      0.4451      0.1862      0.4726      0.5640      4.9930   -999.2500      3.2640     -8.9220    -42.7166     -8.9220    -12.7457      0.0275      0.0550      0.0550      0.1832
    962.0000      3.2710      0.5557      1.8561      4.9990      0.4443      0.1861      0.4724      0.5637      4.9990   -999.2500      3.2710     -8.4810    -42.7197     -8.4810    -12.1157      0.0281      0.0561      0.0561      0.1871
    962.5000      3.2740      0.5568      1.8578      4.9880      0.4432      0.1860      0.4721      0.5632      4.9880   -999.2500      3.2740     -7.8490    -42.7227     -7.8490    -11.2129      0.0289      0.0578      0.0578      0.1926
    963.0000      3.2770      0.5570      1.8582      4.9760      0.4430      0.1860      0.4721      0.5631      4.9760   -999.2500      3.2770     -7.7000    -42.7257     -7.7000    -11.0000      0.0291      0.0582      0.0582      0.1939
    963.5000      3.2790      0.5559      1.8565      4.9390      0.4441      0.1861      0.4723      0.5636      4.9390   -999.2500      3.2790     -8.3510    -42.7288     -8.3510    -11.9300      0.0282      0.0565      0.0565      0.1882
    964.0000      3.2800      0.5550      1.8550      4.9020      0.4450      0.1862      0.4725      0.5639      4.9020   -999.2500      3.2800     -8.9180    -42.7318     -8.9180    -12.7400      0.0275      0.0550      0.0550      0.1833
    964.5000      3.2770      0.5535      1.8527      4.8380      0.4465      0.1863      0.4728      0.5646      4.8380   -999.2500      3.2770     -9.7870    -42.7348     -9.7870    -13.9814      0.0264      0.0527      0.0527      0.1757
    965.0000      3.2700      0.5530      1.8519      4.7740      0.4470      0.1863      0.4729      0.5648      4.7740   -999.2500      3.2700    -10.0870    -42.7379    -10.0870    -14.4100      0.0260      0.0519      0.0519      0.1731
    965.5000      3.2590      0.5543      1.8539      4.7110      0.4457      0.1862      0.4726      0.5642      4.7110   -999.2500      3.2590     -9.3380    -42.7409     -9.3380    -13.3400      0.0269      0.0539      0.0539      0.1796
    966.0000      3.2290      0.5560      1.8564      4.6490      0.4440      0.1861      0.4722      0.5635      4.6490   -999.2500      3.2290     -8.3720    -42.7439     -8.3720    -11.9600      0.0282      0.0564      0.0564      0.1880
    966.5000      3.1990      0.5565      1.8571      4.6050      0.4435      0.1861      0.4721      0.5633      4.6050   -999.2500      3.1990     -8.0890    -42.7470     -8.0890    -11.5557      0.0286      0.0571      0.0571      0.1905
    967.0000      3.0780      0.5568      1.8577      4.5620      0.4432      0.1860      0.4720      0.5631      4.5620   -999.2500      3.0780     -7.8730    -42.7500     -7.8730    -11.2471      0.0289      0.0577      0.0577      0.1924
    967.5000      3.0140      0.5571      1.8581      4.5330      0.4429      0.1860      0.4720      0.5630      4.5330   -999.2500      3.0140     -7.7400    -42.7531     -7.7400    -11.0571      0.0290      0.0581      0.0581      0.1935
    968.0000      2.9600      0.5564      1.8570      4.5050      0.4436      0.1861      0.4721      0.5633      4.5050   -999.2500      2.9600     -8.1580    -42.7561     -8.1580    -11.6543      0.0285      0.0570      0.0570      0.1899
    968.5000      2.9840      0.5543      1.8537      4.4790      0.4457      0.1862      0.4726      0.5642      4.4790   -999.2500      2.9840     -9.3930    -42.7591     -9.3930    -13.4186      0.0269      0.0537      0.0537      0.1791
    969.0000      3.0350      0.5517      1.8497      4.4540      0.4483      0.1864      0.4732      0.5653      4.4540   -999.2500      3.0350    -10.9280    -42.7622    -10.9280    -15.6114      0.0249      0.0497      0.0497      0.1657
    969.5000      3.0870      0.5467      1.8420      4.4240      0.4533      0.1868      0.4743      0.5673      4.4240   -999.2500      3.0870    -13.8640    -42.7652    -13.8640    -19.8057      0.0210      0.0420      0.0420      0.1401
    970.0000      3.1300      0.5458      1.8406      4.3930      0.4542      0.1869      0.4745      0.5677      4.3930   -999.2500      3.1300    -14.3980    -42.7682    -14.3980    -20.5686      0.0203      0.0406      0.0406      0.1355
    970.5000      3.0970      0.5479      1.8438      4.3490      0.4521      0.1867      0.4740      0.5668      4.3490   -999.2500      3.0970    -13.1990    -42.7713    -13.1990    -18.8557      0.0219      0.0438      0.0438      0.1460
    971.0000      3.0630      0.5498      1.8467      4.3260      0.4502      0.1866      0.4736      0.5660      4.3260   -999.2500      3.0630    -12.0820    -42.7743    -12.0820    -17.2600      0.0234      0.0467      0.0467      0.1557
    971.5000      3.0120      0.5533      1.8521      4.3020      0.4467      0.1863      0.4728      0.5646      4.3020   -999.2500      3.0120    -10.0150    -42.7773    -10.0150    -14.3071      0.0261      0.0521      0.0521      0.1737
    972.0000      3.0120      0.5539      1.8531      4.2790      0.4461      0.1862      0.4726      0.5643      4.2790   -999.2500      3.0120     -9.6480    -42.7804     -9.6480    -13.7829      0.0265      0.0531      0.0531      0.1769
    972.5000      3.0780      0.5547      1.8543      4.2550      0.4453      0.1862      0.4724      0.5639      4.2550   -999.2500      3.0780     -9.1820    -42.7834     -9.1820    -13.1171      0.0271      0.0543      0.0543      0.1810
    973.0000      3.1430      0.5552      1.8550      4.2300      0.4448      0.1861      0.4723      0.5637      4.2300   -999.2500      3.1430     -8.8990    -42.7865     -8.8990    -12.7129      0.0275      0.0550      0.0550      0.1835
    973.5000      3.2830      0.5547      1.8541      4.2040      0.4453      0.1862      0.4724      0.5640      4.2040   -999.2500      3.2830     -9.2510    -42.7895     -9.2510    -13.2157      0.0271      0.0541      0.0541      0.1804
    974.0000      3.3480      0.5538      1.8528      4.1720      0.4462      0.1862      0.4726      0.5643      4.1720   -999.2500      3.3480     -9.7680    -42.7925     -9.7680    -13.9543      0.0264      0.0528      0.0528      0.1759
    974.5000      3.4130      0.5525      1.8507      4.1400      0.4475      0.1863      0.4729      0.5649      4.1400   -999.2500      3.4130    -10.5540    -42.7956    -10.5540    -15.0771      0.0254      0.0507      0.0507      0.1690
    975.0000      3.4700      0.5526      1.8509      4.1520      0.4474      0.1863      0.4728      0.5648      4.1520   -999.2500      3.4700    -10.4710    -42.7986    -10.4710    -14.9586      0.0255      0.0509      0.0509      0.1698
    975.5000      3.4930      0.5532      1.8518      4.1630      0.4468      0.1863      0.4727      0.5645      4.1630   -999.2500      3.4930    -10.1210    -42.8016    -10.1210    -14.4586      0.0259      0.0518      0.0518      0.1728
    976.0000      3.4760      0.5536      1.8524      4.1800      0.4464      0.1863      0.4726      0.5644      4.1800   -999.2500      3.4760     -9.9060    -42.8047     -9.9060    -14.1514      0.0262      0.0524      0.0524      0.1747
    976.5000      3.4290      0.5537      1.8526      4.1890      0.4463      0.1862      0.4726      0.5643      4.1890   -999.2500      3.4290     -9.8470    -42.8077     -9.8470    -14.0671      0.0263      0.0526      0.0526      0.1752
    977.0000      3.3820      0.5538      1.8527      4.1940      0.4462      0.1862      0.4725      0.5643      4.1940   -999.2500      3.3820     -9.7880    -42.8107     -9.7880    -13.9829      0.0264      0.0527      0.0527      0.1757
    977.5000      3.3420      0.5536      1.8523      4.1990      0.4464      0.1862      0.4726      0.5644      4.1990   -999.2500      3.3420     -9.9450    -42.8138     -9.9450    -14.2071      0.0262      0.0523      0.0523      0.1744
