~V
VERS. 2.00: Ver 2.00
WRAP.   NO:        
~W
 STRT.FT 200:
 STOP.FT 3880:
 STEP.FT 0.5:
 NULL. -999.250000:
 COMP. Standard (Chevron):Company
 WELL. KCL 24-37:Well
 FLD. :Field
 LOC. S19 T11N R22W:Location
 STAT. CA:State
 SRVC. :Service Company
 SON. :Service Order #
 DATE. :Log Date
 UWI. 0370300:Unique Well ID
~C
 DEPT.FT :
 LAT.OHMM :
 LTHE. :
 MM. :
 PHES. :
 PHMX. :
 PHTS. :
 PHZC. :
 RD.OHMM :
 ROS. :
 RS.OHMM :
 SBL.MV :
 SCLN. :
 SN.OHMM :
 SP.MV :
 SPN. :
 VCDS. :
 VCLY. :
 VCWS. :
 VCY. :
 VSHS. :
~P
~A
# ...
   3864.0000      8.0730      0.6129      1.9452      0.3871      0.1755      0.4051      0.5052      8.0730      0.6352     11.5260    -20.9640   -999.2500     11.5260    -24.9640    -19.9657      0.0180      0.0361      0.0361      0.0601      0.1203
   3864.5000      8.1760      0.6127      1.9449      0.3873      0.1755      0.4051      0.5053      8.1760      0.6318     12.6596    -21.1240   -999.2500     12.6596    -25.1240    -20.1181      0.0179      0.0357      0.0357      0.0595      0.1191
   3865.0000      8.2800      0.6125      1.9446      0.3875      0.1755      0.4052      0.5054      8.2800      0.6292     13.6584    -21.2840   -999.2500     13.6584    -25.2840    -20.2705      0.0177      0.0354      0.0354      0.0589      0.1178
   3865.5000      9.4800      0.6143      1.9473      0.3857      0.1754      0.4048      0.5047      9.4800      0.6713     20.6332    -20.1040   -999.2500     20.6332    -24.1040    -19.1467      0.0190      0.0380      0.0380      0.0634      0.1268
   3866.0000     10.3480      0.6175      1.9523      0.3825      0.1752      0.4040      0.5033     10.3480      0.7756     22.9608    -17.9250   -999.2500     22.9608    -21.9250    -17.0714      0.0215      0.0430      0.0430      0.0717      0.1434
   3866.5000     10.8150      0.6175      1.9524      0.3825      0.1751      0.4040      0.5033     10.8150      0.7761     25.3548    -17.9160   -999.2500     25.3548    -21.9160    -17.0629      0.0215      0.0430      0.0430      0.0717      0.1435
   3867.0000     11.2820      0.6163      1.9505      0.3837      0.1752      0.4043      0.5038     11.2820     85.2190     39.2344    -18.7390   -999.2500     39.2344    -22.7390    -17.8467      0.0206      0.0412      0.0412      0.0686      0.1372
   3867.5000     11.1550      0.6156      1.9494      0.3844      0.1753      0.4044      0.5041     11.1550     79.5378     39.6028    -19.2340   -999.2500     39.6028    -23.2340    -18.3181      0.0200      0.0400      0.0400      0.0667      0.1335
   3868.0000     10.8280      0.6144      1.9476      0.3856      0.1754      0.4047      0.5046     10.8280     70.8979     39.9716    -20.0570   -999.2500     39.9716    -24.0570    -19.1019      0.0191      0.0382      0.0382      0.0636      0.1272
   3868.5000      9.7020      0.6127      1.9450      0.3873      0.1755      0.4051      0.5053      9.7020     61.3762     38.4500    -21.2140   -999.2500     38.4500    -25.2140    -20.2038      0.0178      0.0355      0.0355      0.0592      0.1184
   3869.0000      7.1170      0.6120      1.9439      0.3880      0.1756      0.4052      0.5056      7.1170     59.7093     36.7272    -21.7040   -999.2500     36.7272    -25.7040    -20.6705      0.0172      0.0344      0.0344      0.0573      0.1146
   3869.5000      6.8560      0.6108      1.9421      0.3892      0.1757      0.4055      0.5061      6.8560      0.6096     24.3168    -22.5280   -999.2500     24.3168    -26.5280    -21.4552      0.0163      0.0325      0.0325      0.0542      0.1084
   3870.0000      6.7270      0.6100      1.9410      0.3900      0.1757      0.4057      0.5064      6.7270      0.6021     12.1720    -23.0180   -999.2500     12.1720    -27.0180    -21.9219      0.0157      0.0314      0.0314      0.0523      0.1046
   3870.5000      6.7310      0.6093      1.9399      0.3907      0.1758      0.4058      0.5067      6.7310      0.5948      9.7176    -23.5080   -999.2500      9.7176    -27.5080    -22.3886      0.0151      0.0303      0.0303      0.0504      0.1009
   3871.0000      6.9340      0.6093      1.9400      0.3907      0.1758      0.4058      0.5067      6.9340      0.5949      8.5940    -23.4990   -999.2500      8.5940    -27.4990    -22.3800      0.0151      0.0303      0.0303      0.0505      0.1010
   3871.5000      7.6030      0.6099      1.9408      0.3901      0.1757      0.4057      0.5064      7.6030      0.6000      8.2000    -23.1560   -999.2500      8.2000    -27.1560    -22.0533      0.0155      0.0311      0.0311      0.0518      0.1036
   3872.0000      8.0710      0.6106      1.9420      0.3894      0.1757      0.4055      0.5061      8.0710      0.6077      8.2360    -22.6480   -999.2500      8.2360    -26.6480    -21.5695      0.0161      0.0322      0.0322      0.0537      0.1074
   3872.5000      8.2740      0.6109      1.9424      0.3891      0.1756      0.4054      0.5060      8.2740      0.6104      8.2720    -22.4720   -999.2500      8.2720    -26.4720    -21.4019      0.0163      0.0326      0.0326      0.0544      0.1088
   3873.0000      8.8750      0.6127      1.9452      0.3873      0.1755      0.4050      0.5053      8.8750      0.6288      9.0076    -21.2970   -999.2500      9.0076    -25.2970    -20.2829      0.0177      0.0353      0.0353      0.0589      0.1177
   3873.5000     10.2740      0.6152      1.9490      0.3848      0.1753      0.4044      0.5042     10.2740      0.6928      9.4096    -19.6170   -999.2500      9.4096    -23.6170    -18.6829      0.0196      0.0392      0.0392      0.0653      0.1305
   3874.0000     11.4720      0.6157      1.9499      0.3843      0.1753      0.4043      0.5040     11.4720      0.7086      9.8796    -19.2750   -999.2500      9.8796    -23.2750    -18.3571      0.0200      0.0399      0.0399      0.0666      0.1331
   3874.5000     11.8070      0.6165      1.9511      0.3835      0.1752      0.4041      0.5037     11.8070      0.7329      9.6184    -18.7660   -999.2500      9.6184    -22.7660    -17.8724      0.0206      0.0411      0.0411      0.0685      0.1370
   3875.0000     12.1430      0.6172      1.9523      0.3828      0.1752      0.4039      0.5033     12.1430      0.7583      9.5208    -18.2570   -999.2500      9.5208    -22.2570    -17.3876      0.0211      0.0423      0.0423      0.0704      0.1409
   3875.5000     12.1800      0.6175      1.9527      0.3825      0.1751      0.4038      0.5032     12.1800      0.7671      9.4232    -18.0840   -999.2500      9.4232    -22.0840    -17.2229      0.0213      0.0427      0.0427      0.0711      0.1422
   3876.0000     12.2170      0.6178      1.9531      0.3822      0.1751      0.4038      0.5031     12.2170      0.7762      8.8984    -17.9100   -999.2500      8.8984    -21.9100    -17.0571      0.0215      0.0431      0.0431      0.0718      0.1435
   3876.5000     12.2230      0.6186      1.9544      0.3814      0.1750      0.4036      0.5028     12.2230      0.8038      8.7032    -17.3970   -999.2500      8.7032    -21.3970    -16.5686      0.0221      0.0442      0.0442      0.0737      0.1475
   3877.0000     12.1600      0.6188      1.9548      0.3812      0.1750      0.4035      0.5027     12.1600      0.8135      8.3092    -17.2210   -999.2500      8.3092    -21.2210    -16.4010      0.0223      0.0446      0.0446      0.0744      0.1488
   3877.5000     12.0980      0.6191      1.9552      0.3809      0.1750      0.4034      0.5025     12.0980      0.8234      8.0476    -17.0450   -999.2500      8.0476    -21.0450    -16.2333      0.0225      0.0450      0.0450      0.0751      0.1501
   3878.0000     12.0360      0.6191      1.9553      0.3809      0.1750      0.4034      0.5025     12.0360      0.8238      7.8528    -17.0380   -999.2500      7.8528    -21.0380    -16.2267      0.0225      0.0451      0.0451      0.0751      0.1502
   3878.5000     11.9720      0.6191      1.9554      0.3809      0.1750      0.4034      0.5025     11.9720      0.8242      8.2536    -17.0310   -999.2500      8.2536    -21.0310    -16.2200      0.0225      0.0451      0.0451      0.0751      0.1502
   3879.0000     11.9090      0.6192      1.9554      0.3808      0.1750      0.4034      0.5025     11.9090      0.8247      8.6548    -17.0220   -999.2500      8.6548    -21.0220    -16.2114      0.0225      0.0451      0.0451      0.0752      0.1503
   3879.5000     11.8480      0.6192      1.9555      0.3808      0.1750      0.4034      0.5025     11.8480      0.8252      9.3920    -17.0130   -999.2500      9.3920    -21.0130    -16.2029      0.0226      0.0451      0.0451      0.0752      0.1504
