~V
VERS. 2.00: Ver 2.00
WRAP.   NO:        
~W
 STRT.FT 200:
 STOP.FT 3880:
 STEP.FT 0.5:
 NULL. -999.250000:
 COMP. Standard (Chevron):Company
 WELL. KCL 24-37:Well
 FLD. :Field
 LOC. S19 T11N R22W:Location
 STAT. CA:State
 SRVC. :Service Company
 SON. :Service Order #
 DATE. :Log Date
 UWI. 0370300:Unique Well ID
~C
 DEPT.FT :
 LAT.OHMM :
 LTHE. :
 MM. :
 PHES. :
 PHMX. :
 PHTS. :
 PHZC. :
 RD.OHMM :
 ROS. :
 RS.OHMM :
 SBL.MV :
 SCLN. :
 SN.OHMM :
 SP.MV :
 SPN. :
 VCDS. :
 VCLY. :
 VCWS. :
 VCY. :
 VSHS. :
~P
~A
# ...
   3672.0000      4.9750      1.6375      2.8277      0.0000   -999.2500      0.2554      0.2542      4.9750   -999.2500      6.4360     -9.3430    -29.8373      6.4360    -13.3430     -8.8981      0.2358      0.4912      0.4912      0.4912      1.6375
   3672.5000      5.0110      1.6496      2.8294      0.0000   -999.2500      0.2573      0.2538      5.0110   -999.2500      6.3068     -9.1670    -29.7959      6.3068    -13.1670     -8.7305      0.2375      0.4949      0.4949      0.4949      1.6496
   3673.0000      5.0480      1.6245      2.8260      0.0000   -999.2500      0.2534      0.2545      5.0480   -999.2500      6.2444     -9.4910    -29.7545      6.2444    -13.4910     -9.0390      0.2339      0.4873      0.4873      0.4873      1.6245
   3673.5000      5.0510      1.5993      2.8225      0.0000   -999.2500      0.2495      0.2553      5.0510   -999.2500      6.2480     -9.8150    -29.7131      6.2480    -13.8150     -9.3476      0.2303      0.4798      0.4798      0.4798      1.5993
   3674.0000      5.0540      1.5861      2.8207      0.0000   -999.2500      0.2474      0.2557      5.0540   -999.2500      6.1836     -9.9770    -29.6716      6.1836    -13.9770     -9.5019      0.2284      0.4758      0.4758      0.4758      1.5861
   3674.5000      5.1260      1.5729      2.8189      0.0000   -999.2500      0.2454      0.2561      5.1260   -999.2500      6.1192    -10.1390    -29.6302      6.1192    -14.1390     -9.6562      0.2265      0.4719      0.4719      0.4719      1.5729
   3675.0000      5.1950      1.5729      2.8189      0.0000   -999.2500      0.2454      0.2561      5.1950   -999.2500      6.0572    -10.1250    -29.5888      6.0572    -14.1250     -9.6429      0.2265      0.4719      0.4719      0.4719      1.5729
   3675.5000      5.2640      1.5851      2.8206      0.0000   -999.2500      0.2473      0.2557      5.2640   -999.2500      5.9956     -9.9490    -29.5474      5.9956    -13.9490     -9.4752      0.2283      0.4755      0.4755      0.4755      1.5851
   3676.0000      5.3340      1.6855      2.8346      0.0000   -999.2500      0.2629      0.2527      5.3340   -999.2500      5.9996     -8.6020    -29.5060      5.9996    -12.6020     -8.1924      0.2427      0.5056      0.5056      0.5056      1.6855
   3676.5000      5.4040      1.7104      2.8380      0.0000   -999.2500      0.2668      0.2519      5.4040   -999.2500      5.9692     -8.2600    -29.4645      5.9692    -12.2600     -7.8667      0.2463      0.5131      0.5131      0.5131      1.7104
   3677.0000      5.7420      1.7102      2.8380      0.0000   -999.2500      0.2668      0.2519      5.7420   -999.2500      5.9388     -8.2510    -29.4231      5.9388    -12.2510     -7.8581      0.2463      0.5130      0.5130      0.5130      1.7102
   3677.5000      5.9440      1.6974      2.8363      0.0000   -999.2500      0.2648      0.2523      5.9440   -999.2500      5.8780     -8.4080    -29.3817      5.8780    -12.4080     -8.0076      0.2444      0.5092      0.5092      0.5092      1.6974
   3678.0000      6.1140      1.6716      2.8327      0.0000   -999.2500      0.2608      0.2531      6.1140   -999.2500      5.8152     -8.7370    -29.3403      5.8152    -12.7370     -8.3210      0.2407      0.5015      0.5015      0.5015      1.6716
   3678.5000      6.2830      1.6588      2.8310      0.0000   -999.2500      0.2588      0.2535      6.2830   -999.2500      5.8180     -8.8940    -29.2989      5.8180    -12.8940     -8.4705      0.2389      0.4976      0.4976      0.4976      1.6588
   3679.0000      6.4200      1.6332      2.8275      0.0000   -999.2500      0.2548      0.2542      6.4200   -999.2500      5.8208     -9.2180    -29.2574      5.8208    -13.2180     -8.7790      0.2352      0.4900      0.4900      0.4900      1.6332
   3679.5000      6.4900      1.6330      2.8275      0.0000   -999.2500      0.2547      0.2542      6.4900   -999.2500      5.7584     -9.2080    -29.2160      5.7584    -13.2080     -8.7695      0.2351      0.4899      0.4899      0.4899      1.6330
   3680.0000      6.5600      1.6834      2.8345      0.0000   -999.2500      0.2626      0.2527      6.5600   -999.2500      5.6956     -8.5330    -29.1746      5.6956    -12.5330     -8.1267      0.2424      0.5050      0.5050      0.5050      1.6834
   3680.5000      6.5640      1.7213      2.8398      0.0000   -999.2500      0.2685      0.2516      6.5640   -999.2500      5.5688     -8.0240    -29.1332      5.5688    -12.0240     -7.6419      0.2479      0.5164      0.5164      0.5164      1.7213
   3681.0000      6.5670      1.7336      2.8415      0.0000   -999.2500      0.2704      0.2512      6.5670   -999.2500      5.5060     -7.8510    -29.0918      5.5060    -11.8510     -7.4771      0.2496      0.5201      0.5201      0.5201      1.7336
   3681.5000      6.5690      1.7461      2.8432      0.0000   -999.2500      0.2724      0.2508      6.5690   -999.2500      5.3752     -7.6770    -29.0503      5.3752    -11.6770     -7.3114      0.2514      0.5238      0.5238      0.5238      1.7461
   3682.0000      6.5750      1.7336      2.8415      0.0000   -999.2500      0.2704      0.2512      6.5750   -999.2500      5.2784     -7.8290    -29.0089      5.2784    -11.8290     -7.4562      0.2496      0.5201      0.5201      0.5201      1.7336
   3682.5000      6.5780      1.7141      2.8389      0.0000   -999.2500      0.2674      0.2518      6.5780   -999.2500      5.1820     -8.0720    -28.9675      5.1820    -12.0720     -7.6876      0.2468      0.5142      0.5142      0.5142      1.7141
   3683.0000      6.3830      1.6945      2.8362      0.0000   -999.2500      0.2643      0.2523      6.3830   -999.2500      4.9220     -8.3150    -28.9261      4.9220    -12.3150     -7.9190      0.2440      0.5084      0.5084      0.5084      1.6945
   3683.5000      6.3200      1.6562      2.8309      0.0000   -999.2500      0.2584      0.2535      6.3200   -999.2500      4.8596     -8.8010    -28.8847      4.8596    -12.8010     -8.3819      0.2385      0.4969      0.4969      0.4969      1.6562
   3684.0000      6.2560      1.6432      2.8291      0.0000   -999.2500      0.2563      0.2539      6.2560   -999.2500      4.7636     -8.9580    -28.8432      4.7636    -12.9580     -8.5314      0.2366      0.4929      0.4929      0.4929      1.6432
   3684.5000      6.1930      1.6172      2.8256      0.0000   -999.2500      0.2523      0.2546      6.1930   -999.2500      4.6680     -9.2820    -28.8018      4.6680    -13.2820     -8.8400      0.2329      0.4852      0.4852      0.4852      1.6172
   3685.0000      6.1290      1.6169      2.8255      0.0000   -999.2500      0.2522      0.2546      6.1290   -999.2500      4.6052     -9.2720    -28.7604      4.6052    -13.2720     -8.8305      0.2328      0.4851      0.4851      0.4851      1.6169
   3685.5000      6.1000      1.6294      2.8273      0.0000   -999.2500      0.2542      0.2543      6.1000   -999.2500      4.5752     -9.0970    -28.7190      4.5752    -13.0970     -8.6638      0.2346      0.4888      0.4888      0.4888      1.6294
   3686.0000      6.0700      1.6613      2.8317      0.0000   -999.2500      0.2592      0.2533      6.0700   -999.2500      4.5448     -8.6730    -28.6776      4.5448    -12.6730     -8.2600      0.2392      0.4984      0.4984      0.4984      1.6613
   3686.5000      6.0100      1.6931      2.8362      0.0000   -999.2500      0.2641      0.2523      6.0100   -999.2500      4.4840     -8.2500    -28.6361      4.4840    -12.2500     -7.8571      0.2438      0.5079      0.5079      0.5079      1.6931
   3687.0000      5.9790      1.7252      2.8406      0.0000   -999.2500      0.2691      0.2514      5.9790   -999.2500      4.4876     -7.8250    -28.5947      4.4876    -11.8250     -7.4524      0.2484      0.5176      0.5176      0.5176      1.7252
   3687.5000      5.9490      1.7575      2.8451      0.0000   -999.2500      0.2732      0.2504      5.9490   -999.2500      4.4912     -7.3990    -28.5533      4.4912    -11.3990     -7.0467      0.2531      0.5272      0.5262      0.5272      1.7575
