~V
VERS. 2.00: Ver 2.00
WRAP.   NO:        
~W
 STRT.FT 200:
 STOP.FT 3880:
 STEP.FT 0.5:
 NULL. -999.250000:
 COMP. Standard (Chevron):Company
 WELL. KCL 24-37:Well
 FLD. :Field
 LOC. S19 T11N R22W:Location
 STAT. CA:State
 SRVC. :Service Company
 SON. :Service Order #
 DATE. :Log Date
 UWI. 0370300:Unique Well ID
~C
 DEPT.FT :
 LAT.OHMM :
 LTHE. :
 MM. :
 PHES. :
 PHMX. :
 PHTS. :
 PHZC. :
 RD.OHMM :
 ROS. :
 RS.OHMM :
 SBL.MV :
 SCLN. :
 SN.OHMM :
 SP.MV :
 SPN. :
 VCDS. :
 VCLY. :
 VCWS. :
 VCY. :
 VSHS. :
~P
~A
# ...
   2904.0000      3.5470      1.7663      2.8046      0.0000   -999.2500      0.2755      0.2580      3.5470   -999.2500      3.6128    -10.7661    -42.1926      3.6128    -12.7570    -10.2534      0.2543      0.5299      0.5299      0.5299      1.7663
   2904.5000      3.5500      1.7670      2.8047      0.0000   -999.2500      0.2756      0.2579      3.5500   -999.2500      3.6484    -10.7601    -42.2182      3.6484    -12.7480    -10.2477      0.2544      0.5301      0.5301      0.5301      1.7670
   2905.0000      3.5520      1.7851      2.8072      0.0000   -999.2500      0.2785      0.2574      3.5520   -999.2500      3.6840    -10.4212    -42.2439      3.6840    -12.4060     -9.9249      0.2571      0.5355      0.5355      0.5355      1.7851
   2905.5000      3.5550      1.7857      2.8073      0.0000   -999.2500      0.2786      0.2574      3.5550   -999.2500      3.7556    -10.4172    -42.2695      3.7556    -12.3990     -9.9211      0.2571      0.5357      0.5357      0.5357      1.7857
   2906.0000      3.6260      1.7862      2.8074      0.0000   -999.2500      0.2786      0.2574      3.6260   -999.2500      3.8256    -10.4132    -42.2952      3.8256    -12.3920     -9.9173      0.2572      0.5359      0.5359      0.5359      1.7862
   2906.5000      3.6620      1.7434      2.8015      0.0000   -999.2500      0.2720      0.2586      3.6620   -999.2500      3.9616    -11.2352    -42.3208      3.9616    -13.2110    -10.7002      0.2510      0.5230      0.5230      0.5230      1.7434
   2907.0000      3.6980      1.7004      2.7956      0.0000   -999.2500      0.2653      0.2599      3.6980   -999.2500      4.0976    -12.0613    -42.3464      4.0976    -14.0340    -11.4869      0.2449      0.5101      0.5101      0.5101      1.7004
   2907.5000      3.7030      1.6659      2.7909      0.0000   -999.2500      0.2599      0.2609      3.7030   -999.2500      4.2336    -12.7263    -42.3721      4.2336    -14.6960    -12.1203      0.2399      0.4998      0.4998      0.4998      1.6659
   2908.0000      3.9030      1.5793      2.7789      0.0000   -999.2500      0.2464      0.2635      3.9030   -999.2500      4.4360    -14.3853    -42.3977      4.4360    -16.3520    -13.7003      0.2274      0.4738      0.4738      0.4738      1.5793
   2908.5000      3.9080      1.3978      2.7538      0.0000   -999.2500      0.2181      0.2690      3.9080   -999.2500      4.6384    -17.2094    -42.4234      4.6384    -19.1730    -16.3899      0.2013      0.4193      0.4193      0.4296      1.3978
   2909.0000      3.9120      1.3529      2.7476      0.0000   -999.2500      0.2111      0.2703      3.9120   -999.2500      5.0396    -17.7914    -42.4490      5.0396    -19.7520    -16.9442      0.1948      0.4059      0.4059      0.4206      1.3529
   2909.5000      3.9140      1.3082      2.7414      0.0000   -999.2500      0.2041      0.2717      3.9140   -999.2500      5.5736    -18.3724    -42.4747      5.5736    -20.3300    -17.4975      0.1884      0.3924      0.3924      0.4116      1.3082
   2910.0000      3.9170      1.2315      2.7308      0.0000   -999.2500      0.1921      0.2740      3.9170   -999.2500      5.7088    -19.3605    -42.5000      5.7088    -21.3150    -18.4385      0.1773      0.3695      0.3695      0.3963      1.2315
   2910.5000      3.9530      1.3237      2.7436      0.0000   -999.2500      0.2065      0.2712      3.9530   -999.2500      5.8440    -18.1885    -42.5085      5.8440    -20.1400    -17.3224      0.1906      0.3971      0.3971      0.4147      1.3237
   2911.0000      3.9900      1.4554      2.7619      0.0000   -999.2500      0.2270      0.2672      3.9900   -999.2500      5.8492    -16.5125    -42.5169      5.8492    -18.4610    -15.7262      0.2096      0.4366      0.4366      0.4411      1.4554
   2911.5000      4.0600      1.4886      2.7665      0.0000   -999.2500      0.2322      0.2662      4.0600   -999.2500      5.7200    -16.0925    -42.5254      5.7200    -18.0380    -15.3262      0.2144      0.4466      0.4466      0.4477      1.4886
   2912.0000      4.1290      1.5146      2.7701      0.0000   -999.2500      0.2363      0.2654      4.1290   -999.2500      5.5908    -15.6716    -42.5338      5.5908    -17.6140    -14.9253      0.2181      0.4544      0.4544      0.4544      1.5146
   2912.5000      4.2010      1.5849      2.7799      0.0000   -999.2500      0.2472      0.2633      4.2010   -999.2500      5.5276    -14.3286    -42.5423      5.5276    -16.2680    -13.6463      0.2282      0.4755      0.4755      0.4755      1.5849
   2913.0000      4.2040      1.6070      2.7830      0.0000   -999.2500      0.2507      0.2627      4.2040   -999.2500      5.3984    -13.9086    -42.5508      5.3984    -15.8450    -13.2463      0.2314      0.4821      0.4821      0.4821      1.6070
   2913.5000      4.1740      1.6290      2.7861      0.0000   -999.2500      0.2541      0.2620      4.1740   -999.2500      5.2028    -13.4887    -42.5592      5.2028    -15.4220    -12.8463      0.2346      0.4887      0.4887      0.4887      1.6290
   2914.0000      4.1430      1.6558      2.7898      0.0000   -999.2500      0.2583      0.2612      4.1430   -999.2500      5.1388    -12.9777    -42.5677      5.1388    -14.9080    -12.3597      0.2384      0.4968      0.4968      0.4968      1.6558
   2914.5000      4.1450      1.6737      2.7923      0.0000   -999.2500      0.2611      0.2606      4.1450   -999.2500      5.0748    -12.6387    -42.5761      5.0748    -14.5660    -12.0369      0.2410      0.5021      0.5021      0.5021      1.6737
   2915.0000      4.1480      1.6871      2.7942      0.0000   -999.2500      0.2632      0.2602      4.1480   -999.2500      5.0120    -12.3848    -42.5846      5.0120    -14.3090    -11.7950      0.2429      0.5061      0.5061      0.5061      1.6871
   2915.5000      4.0850      1.7004      2.7961      0.0000   -999.2500      0.2653      0.2598      4.0850   -999.2500      4.9488    -12.1308    -42.5931      4.9488    -14.0520    -11.5531      0.2449      0.5101      0.5101      0.5101      1.7004
   2916.0000      4.0220      1.7098      2.7974      0.0000   -999.2500      0.2667      0.2595      4.0220   -999.2500      4.8216    -11.9538    -42.6015      4.8216    -13.8720    -11.3846      0.2462      0.5129      0.5129      0.5129      1.7098
   2916.5000      3.9610      1.7144      2.7981      0.0000   -999.2500      0.2675      0.2594      3.9610   -999.2500      4.7588    -11.8668    -42.6100      4.7588    -13.7820    -11.3018      0.2469      0.5143      0.5143      0.5143      1.7144
   2917.0000      3.9640      1.7192      2.7987      0.0000   -999.2500      0.2682      0.2593      3.9640   -999.2500      4.7620    -11.7789    -42.6185      4.7620    -13.6910    -11.2180      0.2476      0.5157      0.5157      0.5157      1.7192
   2917.5000      3.9670      1.7025      2.7965      0.0000   -999.2500      0.2656      0.2598      3.9670   -999.2500      4.7652    -12.1009    -42.6269      4.7652    -14.0100    -11.5247      0.2452      0.5107      0.5107      0.5107      1.7025
   2918.0000      3.9040      1.6856      2.7941      0.0000   -999.2500      0.2629      0.2603      3.9040   -999.2500      4.7668    -12.4279    -42.6354      4.7668    -14.3340    -11.8361      0.2427      0.5057      0.5057      0.5057      1.6856
   2918.5000      3.9080      1.6687      2.7918      0.0000   -999.2500      0.2603      0.2608      3.9080   -999.2500      4.7684    -12.7550    -42.6438      4.7684    -14.6580    -12.1476      0.2403      0.5006      0.5006      0.5006      1.6687
   2919.0000      3.8770      1.6084      2.7835      0.0000   -999.2500      0.2509      0.2626      3.8770   -999.2500      4.8400    -13.9140    -42.6523      4.8400    -15.8140    -13.2514      0.2316      0.4825      0.4825      0.4825      1.6084
   2919.5000      3.8460      1.5655      2.7776      0.0000   -999.2500      0.2442      0.2638      3.8460   -999.2500      4.9096    -14.7410    -42.6608      4.9096    -16.6380    -14.0391      0.2254      0.4696      0.4696      0.4696      1.5655
