~V
VERS. 2.00: Ver 2.00
WRAP.   NO:        
~W
 STRT.FT 200:
 STOP.FT 1850:
 STEP.FT 0.5:
 NULL. -999.250000:
 COMP. Standard (Texaco):Company
 WELL. KCL 24-32:Well
 FLD. :Field
 LOC. S30 T11N R22W:Location
 STAT. CA:State
 SRVC. :Service Company
 SON. :Service Order #
 DATE. :Log Date
 UWI. 0369000:Unique Well ID
~C
 DEPT.FT :
 AM.OHMM :
 LTHE. :
 MM. :
 OA.OHMM :
 PHES. :
 PHMX. :
 PHTS. :
 PHZC. :
 RD.OHMM :
 ROS. :
 RS.OHMM :
 SBL.MV :
 SCLN. :
 SP.MV :
 SPN. :
 VCDS. :
 VCLY. :
 VCWS. :
 VSHS. :
~P
~A
# ...
    519.0000     23.0220      0.5405      1.8496     10.1230      0.4595      0.1882      0.4843      0.5752     10.1230   -999.2500     23.0220    -10.0410   -999.2500    -10.0410    -14.3443      0.0248      0.0496      0.0496      0.1652
    519.5000     23.7030      0.5353      1.8416      9.2300      0.4647      0.1886      0.4855      0.5773      9.2300   -999.2500     23.7030    -12.3770   -999.2500    -12.3770    -17.6814      0.0208      0.0416      0.0416      0.1385
    520.0000     24.3830      0.5300      1.8334      9.1820      0.4700      0.1890      0.4867      0.5795      9.1820   -999.2500     24.3830    -14.7460   -999.2500    -14.7460    -21.0657      0.0167      0.0334      0.0334      0.1115
    520.5000     25.9120      0.5227      1.8221      9.1820      0.4773      0.1896      0.4883      0.5826      9.1820   -999.2500     25.9120    -18.0480   -999.2500    -18.0480    -25.7829      0.0111      0.0221      0.0221      0.0737
    521.0000     28.1430      0.5195      1.8171      9.5950      0.4805      0.1898      0.4891      0.5839      9.5950   -999.2500     28.1430    -19.5170   -999.2500    -19.5170    -27.8814      0.0085      0.0171      0.0171      0.0569
    521.5000     31.1390      0.5183      1.8152     10.1270      0.4817      0.1899      0.4893      0.5844     10.1270   -999.2500     31.1390    -20.0530   -999.2500    -20.0530    -28.6471      0.0076      0.0152      0.0152      0.0508
    522.0000     33.1030      0.5179      1.8147     10.4860      0.4821      0.1899      0.4894      0.5846     10.4860   -999.2500     33.1030    -20.2230   -999.2500    -20.2230    -28.8900      0.0073      0.0147      0.0147      0.0489
    522.5000     35.1660      0.5238      1.8238     10.5530      0.4762      0.1895      0.4880      0.5821     10.5530   -999.2500     35.1660    -17.5600   -999.2500    -17.5600    -25.0857      0.0119      0.0238      0.0238      0.0793
    523.0000     35.7630      0.5275      1.8294     10.6190      0.4725      0.1892      0.4872      0.5806     10.6190   -999.2500     35.7630    -15.9320   -999.2500    -15.9320    -22.7600      0.0147      0.0294      0.0294      0.0979
    523.5000     36.6260      0.5284      1.8307      9.0050      0.4716      0.1891      0.4870      0.5802      9.0050   -999.2500     36.6260    -15.5340   -999.2500    -15.5340    -22.1914      0.0154      0.0307      0.0307      0.1025
    524.0000     36.8240      0.5292      1.8320      8.5510      0.4708      0.1891      0.4868      0.5798      8.5510   -999.2500     36.8240    -15.1710   -999.2500    -15.1710    -21.6729      0.0160      0.0320      0.0320      0.1066
    524.5000     35.2890      0.5294      1.8322      8.4040      0.4706      0.1890      0.4867      0.5798      8.4040   -999.2500     35.2890    -15.1070   -999.2500    -15.1070    -21.5814      0.0161      0.0322      0.0322      0.1073
    525.0000     33.8860      0.5292      1.8320      8.5000      0.4708      0.1891      0.4868      0.5798      8.5000   -999.2500     33.8860    -15.1760   -999.2500    -15.1760    -21.6800      0.0160      0.0320      0.0320      0.1066
    525.5000     33.4830      0.5291      1.8317      8.5960      0.4709      0.1891      0.4868      0.5799      8.5960   -999.2500     33.4830    -15.2440   -999.2500    -15.2440    -21.7771      0.0159      0.0317      0.0317      0.1058
    526.0000     34.7790      0.5289      1.8314      8.7820      0.4711      0.1891      0.4868      0.5800      8.7820   -999.2500     34.7790    -15.3490   -999.2500    -15.3490    -21.9271      0.0157      0.0314      0.0314      0.1046
    526.5000     35.3760      0.5290      1.8317      8.8950      0.4710      0.1891      0.4868      0.5799      8.8950   -999.2500     35.3760    -15.2680   -999.2500    -15.2680    -21.8114      0.0158      0.0317      0.0317      0.1055
    527.0000     35.8060      0.5292      1.8319      8.6880      0.4708      0.1891      0.4867      0.5798      8.6880   -999.2500     35.8060    -15.1880   -999.2500    -15.1880    -21.6971      0.0160      0.0319      0.0319      0.1064
    527.5000     36.0040      0.5297      1.8326      8.5410      0.4703      0.1890      0.4866      0.5796      8.5410   -999.2500     36.0040    -14.9900   -999.2500    -14.9900    -21.4143      0.0163      0.0326      0.0326      0.1087
    528.0000     36.0690      0.5301      1.8333      8.3940      0.4699      0.1890      0.4865      0.5794      8.3940   -999.2500     36.0690    -14.7930   -999.2500    -14.7930    -21.1329      0.0166      0.0333      0.0333      0.1109
    528.5000     35.2330      0.5310      1.8346      8.3770      0.4690      0.1889      0.4863      0.5790      8.3770   -999.2500     35.2330    -14.3980   -999.2500    -14.3980    -20.5686      0.0173      0.0346      0.0346      0.1155
    529.0000     34.2630      0.5330      1.8376      8.3590      0.4670      0.1888      0.4858      0.5782      8.3590   -999.2500     34.2630    -13.5350   -999.2500    -13.5350    -19.3357      0.0188      0.0376      0.0376      0.1253
    529.5000     34.0260      0.5352      1.8410      8.6720      0.4648      0.1886      0.4853      0.5773      8.6720   -999.2500     34.0260    -12.5380   -999.2500    -12.5380    -17.9114      0.0205      0.0410      0.0410      0.1367
    530.0000     33.9240      0.5362      1.8425      8.8910      0.4638      0.1885      0.4851      0.5769      8.8910   -999.2500     33.9240    -12.1070   -999.2500    -12.1070    -17.2957      0.0212      0.0425      0.0425      0.1416
    530.5000     35.3870      0.5368      1.8435      9.1740      0.4632      0.1885      0.4849      0.5766      9.1740   -999.2500     35.3870    -11.8270   -999.2500    -11.8270    -16.8957      0.0217      0.0435      0.0435      0.1448
    531.0000     37.8180      0.5374      1.8444      9.4570      0.4626      0.1884      0.4848      0.5763      9.4570   -999.2500     37.8180    -11.5460   -999.2500    -11.5460    -16.4943      0.0222      0.0444      0.0444      0.1480
    531.5000     42.0470      0.5410      1.8499      9.7630      0.4590      0.1882      0.4839      0.5748      9.7630   -999.2500     42.0470     -9.9510   -999.2500     -9.9510    -14.2157      0.0249      0.0499      0.0499      0.1663
    532.0000     43.1450      0.5431      1.8531     10.0690      0.4569      0.1880      0.4834      0.5740     10.0690   -999.2500     43.1450     -9.0210   -999.2500     -9.0210    -12.8871      0.0265      0.0531      0.0531      0.1769
    532.5000     43.5420      0.5442      1.8548     10.3720      0.4558      0.1879      0.4832      0.5735     10.3720   -999.2500     43.5420     -8.5230   -999.2500     -8.5230    -12.1757      0.0274      0.0548      0.0548      0.1826
    533.0000     43.6060      0.5444      1.8550     10.6740      0.4556      0.1879      0.4831      0.5734     10.6740   -999.2500     43.6060     -8.4600   -999.2500     -8.4600    -12.0857      0.0275      0.0550      0.0550      0.1833
    533.5000     28.9380      0.5428      1.8526     11.0330      0.4572      0.1880      0.4835      0.5741     11.0330   -999.2500     28.9380     -9.1630   -999.2500     -9.1630    -13.0900      0.0263      0.0526      0.0526      0.1753
    534.0000     25.5700      0.5410      1.8497     11.2730      0.4590      0.1882      0.4839      0.5748     11.2730   -999.2500     25.5700     -9.9990   -999.2500     -9.9990    -14.2843      0.0249      0.0497      0.0497      0.1657
    534.5000     23.5330      0.5391      1.8469     11.3520      0.4609      0.1883      0.4843      0.5756     11.3520   -999.2500     23.5330    -10.8350   -999.2500    -10.8350    -15.4786      0.0234      0.0469      0.0469      0.1562
    535.0000     23.0970      0.5439      1.8542     11.4320      0.4561      0.1879      0.4832      0.5736     11.4320   -999.2500     23.0970     -8.7060   -999.2500     -8.7060    -12.4371      0.0271      0.0542      0.0542      0.1805
    535.5000     22.8610      0.5460      1.8573      9.9380      0.4540      0.1878      0.4827      0.5727      9.9380   -999.2500     22.8610     -7.7750   -999.2500     -7.7750    -11.1071      0.0287      0.0573      0.0573      0.1911
