~V
VERS. 2.00: Ver 2.00
WRAP.   NO:        
~W
 STRT.FT 200:
 STOP.FT 1850:
 STEP.FT 0.5:
 NULL. -999.250000:
 COMP. Standard (Texaco):Company
 WELL. KCL 24-32:Well
 FLD. :Field
 LOC. S30 T11N R22W:Location
 STAT. CA:State
 SRVC. :Service Company
 SON. :Service Order #
 DATE. :Log Date
 UWI. 0369000:Unique Well ID
~C
 DEPT.FT :
 AM.OHMM :
 LTHE. :
 MM. :
 OA.OHMM :
 PHES. :
 PHMX. :
 PHTS. :
 PHZC. :
 RD.OHMM :
 ROS. :
 RS.OHMM :
 SBL.MV :
 SCLN. :
 SP.MV :
 SPN. :
 VCDS. :
 VCLY. :
 VCWS. :
 VSHS. :
~P
~A
# ...
   1505.0000      2.5470      0.5575      1.8385      2.2220      0.4425      0.1848      0.4617      0.5565      2.2220      0.9390      2.5470    -28.2870    -95.0000    -28.2870    -40.4100      0.0193      0.0385      0.0385      0.1284
   1505.5000      2.5850      0.5569      1.8375      2.4060      0.4431      0.1849      0.4619      0.5567      2.4060      0.8987      2.5850    -29.2820    -95.0000    -29.2820    -41.8314      0.0188      0.0375      0.0375      0.1251
   1506.0000      2.6230      0.5563      1.8365      2.4520      0.4437      0.1849      0.4620      0.5570      2.4520      0.8606      2.6230    -30.2770    -95.0000    -30.2770    -43.2529      0.0183      0.0365      0.0365      0.1218
   1506.5000      2.4780      0.5558      1.8358      2.3710      0.4442      0.1849      0.4621      0.5572      2.3710      0.8331      2.4780    -31.0290    -95.0000    -31.0290    -44.3271      0.0179      0.0358      0.0358      0.1192
   1507.0000      2.4140      0.5546      1.8339      2.3810      0.4454      0.1850      0.4624      0.5577      2.3810      0.7691      2.4140    -32.9170    -95.0000    -32.9170    -47.0243      0.0169      0.0339      0.0339      0.1129
   1507.5000      2.3500      0.5540      1.8330      2.4600      0.4460      0.1851      0.4625      0.5579      2.4600      0.7518      2.3500    -33.7860    -95.0000    -33.7860    -48.2657      0.0165      0.0330      0.0330      0.1100
   1508.0000      2.4560      0.5539      1.8328      2.5500      0.4461      0.1851      0.4625      0.5580      2.5500      0.7498      2.4560    -33.9390    -95.0000    -33.9390    -48.4843      0.0164      0.0328      0.0328      0.1094
   1508.5000      2.5570      0.5540      1.8330      2.6200      0.4460      0.1851      0.4625      0.5579      2.6200      0.7513      2.5570    -33.8160    -95.0000    -33.8160    -48.3086      0.0165      0.0330      0.0330      0.1099
   1509.0000      2.6700      0.5541      1.8331      2.6520      0.4459      0.1851      0.4624      0.5579      2.6520      0.7528      2.6700    -33.6930    -95.0000    -33.6930    -48.1329      0.0165      0.0331      0.0331      0.1103
   1509.5000      2.6860      0.5545      1.8337      2.6830      0.4455      0.1850      0.4623      0.5577      2.6830      0.7621      2.6860    -33.1300    -95.0000    -33.1300    -47.3286      0.0168      0.0337      0.0337      0.1122
   1510.0000      2.6960      0.5547      1.8339      2.6890      0.4453      0.1850      0.4623      0.5576      2.6890      0.7710      2.6960    -32.8480    -95.0000    -32.8480    -46.9257      0.0170      0.0339      0.0339      0.1131
   1510.5000      2.6850      0.5548      1.8340      2.5850      0.4452      0.1850      0.4623      0.5576      2.5850      0.7739      2.6850    -32.7580    -95.0000    -32.7580    -46.7971      0.0170      0.0340      0.0340      0.1134
   1511.0000      2.6640      0.5548      1.8341      2.3660      0.4452      0.1850      0.4622      0.5575      2.3660      0.7768      2.6640    -32.6680    -95.0000    -32.6680    -46.6686      0.0171      0.0341      0.0341      0.1137
   1511.5000      2.6560      0.5551      1.8345      2.1350      0.4449      0.1850      0.4622      0.5574      2.1350      0.7897      2.6560    -32.2720    -95.0000    -32.2720    -46.1029      0.0173      0.0345      0.0345      0.1151
   1512.0000      2.6470      0.5563      1.8363      1.9700      0.4437      0.1849      0.4619      0.5569      1.9700      0.8507      2.6470    -30.5230    -95.0000    -30.5230    -43.6043      0.0181      0.0363      0.0363      0.1209
   1512.5000      2.6590      0.5590      1.8404      1.8590      0.4410      0.1847      0.4613      0.5558      1.8590      1.0212      2.6590    -26.3900    -95.0000    -26.3900    -37.7000      0.0202      0.0404      0.0404      0.1348
   1513.0000      2.6790      0.5627      1.8461      1.7410      0.4373      0.1844      0.4604      0.5543      1.7410      1.3307      2.6790    -20.7560    -95.0000    -20.7560    -29.6514      0.0231      0.0461      0.0461      0.1538
   1513.5000      2.6280      0.5639      1.8481      1.7620      0.4361      0.1843      0.4601      0.5537      1.7620      1.4623      2.6280    -18.8390    -95.0000    -18.8390    -26.9129      0.0240      0.0481      0.0481      0.1602
   1514.0000      2.4870      0.5662      1.8515      1.7840      0.4338      0.1841      0.4596      0.5528      1.7840      1.7364      2.4870    -15.4070    -95.0000    -15.4070    -22.0100      0.0258      0.0515      0.0515      0.1717
   1514.5000      2.3390      0.5669      1.8525      1.8490      0.4331      0.1841      0.4594      0.5525      1.8490      1.7820      2.3390    -14.3920    -95.0000    -14.3920    -20.5600      0.0263      0.0525      0.0525      0.1752
   1515.0000      2.2250      0.5666      1.8522      1.9130      0.4334      0.1841      0.4594      0.5526      1.9130      1.7643      2.2250    -14.7770    -95.0000    -14.7770    -21.1100      0.0261      0.0522      0.0522      0.1739
   1515.5000      2.1540      0.5635      1.8473      1.9560      0.4365      0.1843      0.4602      0.5539      1.9560      1.4054      2.1540    -19.6330    -95.0000    -19.6330    -28.0471      0.0236      0.0473      0.0473      0.1575
   1516.0000      2.2370      0.5602      1.8422      1.9990      0.4398      0.1846      0.4609      0.5553      1.9990      1.1060      2.2370    -24.6390    -95.0000    -24.6390    -35.1986      0.0211      0.0422      0.0422      0.1407
   1516.5000      2.3200      0.5583      1.8392      1.9550      0.4417      0.1847      0.4613      0.5560      1.9550      0.9661      2.3200    -27.6100    -95.0000    -27.6100    -39.4429      0.0196      0.0392      0.0392      0.1307
   1517.0000      2.5100      0.5578      1.8385      1.9510      0.4422      0.1848      0.4614      0.5562      1.9510      0.9356      2.5100    -28.3300    -95.0000    -28.3300    -40.4714      0.0192      0.0385      0.0385      0.1283
   1517.5000      2.5640      0.5584      1.8394      1.9810      0.4416      0.1847      0.4613      0.5560      1.9810      0.9737      2.5640    -27.4310    -95.0000    -27.4310    -39.1871      0.0197      0.0394      0.0394      0.1313
   1518.0000      2.5930      0.5613      1.8439      2.0440      0.4387      0.1845      0.4606      0.5548      2.0440      1.1931      2.5930    -23.0150    -95.0000    -23.0150    -32.8786      0.0219      0.0439      0.0439      0.1462
   1518.5000      2.5120      0.5620      1.8448      2.1840      0.4380      0.1845      0.4604      0.5545      2.1840      1.2501      2.5120    -22.0330    -95.0000    -22.0330    -31.4757      0.0224      0.0448      0.0448      0.1495
   1519.0000      2.5200      0.5609      1.8432      2.2460      0.4391      0.1845      0.4607      0.5549      2.2460      1.1576      2.5200    -23.6530    -95.0000    -23.6530    -33.7900      0.0216      0.0432      0.0432      0.1440
   1519.5000      2.5280      0.5601      1.8419      2.3070      0.4399      0.1846      0.4609      0.5553      2.3070      1.0885      2.5280    -24.9730    -95.0000    -24.9730    -35.6757      0.0209      0.0419      0.0419      0.1396
   1520.0000      2.5440      0.5601      1.8419      2.4270      0.4399      0.1846      0.4608      0.5552      2.4270      1.0908      2.5440    -24.9260    -95.0000    -24.9260    -35.6086      0.0210      0.0419      0.0419      0.1397
   1520.5000      2.4730      0.5625      1.8456      2.4430      0.4375      0.1844      0.4603      0.5542      2.4430      1.2950      2.4730    -21.2930    -95.0000    -21.2930    -30.4186      0.0228      0.0456      0.0456      0.1520
   1521.0000      2.2280      0.5629      1.8462      2.4260      0.4371      0.1844      0.4602      0.5541      2.4260      1.3308      2.2280    -20.7290    -95.0000    -20.7290    -29.6129      0.0231      0.0462      0.0462      0.1539
   1521.5000      1.9970      0.5630      1.8464      2.4370      0.4370      0.1844      0.4601      0.5540      2.4370      1.3436      1.9970    -20.5300    -95.0000    -20.5300    -29.3286      0.0232      0.0464      0.0464      0.1545
