~V
VERS. 2.00: Ver 2.00
WRAP.   NO:        
~W
 STRT.FT 10:
 STOP.FT 5350:
 STEP.FT 0.5:
 NULL. -999.250000:
 COMP. Standard (Chevron):Company
 WELL. KCL 44-12:Well
 FLD. Pioneer:Field
 LOC. S32 T11N R22W:Location
 STAT. CA:State
 SRVC. :Service Company
 SON. :Service Order #
 DATE. :Log Date
 UWI. 0940400:Unique Well ID
~C
 DEPT.FT :
 GRS.RE/T :
 ILD.OHMM :
 LTHE. :
 MM. :
 NEUT.CPS :
 PHES. :
 PHMX. :
 PHTS. :
 PHZC. :
 RD.OHMM :
 ROS. :
 RS.OHMM :
 SBL.MV :
 SCLN. :
 SN.OHMM :
 SP.MV :
 SPN. :
 VCDS. :
 VCLY. :
 VCWS. :
 VSHS. :
~P
~A
# ...
   5339.5000      4.5920      3.4820      0.8500   -999.2500    261.3830      0.1500 49090916870222007100000000000.0000      0.5000 270000019174388625000000000000.0000      3.4820      0.4111      4.7500    -33.8330   -999.2500      4.7500    -81.8330    -96.6657      0.3500   -999.2500      0.7000      0.8500
   5340.0000      4.6620      3.4710      0.8500   -999.2500    260.4960      0.1500 49090916870222007100000000000.0000      0.5000 270000019174388625000000000000.0000      3.4710      0.4111      4.6740    -33.6150   -999.2500      4.6740    -81.6150    -96.0429      0.3500   -999.2500      0.7000      0.8500
   5340.5000      4.6920      3.4540      0.8500   -999.2500    259.8250      0.1500 49090916870222007100000000000.0000      0.5000 270000019174388625000000000000.0000      3.4540      0.4110      4.5660    -33.6120   -999.2500      4.5660    -81.6120    -96.0343      0.3500   -999.2500      0.7000      0.8500
   5341.0000      4.5900      3.4180      0.8500   -999.2500    259.1530      0.1500 49090916870222007100000000000.0000      0.5000 270000019174388625000000000000.0000      3.4180      0.4110      4.4470    -33.6090   -999.2500      4.4470    -81.6090    -96.0257      0.3500   -999.2500      0.7000      0.8500
   5341.5000      4.5530      3.3820      0.8500   -999.2500    258.0730      0.1500 49090916870222007100000000000.0000      0.5000 270000019174388625000000000000.0000      3.3820      0.4110      4.3820    -33.2470   -999.2500      4.3820    -81.2470    -94.9914      0.3500   -999.2500      0.7000      0.8500
   5342.0000      4.5170      3.3430      0.8500   -999.2500    257.6450      0.1500 49090916870222007100000000000.0000      0.5000 270000019174388625000000000000.0000      3.3430      0.4110      4.3180    -32.2400   -999.2500      4.3180    -80.2400    -92.1143      0.3500   -999.2500      0.7000      0.8500
   5342.5000      4.4430      3.3380      0.8500   -999.2500    257.2160      0.1500 49090916870222007100000000000.0000      0.5000 270000019174388625000000000000.0000      3.3380      0.4109      4.2820    -31.7530   -999.2500      4.2820    -79.7530    -90.7229      0.3500   -999.2500      0.7000      0.8500
   5343.0000      4.3790      3.3330      0.8500   -999.2500    257.3770      0.1500 49090916870222007100000000000.0000      0.5000 270000019174388625000000000000.0000      3.3330      0.4109      4.2790    -31.2660   -999.2500      4.2790    -79.2660    -89.3314      0.3500   -999.2500      0.7000      0.8500
   5343.5000      4.2820      3.3410      0.8500   -999.2500    257.5370      0.1500 49090916870222007100000000000.0000      0.5000 270000019174388625000000000000.0000      3.3410      0.4109      4.2740    -31.0470   -999.2500      4.2740    -79.0470    -88.7057      0.3500   -999.2500      0.7000      0.8500
   5344.0000      4.1780      3.3480      0.8500   -999.2500    258.4560      0.1500 49090916870222007100000000000.0000      0.5000 270000019174388625000000000000.0000      3.3480      0.4109      4.2690    -30.8290   -999.2500      4.2690    -78.8290    -88.0829      0.3500   -999.2500      0.7000      0.8500
   5344.5000      4.0320      3.3560      0.8500   -999.2500    259.3750      0.1500 49090916870222007100000000000.0000      0.5000 270000019174388625000000000000.0000      3.3560      0.4108      4.2620    -30.7370   -999.2500      4.2620    -78.7370    -87.8200      0.3500   -999.2500      0.7000      0.8500
   5345.0000      4.0280      3.3640      0.8500   -999.2500    269.3430      0.1500 49090916870222007100000000000.0000      0.5000 270000019174388625000000000000.0000      3.3640      0.4108      4.2610    -30.6440   -999.2500      4.2610    -78.6440    -87.5543      0.3500   -999.2500      0.7000      0.8500
   5345.5000      4.0720      3.3720      0.8500   -999.2500    274.4070      0.1500 49090916870222007100000000000.0000      0.5000 270000019174388625000000000000.0000      3.3720      0.4108      4.2590    -30.6050   -999.2500      4.2590    -78.6050    -87.4429      0.3500   -999.2500      0.7000      0.8500
   5346.0000      4.1160      3.3760      0.8500   -999.2500    276.2420      0.1500 49090916870222007100000000000.0000      0.5000 270000019174388625000000000000.0000      3.3760      0.4107      4.2600    -30.5300   -999.2500      4.2600    -78.5300    -87.2286      0.3500   -999.2500      0.7000      0.8500
   5346.5000      4.2370      3.3760      0.8500   -999.2500    278.0770      0.1500 49090916870222007100000000000.0000      0.5000 270000019174388625000000000000.0000      3.3760      0.4107      4.2600    -30.4910   -999.2500      4.2600    -78.4910    -87.1171      0.3500   -999.2500      0.7000      0.8500
   5347.0000      4.3540      3.3690      0.8500   -999.2500    281.2010      0.1500 49090916870222007100000000000.0000      0.5000 270000019174388625000000000000.0000      3.3690      0.4107      4.2610    -30.4520   -999.2500      4.2610    -78.4520    -87.0057      0.3500   -999.2500      0.7000      0.8500
   5347.5000      4.3860   -999.2500      1.0000   -999.2500    284.3240      0.0000 49090916870222007100000000000.0000      0.5000 270000019174388625000000000000.0000   -999.2500      0.4107      4.2610    -30.4370   -999.2500      4.2610    -78.4370    -86.9629      0.3500   -999.2500      0.7000      1.0000
   5348.0000      4.4180   -999.2500      1.0000   -999.2500    285.5920      0.0000 49090916870222007100000000000.0000      0.5000 270000019174388625000000000000.0000   -999.2500      0.4106      4.2620    -30.4220   -999.2500      4.2620    -78.4220    -86.9200      0.3500   -999.2500      0.7000      1.0000
   5348.5000      4.4290   -999.2500      1.0000   -999.2500    286.8600      0.0000 49090916870222007100000000000.0000      0.5000 270000019174388625000000000000.0000   -999.2500      0.4106   -999.2500    -30.4070   -999.2500   -999.2500    -78.4070    -86.8771      0.3500   -999.2500      0.7000      1.0000
   5349.0000      4.4400   -999.2500      1.0000   -999.2500    287.7770      0.0000 49090916870222007100000000000.0000      0.5000 270000019174388625000000000000.0000   -999.2500      0.4106   -999.2500    -30.3680   -999.2500   -999.2500    -78.3680    -86.7657      0.3500   -999.2500      0.7000      1.0000
   5349.5000      4.4360   -999.2500      1.0000   -999.2500    288.6950      0.0000 49090916870222007100000000000.0000      0.5000 270000019174388625000000000000.0000   -999.2500      0.4106   -999.2500    -30.3290   -999.2500   -999.2500    -78.3290    -86.6543      0.3500   -999.2500      0.7000      1.0000
   5350.0000   -999.2500   -999.2500      1.0000   -999.2500    289.7200      0.0000 49090916870222007100000000000.0000      0.5000 270000019174388625000000000000.0000   -999.2500      0.4105   -999.2500    -30.2900   -999.2500   -999.2500    -78.2900    -86.5429      0.3500   -999.2500      0.7000      1.0000
