~V
VERS. 2.00: Ver 2.00
WRAP.   NO:        
~W
 STRT.FT 40:
 STOP.FT 4330:
 STEP.FT 0.5:
 NULL. -999.250000:
 COMP. Standard (Chevron):Company
 WELL. KCL 44-45:Well
 FLD. Pioneer:Field
 LOC. S32 T11N R22W:Location
 STAT. CA:State
 SRVC. :Service Company
 SON. :Service Order #
 DATE. :Log Date
 UWI. 0941000:Unique Well ID
~C
 DEPT.FT :
 BVES. :
 BVTS. :
 FACE. :
 GR.RE/T :
 GRS.RE/T :
 ILD.OHMM :
 LTHE. :
 MM. :
 NEUS.CPS :
 NEUT.CPS :
 PHES. :
 PHMX. :
 PHTS. :
 PHZC. :
 RD.OHMM :
 ROS. :
 RS.OHMM :
 SBL.MV :
 SCLN. :
 SN.OHMM :
 SP.MV :
 SPN. :
 STUS. :
 SWES. :
 SWTS. :
 VCDS. :
 VCLY. :
 VCWS. :
 VSHS. :
~P
~A
# ...
   2418.5000      0.2470      0.3984      3.0000   -999.2500   -999.2500      0.8672      0.7530      2.5491   -999.2500   -999.2500      0.2470      0.1682      0.3984      0.4650      0.8672      1.9028      1.3933    -16.3128    -73.4341      1.3933    -40.3128    -21.7504      1.3792      1.0000      1.0000      0.1514      0.3029      0.3029      0.7530
   2419.0000      0.2298      0.3942      3.0000   -999.2500   -999.2500      0.9163      0.7702      2.6322   -999.2500   -999.2500      0.2298      0.1669      0.3942      0.4580      0.9163      2.0850      1.4465    -14.4126    -73.4688      1.4465    -38.4126    -19.2167      1.3852      1.0000      1.0000      0.1644      0.3288      0.3288      0.7702
   2419.5000      0.2363      0.3958      3.0000   -999.2500   -999.2500      0.9584      0.7637      2.6004   -999.2500   -999.2500      0.2363      0.1674      0.3958      0.4607      0.9584      2.0126      1.4998    -15.1507    -73.5035      1.4998    -39.1507    -20.2009      1.3468      1.0000      1.0000      0.1594      0.3189      0.3189      0.7637
   2420.0000      0.2403      0.3967      3.0000   -999.2500   -999.2500      1.0004      0.7597      2.5812   -999.2500   -999.2500      0.2403      0.1677      0.3967      0.4623      1.0004      1.9706      1.5442    -15.5986    -73.5383      1.5442    -39.5986    -20.7981      1.3154      1.0000      1.0000      0.1564      0.3129      0.3129      0.7597
   2420.5000      0.2397      0.3966      3.0000   -999.2500   -999.2500      1.0394      0.7603      2.5841   -999.2500   -999.2500      0.2397      0.1676      0.3966      0.4620      1.0394      1.9768      1.5863    -15.5396    -73.5730      1.5863    -39.5396    -20.7194      1.2965      1.0000      1.0000      0.1569      0.3138      0.3138      0.7603
   2421.0000      0.2387      0.3963      3.0000   -999.2500   -999.2500      1.0806      0.7613      2.5888   -999.2500   -999.2500      0.2387      0.1676      0.3963      0.4616      1.0806      1.9869      1.6263    -15.4403    -73.6078      1.6263    -39.4403    -20.5871      1.2784      1.0000      1.0000      0.1576      0.3152      0.3152      0.7613
   2421.5000      0.2376      0.3961      3.0000   -999.2500   -999.2500      1.1322      0.7624      2.5939   -999.2500   -999.2500      0.2376      0.1675      0.3961      0.4612      1.1322      1.9982      1.6613    -15.3289    -73.6425      1.6613    -39.3289    -20.4385      1.2569      1.0000      1.0000      0.1584      0.3168      0.3168      0.7624
   2422.0000      0.2303      0.3943      3.0000   -999.2500   -999.2500      1.1743      0.7697      2.6296   -999.2500   -999.2500      0.2303      0.1669      0.3943      0.4582      1.1743      2.0786      1.6999    -14.5152    -73.6772      1.6999    -38.5152    -19.3536      1.2545      1.0000      1.0000      0.1640      0.3280      0.3280      0.7697
   2422.5000      0.2236      0.3926      3.0000   -999.2500   -999.2500      1.2098      0.7764      2.6616   -999.2500   -999.2500      0.2236      0.1664      0.3926      0.4554      1.2098      2.1544      1.6607    -13.7835    -73.7120      1.6607    -37.7835    -18.3780      1.2540      1.0000      1.0000      0.1690      0.3380      0.3380      0.7764
   2423.0000      0.2205      0.3918      3.0000   -999.2500   -999.2500      1.2396      0.7795      2.6767   -999.2500   -999.2500      0.2205      0.1662      0.3918      0.4542      1.2396      2.1912      1.5985    -13.4428    -73.7467      1.5985    -37.4428    -17.9238      1.2487      1.0000      1.0000      0.1714      0.3427      0.3427      0.7795
   2423.5000      0.2371      0.3959      3.0000   -999.2500   -999.2500      1.1818      0.7629      2.5965   -999.2500   -999.2500      0.2371      0.1674      0.3959      0.4609      1.1818      2.0038      1.5403    -15.2977    -73.7815      1.5403    -39.2977    -20.3970      1.2366      1.0000      1.0000      0.1588      0.3177      0.3177      0.7629
   2424.0000      0.2540      0.4000      3.0000   -999.2500   -999.2500      1.1196      0.7460      2.5143   -999.2500   -999.2500      0.2540      0.1687      0.4000      0.4678      1.1196      1.8320      1.4853    -17.2020    -73.8162      1.4853    -41.2020    -22.9360      1.2215      1.0000      1.0000      0.1460      0.2920      0.2920      0.7460
   2424.5000      0.2630      0.4022      3.0000   -999.2500   -999.2500      1.0260      0.7370      2.4709   -999.2500   -999.2500      0.2630      0.1694      0.4022      0.4715      1.0260      1.7488      1.4251    -18.2111    -73.8509      1.4251    -42.2111    -24.2814      1.2475      1.0000      1.0000      0.1392      0.2784      0.2784      0.7370
   2425.0000      0.2670      0.4031      3.0000   -999.2500   -999.2500      0.9578      0.7330      2.4511   -999.2500   -999.2500      0.2670      0.1697      0.4031      0.4732      0.9578      1.7123      1.3610    -18.6778    -73.8857      1.3610    -42.6778    -24.9038      1.2753      1.0000      1.0000      0.1361      0.2722      0.2722      0.7330
   2425.5000      0.2707      0.4040      3.0000   -999.2500   -999.2500      0.9112      0.7293      2.4330   -999.2500   -999.2500      0.2707      0.1699      0.4040      0.4747      0.9112      1.6800      1.2920    -19.1030    -73.9204      1.2920    -43.1030    -25.4706      1.2947      1.0000      1.0000      0.1333      0.2666      0.2666      0.7293
   2426.0000      0.2862      0.4078      3.0000   -999.2500   -999.2500      0.8760      0.7138      2.3579   -999.2500   -999.2500      0.2862      0.1711      0.4078      0.4810      0.8760      1.5534      1.2238    -20.8480    -73.9552      1.2238    -44.8480    -27.7973      1.2843      1.0000      1.0000      0.1215      0.2431      0.2431      0.7138
   2426.5000      0.3016      0.4114      3.0000   -999.2500   -999.2500      0.8505      0.6984      2.2829   -999.2500   -999.2500      0.3016      0.1722      0.4114      0.4873      0.8505      1.4389      1.1976    -22.5915    -73.9899      1.1976    -46.5915    -30.1219      1.2682      1.0000      1.0000      0.1098      0.2197      0.2197      0.6984
   2427.0000      0.3090      0.4132      3.0000   -999.2500   -999.2500      0.8309      0.6910      2.2470   -999.2500   -999.2500      0.3090      0.1728      0.4132      0.4903      0.8309      1.3878      1.3508    -23.4335    -74.0246      1.3508    -47.4335    -31.2447      1.2656      1.0000      1.0000      0.1042      0.2084      0.2084      0.6910
   2427.5000      0.3202      0.4159      3.0000   -999.2500   -999.2500      0.8432      0.6798      2.1922   -999.2500   -999.2500      0.3202      0.1736      0.4159      0.4949      0.8432      1.3143      1.7572    -24.7120    -74.0594      1.7572    -48.7120    -32.9493      1.2323      1.0000      1.0000      0.0957      0.1913      0.1913      0.6377
   2428.0000      0.3270      0.4175      3.0000   -999.2500   -999.2500      0.9199      0.6730      2.1589   -999.2500   -999.2500      0.3270      0.1741      0.4175      0.4977      0.9199      1.2720      2.2262    -25.4948    -74.0941      2.2262    -49.4948    -33.9931      1.1676      1.0000      1.0000      0.0905      0.1809      0.1809      0.6030
   2428.5000      0.3236      0.4166      3.0000   -999.2500   -999.2500      1.0383      0.6764      2.1757   -999.2500   -999.2500      0.3236      0.1739      0.4166      0.4963      1.0383      1.2931      2.6461    -25.1170    -74.1288      2.6461    -49.1170    -33.4893      1.1098      1.0000      1.0000      0.0931      0.1862      0.1862      0.6206
   2429.0000      0.3171      0.4151      3.0000   -999.2500   -999.2500      1.2163      0.6829      2.2074   -999.2500   -999.2500      0.3171      0.1734      0.4151      0.4936      1.2163      1.3340      3.2053    -24.3955    -74.1636      3.2053    -48.3955    -32.5274      1.0407      1.0000      1.0000      0.0980      0.1961      0.1961      0.6535
   2429.5000      0.2970      0.3900      3.0000   -999.2500   -999.2500      1.4821      0.6764      2.1754   -999.2500   -999.2500      0.3236      0.1739      0.4166      0.4963      1.4821      1.2925      3.6912    -25.1497    -74.1983      3.6912    -49.1497    -33.5329      0.9361      0.9178      0.9361      0.0930      0.1860      0.1860      0.6202
