~V
VERS. 2.00: Ver 2.00
WRAP.   NO:        
~W
 STRT.FT 29:
 STOP.FT 4770:
 STEP.FT 0.5:
 NULL. -999.250000:
 COMP. Standard (Chevron):Company
 WELL. KCL 44-32:Well
 FLD. Pioneer:Field
 LOC. S32 T11N R22W:Location
 STAT. CA:State
 SRVC. :Service Company
 SON. :Service Order #
 DATE. :Log Date
 UWI. 0940700:Unique Well ID
~C
 DEPT.FT :
 BVES. :
 BVTS. :
 FACE. :
 GRS.RE/T :
 ILD.OHMM :
 LTHE. :
 MM. :
 NEUT.CPS :
 PHES. :
 PHMX. :
 PHTS. :
 PHZC. :
 RD.OHMM :
 ROS. :
 RS.OHMM :
 SBL.MV :
 SCLN. :
 SN.OHMM :
 SP.MV :
 SPN. :
 STUS. :
 SWES. :
 SWTS. :
 VCDS. :
 VCLY. :
 VCWS. :
 VSHS. :
~P
~A
# ...
   1997.0000      0.2364      0.4036      3.0000   -999.2500      1.3020      0.7636      2.6501   -999.2500      0.2364      0.1683      0.4036      0.4658      1.3020      2.1535      1.3170    -10.5585    -83.0998      1.3170    -41.6930    -21.1171      1.2177      1.0000      1.0000      0.1672      0.3344      0.3344      0.7636
   1997.5000      0.2255      0.4009      3.0000   -999.2500      1.3150      0.7745      2.7004   -999.2500      0.2255      0.1675      0.4009      0.4613      1.3150      2.2790      1.3310     -9.6489    -83.1065      1.3310    -40.7960    -19.2978      1.2351      1.0000      1.0000      0.1754      0.3508      0.3508      0.7745
   1998.0000      0.2169      0.3988      3.0000   -999.2500      1.3270      0.7831      2.7063   -999.2500      0.2169      0.1669      0.3988      0.4578      1.3270      2.3115      1.3590     -8.9372    -83.1132      1.3590    -40.0970    -17.8744      1.2372      1.0000      1.0000      0.1819      0.3637      0.3637      0.7831
   1998.5000      0.2084      0.3967      3.0000   -999.2500      1.3590      0.7916      2.7123   -999.2500      0.2084      0.1662      0.3967      0.4544      1.3590      2.3449      1.3800     -8.2256    -83.1198      1.3800    -39.3980    -16.4511      1.2323      1.0000      1.0000      0.1883      0.3766      0.3766      0.7916
   1999.0000      0.1957      0.3935      3.0000   -999.2500      1.3730      0.8043      2.7210   -999.2500      0.1957      0.1653      0.3935      0.4492      1.3730      2.3958      1.4120     -7.1709    -83.1265      1.4120    -38.3560    -14.3418      1.2372      1.0000      1.0000      0.1978      0.3956      0.3956      0.8043
   1999.5000      0.1874      0.3914      4.0000   -999.2500      1.3940      0.8126      2.7268   -999.2500      0.1874      0.1647      0.3914      0.4458      1.3940      2.4303      1.4410     -6.4782    -83.1332      1.4410    -37.6760    -12.9565      1.2364      1.0000      1.0000      0.2041      0.4081      0.4081      0.8126
   2000.0000      0.1842      0.3907      4.0000   -999.2500      1.3860      0.8158      2.7290   -999.2500      0.1842      0.1645      0.3907      0.4445      1.3860      2.4435      1.4470     -6.2176    -83.1399      1.4470    -37.4280    -12.4351      1.2416      1.0000      1.0000      0.2064      0.4128      0.4128      0.8158
   2000.5000      0.1906      0.3922      4.0000   -999.2500      1.3540      0.8094      2.7246   -999.2500      0.1906      0.1649      0.3922      0.4471      1.3540      2.4169      1.4080     -6.7449    -83.1465      1.4080    -37.9680    -13.4898      1.2477      1.0000      1.0000      0.2017      0.4033      0.4033      0.8094
   2001.0000      0.2020      0.3950      3.0000   -999.2500      1.3380      0.7980      2.7166   -999.2500      0.2020      0.1658      0.3950      0.4518      1.3380      2.3697      1.3760     -7.7052    -83.1532      1.3760    -38.9410    -15.4105      1.2445      1.0000      1.0000      0.1930      0.3860      0.3860      0.7980
   2001.5000      0.2070      0.3963      3.0000   -999.2500      1.3220      0.7930      2.7131   -999.2500      0.2070      0.1661      0.3963      0.4538      1.3220      2.3496      1.3500     -8.1246    -83.1599      1.3500    -39.3730    -16.2492      1.2464      1.0000      1.0000      0.1892      0.3785      0.3785      0.7930
   2002.0000      0.2164      0.3986      3.0000   -999.2500      1.2860      0.7836      2.7066   -999.2500      0.2164      0.1668      0.3986      0.4576      1.2860      2.3130      1.3220     -8.9039    -83.1666      1.3220    -40.1650    -17.8078      1.2524      1.0000      1.0000      0.1822      0.3644      0.3644      0.7836
   2002.5000      0.2239      0.4004      3.0000   -999.2500      1.2610      0.7761      2.7014   -999.2500      0.2239      0.1674      0.4004      0.4606      1.2610      2.2839      1.3000     -9.5403    -83.1732      1.3000    -40.8140    -19.0805      1.2561      1.0000      1.0000      0.1765      0.3529      0.3529      0.7761
   2003.0000      0.2289      0.4016      3.0000   -999.2500      1.2430      0.7711      2.6853   -999.2500      0.2289      0.1678      0.4016      0.4627      1.2430      2.2393      1.2680     -9.9586    -83.1799      1.2680    -41.2450    -19.9172      1.2552      1.0000      1.0000      0.1727      0.3454      0.3454      0.7711
   2003.5000      0.2434      0.4052      3.0000   -999.2500      1.2280      0.7566      2.6154   -999.2500      0.2434      0.1688      0.4052      0.4686      1.2280      2.0719      1.2430    -11.1719    -83.1866      1.2430    -42.4710    -22.3439      1.2306      1.0000      1.0000      0.1618      0.3236      0.3236      0.7566
   2004.0000      0.2789      0.4138      3.0000   -999.2500      1.2160      0.7211      2.4433   -999.2500      0.2789      0.1715      0.4138      0.4831      1.2160      1.7223      1.2210    -14.1553    -83.1933      1.2210    -45.4670    -28.3105      1.1567      1.0000      1.0000      0.1349      0.2698      0.2698      0.7211
   2004.5000      0.3044      0.4199      3.0000   -999.2500      1.2030      0.6956      2.3192   -999.2500      0.3044      0.1734      0.4199      0.4935      1.2030      1.5154      1.2030    -16.3066    -83.1999      1.2030    -47.6310    -32.6132      1.1075      1.0000      1.0000      0.1155      0.2310      0.2310      0.6956
   2005.0000      0.3149      0.4224      3.0000   -999.2500      1.1780      0.6851      2.2681   -999.2500      0.3149      0.1742      0.4224      0.4978      1.1780      1.4392      1.1850    -17.1949    -83.2066      1.1850    -48.5320    -34.3899      1.0949      1.0000      1.0000      0.1075      0.2150      0.2150      0.6851
   2005.5000      0.3104      0.4213      3.0000   -999.2500      1.1640      0.6896      2.2898   -999.2500      0.3104      0.1738      0.4213      0.4960      1.1640      1.4709      1.1650    -16.8193    -83.2133      1.1650    -48.1690    -33.6386      1.1106      1.0000      1.0000      0.1109      0.2218      0.2218      0.6896
   2006.0000      0.3064      0.4204      3.0000   -999.2500      1.1530      0.6936      2.3094   -999.2500      0.3064      0.1735      0.4204      0.4943      1.1530      1.5003      1.1460    -16.4806    -83.2200      1.1460    -47.8430    -32.9612      1.1241      1.0000      1.0000      0.1140      0.2279      0.2279      0.6936
   2006.5000      0.3002      0.4189      3.0000   -999.2500      1.1390      0.6998      2.3395   -999.2500      0.3002      0.1730      0.4189      0.4918      1.1390      1.5468      1.1350    -15.9600    -83.2266      1.1350    -47.3350    -31.9199      1.1436      1.0000      1.0000      0.1187      0.2374      0.2374      0.6998
   2007.0000      0.3158      0.4226      3.0000   -999.2500      1.1310      0.6842      2.2633   -999.2500      0.3158      0.1742      0.4226      0.4982      1.1310      1.4323      1.1280    -17.2823    -83.2333      1.1280    -48.6700    -34.5646      1.1131      1.0000      1.0000      0.1068      0.2135      0.2135      0.6842
   2007.5000      0.3310      0.4262      3.0000   -999.2500      1.1220      0.6690      2.1893   -999.2500      0.3310      0.1753      0.4262      0.5044      1.1220      1.3311      1.1210    -18.5676    -83.2400      1.1210    -49.9680    -37.1353      1.0783      1.0000      1.0000      0.0952      0.1904      0.1904      0.6347
   2008.0000      0.3385      0.4280      2.0000   -999.2500      1.1130      0.6615      2.1528   -999.2500      0.3385      0.1759      0.4280      0.5075      1.1130      1.2845      1.1100    -19.2030    -83.2467      1.1100    -50.6160    -38.4059      1.0669      1.0000      1.0000      0.0895      0.1790      0.1790      0.5966
   2008.5000      0.3443      0.4293      2.0000   -999.2500      1.0920      0.6557      2.1245   -999.2500      0.3443      0.1763      0.4293      0.5099      1.0920      1.2499      1.0990    -19.6943    -83.2533      1.0990    -51.1200    -39.3886      1.0642      1.0000      1.0000      0.0851      0.1702      0.1702      0.5672
