~V
VERS. 2.00: Ver 2.00
WRAP.   NO:        
~W
 STRT.FT 29:
 STOP.FT 4770:
 STEP.FT 0.5:
 NULL. -999.250000:
 COMP. Standard (Chevron):Company
 WELL. KCL 44-32:Well
 FLD. Pioneer:Field
 LOC. S32 T11N R22W:Location
 STAT. CA:State
 SRVC. :Service Company
 SON. :Service Order #
 DATE. :Log Date
 UWI. 0940700:Unique Well ID
~C
 DEPT.FT :
 BVES. :
 BVTS. :
 FACE. :
 GRS.RE/T :
 ILD.OHMM :
 LTHE. :
 MM. :
 NEUT.CPS :
 PHES. :
 PHMX. :
 PHTS. :
 PHZC. :
 RD.OHMM :
 ROS. :
 RS.OHMM :
 SBL.MV :
 SCLN. :
 SN.OHMM :
 SP.MV :
 SPN. :
 STUS. :
 SWES. :
 SWTS. :
 VCDS. :
 VCLY. :
 VCWS. :
 VSHS. :
~P
~A
# ...
    689.0000      0.0837      0.2196      3.0000   -999.2500     10.0780      0.6902      2.4496   -999.2500      0.3098      0.1766      0.4457      0.5115     10.0780      1.8883      9.9700     -5.9090   -999.2500      9.9700    -15.9090    -11.8180      0.4927      0.2702      0.4927      0.1359      0.2718      0.2718      0.6902
    689.5000      0.0870      0.2183      3.0000   -999.2500      9.8340      0.6841      2.4201   -999.2500      0.3159      0.1771      0.4472      0.5139      9.8340      1.8308      9.7880     -6.1240   -999.2500      9.7880    -16.1240    -12.2480      0.4881      0.2754      0.4881      0.1313      0.2625      0.2625      0.6841
    690.0000      0.0914      0.2265      3.0000   -999.2500      9.3110      0.6892      2.4447   -999.2500      0.3108      0.1767      0.4459      0.5119      9.3110      1.8784      9.7610     -5.9450   -999.2500      9.7610    -15.9450    -11.8900      0.5080      0.2941      0.5080      0.1351      0.2702      0.2702      0.6892
    690.5000      0.0950      0.2363      3.0000   -999.2500      9.1420      0.6974      2.4847   -999.2500      0.3026      0.1761      0.4439      0.5085      9.1420      1.9593      9.7340     -5.6530   -999.2500      9.7340    -15.6530    -11.3060      0.5324      0.3139      0.5324      0.1414      0.2827      0.2827      0.6974
    691.0000      0.0980      0.2479      3.0000   -999.2500      8.7510      0.7087      2.5393   -999.2500      0.2913      0.1752      0.4412      0.5039      8.7510      2.0768      9.4470     -5.2550   -999.2500      9.4470    -15.2550    -10.5100      0.5618      0.3363      0.5618      0.1499      0.2998      0.2998      0.7087
    691.5000      0.1042      0.2589      3.0000   -999.2500      8.1660      0.7149      2.5695   -999.2500      0.2851      0.1748      0.4397      0.5013      8.1660      2.1454      9.3670     -5.0350   -999.2500      9.3670    -15.0350    -10.0700      0.5888      0.3657      0.5888      0.1546      0.3092      0.3092      0.7149
    692.0000      0.1084      0.2677      3.0000   -999.2500      7.7880      0.7212      2.5997   -999.2500      0.2788      0.1743      0.4381      0.4987      7.7880      2.2169      9.2700     -4.8150   -999.2500      9.2700    -14.8150     -9.6300      0.6111      0.3889      0.6111      0.1593      0.3186      0.3186      0.7212
    692.5000      0.1116      0.2557      3.0000   -999.2500      7.5010      0.7011      2.5023   -999.2500      0.2989      0.1758      0.4430      0.5069      7.5010      1.9958      8.5160     -5.5250   -999.2500      8.5160    -15.5250    -11.0500      0.5772      0.3733      0.5772      0.1441      0.2882      0.2882      0.7011
    693.0000      0.1194      0.2445      3.0000   -999.2500      7.1850      0.6760      2.3805   -999.2500      0.3240      0.1777      0.4490      0.5172      7.1850      1.7565      7.9490     -6.4130   -999.2500      7.9490    -16.4130    -12.8260      0.5445      0.3686      0.5445      0.1251      0.2502      0.2502      0.6760
    693.5000      0.1251      0.2349      3.0000   -999.2500      6.9400      0.6560      2.2831   -999.2500      0.3440      0.1792      0.4538      0.5254      6.9400      1.5905      7.7040     -7.1230   -999.2500      7.7040    -17.1230    -14.2460      0.5177      0.3636      0.5177      0.1099      0.2197      0.2197      0.6560
    694.0000      0.1329      0.2161      2.0000   -999.2500      6.5700      0.6210      2.1123   -999.2500      0.3790      0.1818      0.4622      0.5398      6.5700      1.3440      7.5930     -8.3690   -999.2500      7.5930    -18.3690    -16.7380      0.4675      0.3506      0.4675      0.0832      0.1663      0.1663      0.5544
    694.5000      0.1401      0.2123      2.0000   -999.2500      6.1470      0.6067      2.0420   -999.2500      0.3933      0.1829      0.4655      0.5457      6.1470      1.2567      7.5170     -9.0780   -999.2500      7.5170    -19.0780    -18.1560      0.4561      0.3562      0.4561      0.0722      0.1444      0.1444      0.4813
    695.0000      0.1493      0.2172      2.0000   -999.2500      5.6440      0.6011      2.0148   -999.2500      0.3989      0.1833      0.4668      0.5480      5.6440      1.2248      7.4700     -9.5740   -999.2500      7.4700    -19.5740    -19.1480      0.4652      0.3742      0.4652      0.0679      0.1359      0.1359      0.4529
    695.5000      0.1520      0.2186      2.0000   -999.2500      5.4750      0.5994      2.0063   -999.2500      0.4006      0.1834      0.4672      0.5487      5.4750      1.2150      7.8100     -9.7290   -999.2500      7.8100    -19.7290    -19.4580      0.4679      0.3795      0.4679      0.0666      0.1332      0.1332      0.4441
    696.0000      0.1488      0.2140      2.0000   -999.2500      5.6750      0.5976      1.9977   -999.2500      0.4024      0.1835      0.4676      0.5494      5.6750      1.2053      8.0890     -9.8850   -999.2500      8.0890    -19.8850    -19.7700      0.4577      0.3697      0.4577      0.0653      0.1305      0.1305      0.4351
    696.5000      0.1406      0.2072      2.0000   -999.2500      6.0870      0.5993      2.0059   -999.2500      0.4007      0.1834      0.4672      0.5487      6.0870      1.2145      8.2390     -9.7360   -999.2500      8.2390    -19.7360    -19.4720      0.4434      0.3509      0.4434      0.0665      0.1331      0.1331      0.4437
    697.0000      0.1351      0.2029      2.0000   -999.2500      6.4520      0.6010      2.0140   -999.2500      0.3990      0.1833      0.4668      0.5480      6.4520      1.2237      8.3390     -9.5880   -999.2500      8.3390    -19.5880    -19.1760      0.4346      0.3385      0.4346      0.0678      0.1356      0.1356      0.4521
    697.5000      0.1246      0.1924      2.0000   -999.2500      7.1690      0.6011      2.0144   -999.2500      0.3989      0.1833      0.4668      0.5480      7.1690      1.2241      8.9160     -9.5820   -999.2500      8.9160    -19.5820    -19.1640      0.4123      0.3123      0.4123      0.0679      0.1357      0.1357      0.4525
    698.0000      0.1118      0.1797      2.0000   -999.2500      8.2160      0.6011      2.0146   -999.2500      0.3989      0.1833      0.4668      0.5480      8.2160      1.2243      9.8300     -9.5770   -999.2500      9.8300    -19.5770    -19.1540      0.3850      0.2802      0.3850      0.0679      0.1358      0.1358      0.4527
    698.5000      0.1055      0.1726      2.0000   -999.2500      8.7390      0.6000      2.0090   -999.2500      0.4000      0.1834      0.4670      0.5484      8.7390      1.2179     10.0820     -9.6790   -999.2500     10.0820    -19.6790    -19.3580      0.3695      0.2639      0.3695      0.0670      0.1341      0.1341      0.4469
    699.0000      0.1000      0.1667      2.0000   -999.2500      9.3410      0.5997      2.0074   -999.2500      0.4003      0.1834      0.4671      0.5486      9.3410      1.2159     10.3340     -9.7090   -999.2500     10.3340    -19.7090    -19.4180      0.3570      0.2497      0.3570      0.0668      0.1336      0.1336      0.4452
    699.5000      0.0993      0.1695      2.0000   -999.2500      9.4520      0.6042      2.0292   -999.2500      0.3958      0.1830      0.4660      0.5467      9.4520      1.2411     10.5860     -9.3110   -999.2500     10.5860    -19.3110    -18.6220      0.3636      0.2508      0.3636      0.0702      0.1404      0.1404      0.4679
    700.0000      0.0978      0.1726      2.0000   -999.2500      9.5700      0.6103      2.0590   -999.2500      0.3897      0.1826      0.4646      0.5442      9.5700      1.2765     11.5140     -8.7690   -999.2500     11.5140    -18.7690    -17.5380      0.3715      0.2509      0.3715      0.0748      0.1497      0.1497      0.4989
    700.5000      0.0959      0.1837      2.0000   -999.2500      9.6160      0.6272      2.1417   -999.2500      0.3728      0.1813      0.4606      0.5372      9.6160      1.3821     11.7270     -8.1540   -999.2500     11.7270    -18.1540    -16.3080      0.3988      0.2573      0.3988      0.0878      0.1755      0.1755      0.5851
