~V
VERS. 2.00: Ver 2.00
WRAP.   NO:        
~W
 STRT.FT 40:
 STOP.FT 4330:
 STEP.FT 0.5:
 NULL. -999.250000:
 COMP. Standard (Chevron):Company
 WELL. KCL 44-45:Well
 FLD. Pioneer:Field
 LOC. S32 T11N R22W:Location
 STAT. CA:State
 SRVC. :Service Company
 SON. :Service Order #
 DATE. :Log Date
 UWI. 0941000:Unique Well ID
~C
 DEPT.FT :
 BVES. :
 BVTS. :
 FACE. :
 GR.RE/T :
 GRS.RE/T :
 ILD.OHMM :
 LTHE. :
 MM. :
 NEUS.CPS :
 NEUT.CPS :
 PHES. :
 PHMX. :
 PHTS. :
 PHZC. :
 RD.OHMM :
 ROS. :
 RS.OHMM :
 SBL.MV :
 SCLN. :
 SN.OHMM :
 SP.MV :
 SPN. :
 STUS. :
 SWES. :
 SWTS. :
 VCDS. :
 VCLY. :
 VCWS. :
 VSHS. :
~P
~A
# ...
   1234.0000      0.3191      0.4146      3.0000   -999.2500   -999.2500      1.6189      0.6504      2.1909   -999.2500   -999.2500      0.3496      0.1784      0.4451      0.5213      1.6189      1.3911      2.0374    -22.7116    -67.9800      2.0374    -33.7410    -30.2822      0.9315      0.9128      0.9315      0.0955      0.1909      0.1909      0.6364
   1234.5000      0.3164      0.4013      2.0000   -999.2500   -999.2500      1.6403      0.6365      2.1229   -999.2500   -999.2500      0.3635      0.1795      0.4483      0.5270      1.6403      1.3023      2.0871    -24.1571    -67.9800      2.0871    -35.1795    -32.2094      0.8950      0.8705      0.8950      0.0848      0.1696      0.1696      0.5655
   1235.0000      0.3170      0.3960      2.0000   -999.2500   -999.2500      1.6333      0.6288      2.0854   -999.2500   -999.2500      0.3712      0.1800      0.4501      0.5302      1.6333      1.2565      2.1131    -24.9523    -67.9800      2.1131    -35.9678    -33.2697      0.8797      0.8541      0.8797      0.0790      0.1579      0.1579      0.5265
   1235.5000      0.3215      0.3980      2.0000   -999.2500   -999.2500      1.5950      0.6256      2.0694   -999.2500   -999.2500      0.3744      0.1803      0.4509      0.5315      1.5950      1.2375      2.0178    -25.2936    -67.9800      2.0178    -36.3022    -33.7248      0.8826      0.8586      0.8826      0.0765      0.1529      0.1529      0.5098
   1236.0000      0.3277      0.4024      2.0000   -999.2500   -999.2500      1.5450      0.6232      2.0580   -999.2500   -999.2500      0.3768      0.1805      0.4515      0.5325      1.5450      1.2241      1.9647    -25.6004    -67.9800      1.9647    -36.6022    -34.1339      0.8913      0.8697      0.8913      0.0747      0.1494      0.1494      0.4979
   1236.5000      0.3356      0.4158      2.0000   -999.2500   -999.2500      1.4873      0.6305      2.0933   -999.2500   -999.2500      0.3695      0.1799      0.4497      0.5295      1.4873      1.2658      1.9140    -24.7858    -67.9800      1.9140    -35.7807    -33.0478      0.9245      0.9081      0.9245      0.0802      0.1604      0.1604      0.5347
   1237.0000      0.3421      0.4356      3.0000   -999.2500   -999.2500      1.4418      0.6479      2.1785   -999.2500   -999.2500      0.3521      0.1786      0.4456      0.5223      1.4418      1.3741      1.8477    -22.9751    -67.9800      1.8477    -33.9630    -30.6335      0.9777      0.9717      0.9777      0.0935      0.1870      0.1870      0.6234
   1237.5000      0.3321      0.4408      3.0000   -999.2500   -999.2500      1.4011      0.6679      2.2759   -999.2500   -999.2500      0.3321      0.1771      0.4408      0.5141      1.4011      1.5126      1.7771    -20.9066    -67.9800      1.7771    -31.8876    -27.8754      1.0327      1.0000      1.0000      0.1087      0.2175      0.2175      0.6679
   1238.0000      0.3212      0.4382      3.0000   -999.2500   -999.2500      1.3652      0.6788      2.3286   -999.2500   -999.2500      0.3212      0.1763      0.4382      0.5096      1.3652      1.5949      1.7346    -19.7872    -67.9800      1.7346    -30.7613    -26.3830      1.0653      1.0000      1.0000      0.1170      0.2339      0.2339      0.6788
   1238.5000      0.3178      0.4374      3.0000   -999.2500   -999.2500      1.3484      0.6822      2.3450   -999.2500   -999.2500      0.3178      0.1760      0.4374      0.5082      1.3484      1.6218      1.7110    -19.4372    -67.9800      1.7110    -30.4043    -25.9162      1.0772      1.0000      1.0000      0.1195      0.2391      0.2391      0.6822
   1239.0000      0.3280      0.4398      3.0000   -999.2500   -999.2500      1.3316      0.6720      2.2957   -999.2500   -999.2500      0.3280      0.1768      0.4398      0.5124      1.3316      1.5428      1.7142    -20.4858    -67.9800      1.7142    -31.4461    -27.3144      1.0631      1.0000      1.0000      0.1118      0.2236      0.2236      0.6720
   1239.5000      0.3431      0.4434      3.0000   -999.2500   -999.2500      1.3283      0.6569      2.2217   -999.2500   -999.2500      0.3431      0.1779      0.4434      0.5186      1.3283      1.4333      1.7196    -22.0569    -67.9800      1.7196    -33.0103    -29.4092      1.0337      1.0000      1.0000      0.1003      0.2005      0.2005      0.6569
   1240.0000      0.3489      0.4448      3.0000   -999.2500   -999.2500      1.3272      0.6511      2.1936   -999.2500   -999.2500      0.3489      0.1784      0.4448      0.5209      1.3272      1.3942      1.7348    -22.6545    -67.9800      1.7348    -33.6009    -30.2059      1.0221      1.0000      1.0000      0.0959      0.1917      0.1917      0.6392
   1240.5000      0.3476      0.4445      3.0000   -999.2500   -999.2500      1.3264      0.6524      2.1997   -999.2500   -999.2500      0.3476      0.1783      0.4445      0.5204      1.3264      1.4026      1.7552    -22.5238    -67.9800      1.7552    -33.4633    -30.0317      1.0249      1.0000      1.0000      0.0968      0.1937      0.1937      0.6456
   1241.0000      0.3477      0.4445      3.0000   -999.2500   -999.2500      1.3351      0.6523      2.1992   -999.2500   -999.2500      0.3477      0.1783      0.4445      0.5205      1.3351      1.4018      1.7744    -22.5351    -67.9800      1.7744    -33.4678    -30.0469      1.0217      1.0000      1.0000      0.0968      0.1935      0.1935      0.6450
   1241.5000      0.3560      0.4464      3.0000   -999.2500   -999.2500      1.3420      0.6440      2.1586   -999.2500   -999.2500      0.3560      0.1789      0.4464      0.5239      1.3420      1.3474      1.7906    -23.3976    -67.9800      1.7906    -34.3233    -31.1967      1.0018      1.0000      1.0000      0.0904      0.1808      0.1808      0.6027
   1242.0000      0.3558      0.4425      2.0000   -999.2500   -999.2500      1.3489      0.6392      2.1351   -999.2500   -999.2500      0.3608      0.1792      0.4476      0.5258      1.3489      1.3171      1.8068    -23.8961    -67.9800      1.8068    -34.8149    -31.8615      0.9887      0.9860      0.9887      0.0867      0.1735      0.1735      0.5783
   1242.5000      0.3546      0.4386      2.0000   -999.2500   -999.2500      1.3557      0.6356      2.1177   -999.2500   -999.2500      0.3644      0.1795      0.4484      0.5273      1.3557      1.2951      1.8249    -24.2676    -67.9800      1.8249    -35.1795    -32.3568      0.9782      0.9732      0.9782      0.0840      0.1680      0.1680      0.5601
   1243.0000      0.3535      0.4349      2.0000   -999.2500   -999.2500      1.3626      0.6322      2.1012   -999.2500   -999.2500      0.3678      0.1798      0.4492      0.5287      1.3626      1.2748      1.8465    -24.6183    -67.9800      1.8465    -35.5233    -32.8244      0.9682      0.9612      0.9682      0.0814      0.1629      0.1629      0.5429
   1243.5000      0.3523      0.4314      2.0000   -999.2500   -999.2500      1.3695      0.6292      2.0864   -999.2500   -999.2500      0.3708      0.1800      0.4499      0.5299      1.3695      1.2569      1.8643    -24.9325    -67.9800      1.8643    -35.8306    -33.2433      0.9590      0.9502      0.9590      0.0791      0.1582      0.1582      0.5275
   1244.0000      0.3511      0.4279      2.0000   -999.2500   -999.2500      1.3768      0.6262      2.0713   -999.2500   -999.2500      0.3738      0.1802      0.4506      0.5312      1.3768      1.2390      1.8530    -25.2520    -67.9800      1.8530    -36.1432    -33.6693      0.9495      0.9392      0.9495      0.0768      0.1535      0.1535      0.5118
   1244.5000      0.3499      0.4255      2.0000   -999.2500   -999.2500      1.3840      0.6246      2.0639   -999.2500   -999.2500      0.3754      0.1803      0.4510      0.5318      1.3840      1.2303      1.8399    -25.4105    -67.9800      1.8399    -36.2948    -33.8807      0.9436      0.9322      0.9436      0.0756      0.1512      0.1512      0.5040
   1245.0000      0.3488      0.4248      2.0000   -999.2500   -999.2500      1.3913      0.6252      2.0665   -999.2500   -999.2500      0.3748      0.1803      0.4508      0.5316      1.3913      1.2333      1.8304    -25.3544    -67.9800      1.8304    -36.2318    -33.8058      0.9424      0.9307      0.9424      0.0760      0.1520      0.1520      0.5068
