~V
VERS. 2.00: Ver 2.00
WRAP.   NO:        
~W
 STRT.FT 35:
 STOP.FT 5500:
 STEP.FT 0.5:
 NULL. -999.250000:
 COMP. Standard (Chevron):Company
 WELL. KCL 45-56:Well
 FLD. :Field
 LOC. S30 T11N R22W:Location
 STAT. CA:State
 SRVC. :Service Company
 SON. :Service Order #
 DATE. :Log Date
 UWI. 0369100:Unique Well ID
~C
 DEPT.FT :
 BVES. :
 BVTS. :
 ILD.OHMM :
 LLD.OHMM :
 LTHE. :
 MM. :
 PHES. :
 PHMX. :
 PHTS. :
 PHZC. :
 RD.OHMM :
 ROS. :
 RS.OHMM :
 SBL.MV :
 SCLN. :
 SN.OHMM :
 SP.MV :
 SPN. :
 STUS. :
 SWES. :
 SWTS. :
 VCDS. :
 VCLY. :
 VCWS. :
 VSHS. :
~P
~A
# ...
   1595.0000      0.2112      0.4048   -999.2500      1.4950      0.7888      2.7172      0.2112      0.1673      0.4048      0.4604      1.4950      2.4198   -999.2500     -9.1863    -50.0000   -999.2500    -15.8680     -9.1863      1.2008      1.0000      1.0000      0.1936      0.3872      0.3872      0.7888
   1595.5000      0.2050      0.4032   -999.2500      1.5200      0.7950      2.7214      0.2050      0.1669      0.4032      0.4579      1.5200      2.4463   -999.2500     -8.5699    -50.0000   -999.2500    -15.2520     -8.5699      1.1979      1.0000      1.0000      0.1982      0.3965      0.3965      0.7950
   1596.0000      0.1981      0.4015   -999.2500      1.5080      0.8019      2.7262      0.1981      0.1664      0.4015      0.4551      1.5080      2.4765   -999.2500     -7.8814    -50.0000   -999.2500    -14.5640     -7.8814      1.2069      1.0000      1.0000      0.2034      0.4068      0.4068      0.8019
   1596.5000      0.1938      0.4004   -999.2500      1.4940      0.8062      2.7292      0.1938      0.1661      0.4004      0.4533      1.4940      2.4959   -999.2500     -7.4449    -50.0000   -999.2500    -14.1280     -7.4449      1.2146      1.0000      1.0000      0.2067      0.4133      0.4133      0.8062
   1597.0000      0.1890      0.3993   -999.2500      1.5110      0.8110      2.7325      0.1890      0.1657      0.3993      0.4514      1.5110      2.5172   -999.2500     -6.9724    -50.0000   -999.2500    -13.6560     -6.9724      1.2131      1.0000      1.0000      0.2102      0.4204      0.4204      0.8110
   1597.5000      0.1901      0.3995   -999.2500      1.5110      0.8099      2.7318      0.1901      0.1658      0.3995      0.4518      1.5110      2.5124   -999.2500     -7.0769    -50.0000   -999.2500    -13.7610     -7.0769      1.2123      1.0000      1.0000      0.2094      0.4188      0.4188      0.8099
   1598.0000      0.1907      0.3997   -999.2500      1.4960      0.8093      2.7313      0.1907      0.1658      0.3997      0.4520      1.4960      2.5092   -999.2500     -7.1454    -50.0000   -999.2500    -13.8300     -7.1454      1.2163      1.0000      1.0000      0.2089      0.4178      0.4178      0.8093
   1598.5000      0.1878      0.3989   -999.2500      1.4560      0.8122      2.7333      0.1878      0.1656      0.3989      0.4508      1.4560      2.5225   -999.2500     -6.8519    -50.0000   -999.2500    -13.5370     -6.8519      1.2312      1.0000      1.0000      0.2111      0.4222      0.4222      0.8122
   1599.0000      0.1849      0.3982   -999.2500      1.4310      0.8151      2.7354      0.1849      0.1654      0.3982      0.4496      1.4310      2.5359   -999.2500     -6.5585    -50.0000   -999.2500    -13.2440     -6.5585      1.2416      1.0000      1.0000      0.2133      0.4266      0.4266      0.8151
   1599.5000      0.1812      0.3973   -999.2500      1.3690      0.8188      2.7379      0.1812      0.1651      0.3973      0.4482      1.3690      2.5527   -999.2500     -6.1950    -50.0000   -999.2500    -12.8810     -6.1950      1.2656      1.0000      1.0000      0.2160      0.4321      0.4321      0.8188
   1600.0000      0.1779      0.3964   -999.2500      1.3110      0.8221      2.7401      0.1779      0.1649      0.3964      0.4468      1.3110      2.5680   -999.2500     -5.8675    -50.0000   -999.2500    -12.5540     -5.8675      1.2892      1.0000      1.0000      0.2185      0.4370      0.4370      0.8221
   1600.5000      0.1773      0.3963   -999.2500      1.3210      0.8227      2.7406      0.1773      0.1648      0.3963      0.4465      1.3210      2.5709   -999.2500     -5.8040    -50.0000   -999.2500    -12.4910     -5.8040      1.2860      1.0000      1.0000      0.2190      0.4379      0.4379      0.8227
   1601.0000      0.1763      0.3960   -999.2500      1.3570      0.8237      2.7413      0.1763      0.1648      0.3960      0.4461      1.3570      2.5755   -999.2500     -5.7045    -50.0000   -999.2500    -12.3920     -5.7045      1.2738      1.0000      1.0000      0.2197      0.4394      0.4394      0.8237
   1601.5000      0.1760      0.3959   -999.2500      1.4140      0.8240      2.7415      0.1760      0.1647      0.3959      0.4460      1.4140      2.5767   -999.2500     -5.6770    -50.0000   -999.2500    -12.3650     -5.6770      1.2544      1.0000      1.0000      0.2199      0.4398      0.4398      0.8240
   1602.0000      0.1761      0.3959   -999.2500      1.4100      0.8239      2.7414      0.1761      0.1647      0.3959      0.4460      1.4100      2.5763   -999.2500     -5.6846    -50.0000   -999.2500    -12.3730     -5.6846      1.2557      1.0000      1.0000      0.2199      0.4397      0.4397      0.8239
   1602.5000      0.1761      0.3959   -999.2500      1.3740      0.8239      2.7414      0.1761      0.1647      0.3959      0.4460      1.3740      2.5759   -999.2500     -5.6921    -50.0000   -999.2500    -12.3810     -5.6921      1.2679      1.0000      1.0000      0.2198      0.4396      0.4396      0.8239
   1603.0000      0.1773      0.3962   -999.2500      1.3560      0.8227      2.7405      0.1773      0.1648      0.3962      0.4465      1.3560      2.5702   -999.2500     -5.8106    -50.0000   -999.2500    -12.5000     -5.8106      1.2732      1.0000      1.0000      0.2189      0.4378      0.4378      0.8227
   1603.5000      0.1785      0.3965   -999.2500      1.3620      0.8215      2.7397      0.1785      0.1649      0.3965      0.4470      1.3620      2.5646   -999.2500     -5.9271    -50.0000   -999.2500    -12.6170     -5.9271      1.2701      1.0000      1.0000      0.2180      0.4361      0.4361      0.8215
   1604.0000      0.1800      0.3969   -999.2500      1.3870      0.8200      2.7387      0.1800      0.1650      0.3969      0.4476      1.3870      2.5574   -999.2500     -6.0796    -50.0000   -999.2500    -12.7700     -6.0796      1.2602      1.0000      1.0000      0.2169      0.4338      0.4338      0.8200
   1604.5000      0.1808      0.3971   -999.2500      1.4340      0.8192      2.7381      0.1808      0.1651      0.3971      0.4479      1.4340      2.5535   -999.2500     -6.1601    -50.0000   -999.2500    -12.8510     -6.1601      1.2437      1.0000      1.0000      0.2163      0.4326      0.4326      0.8192
   1605.0000      0.1823      0.3974   -999.2500      1.4530      0.8177      2.7371      0.1823      0.1652      0.3974      0.4485      1.4530      2.5464   -999.2500     -6.3127    -50.0000   -999.2500    -13.0040     -6.3127      1.2363      1.0000      1.0000      0.2152      0.4303      0.4303      0.8177
   1605.5000      0.1856      0.3982   -999.2500      1.4730      0.8144      2.7348      0.1856      0.1654      0.3982      0.4498      1.4730      2.5309   -999.2500     -6.6462    -50.0000   -999.2500    -13.3380     -6.6462      1.2273      1.0000      1.0000      0.2127      0.4253      0.4253      0.8144
   1606.0000      0.1871      0.3986   -999.2500      1.5120      0.8129      2.7337      0.1871      0.1655      0.3986      0.4504      1.5120      2.5238   -999.2500     -6.7977    -50.0000   -999.2500    -13.4900     -6.7977      1.2140      1.0000      1.0000      0.2115      0.4230      0.4230      0.8129
   1606.5000      0.1911      0.3996   -999.2500      1.5240      0.8089      2.7309      0.1911      0.1658      0.3996      0.4521      1.5240      2.5054   -999.2500     -7.2022    -50.0000   -999.2500    -13.8950     -7.2022      1.2071      1.0000      1.0000      0.2085      0.4170      0.4170      0.8089
   1607.0000      0.1937      0.4002   -999.2500      1.5370      0.8063      2.7291      0.1937      0.1660      0.4002      0.4531      1.5370      2.4935   -999.2500     -7.4637    -50.0000   -999.2500    -14.1570     -7.4637      1.2012      1.0000      1.0000      0.2065      0.4130      0.4130      0.8063
   1607.5000      0.1970      0.4010   -999.2500      1.5650      0.8030      2.7268      0.1970      0.1663      0.4010      0.4545      1.5650      2.4786   -999.2500     -7.7962    -50.0000   -999.2500    -14.4900     -7.7962      1.1904      1.0000      1.0000      0.2040      0.4081      0.4081      0.8030
