~V
VERS. 2.00: Ver 2.00
WRAP.   NO:        
~W
 STRT.FT 20:
 STOP.FT 4330:
 STEP.FT 0.5:
 NULL. -999.250000:
 COMP. Standard (Chevron):Company
 WELL. KCL 44-25:Well
 FLD. Pioneer:Field
 LOC. S32 T11N R22W:Location
 STAT. CA:State
 SRVC. :Service Company
 SON. :Service Order #
 DATE. :Log Date
 UWI. 0940600:Unique Well ID
~C
 DEPT.FT :
 BVES. :
 BVTS. :
 FACE. :
 GR.RE/T :
 GRS.RE/T :
 ILD.OHMM :
 LTHE. :
 MM. :
 NEUS.CPS :
 NEUT.CPS :
 PHES. :
 PHMX. :
 PHTS. :
 PHZC. :
 RD.OHMM :
 ROS. :
 RS.OHMM :
 SBL.MV :
 SCLN. :
 SN.OHMM :
 SP.MV :
 SPN. :
 STUS. :
 SWES. :
 SWTS. :
 VCDS. :
 VCLY. :
 VCWS. :
 VSHS. :
~P
~A
# ...
    828.0000      0.2523      0.3441      3.0000   -999.2500   -999.2500      2.5600      0.6356      2.1673   -999.2500   -999.2500      0.3644      0.1804      0.4562      0.5322      2.5600      1.4016      2.8720    -11.0990    -30.4685      2.8720    -23.0990    -13.8738      0.7542      0.6923      0.7542      0.0918      0.1835      0.1835      0.6118
    828.5000      0.2573      0.3541      3.0000   -999.2500   -999.2500      2.4840      0.6422      2.1994   -999.2500   -999.2500      0.3578      0.1799      0.4546      0.5295      2.4840      1.4463      2.8500    -10.7710    -30.4630      2.8500    -22.7710    -13.4638      0.7789      0.7191      0.7789      0.0968      0.1936      0.1936      0.6422
    829.0000      0.2639      0.3728      3.0000   -999.2500   -999.2500      2.3870      0.6582      2.2773   -999.2500   -999.2500      0.3418      0.1787      0.4508      0.5229      2.3870      1.5626      2.8000     -9.9780    -30.4575      2.8000    -21.9780    -12.4725      0.8271      0.7720      0.8271      0.1090      0.2179      0.2179      0.6582
    829.5000      0.2663      0.3973      3.0000   -999.2500   -999.2500      2.3400      0.6873      2.4187   -999.2500   -999.2500      0.3127      0.1765      0.4438      0.5110      2.3400      1.8053      2.7670     -8.5410    -30.4520      2.7670    -20.5410    -10.6763      0.8953      0.8514      0.8953      0.1310      0.2621      0.2621      0.6873
    830.0000      0.2682      0.4064      3.0000   -999.2500   -999.2500      2.3070      0.6968      2.4649   -999.2500   -999.2500      0.3032      0.1758      0.4415      0.5071      2.3070      1.8947      2.8320     -8.0700    -30.4465      2.8320    -20.0700    -10.0875      0.9206      0.8844      0.9206      0.1383      0.2765      0.2765      0.6968
    830.5000      0.2597      0.4040      3.0000   -999.2500   -999.2500      2.4180      0.7048      2.5038   -999.2500   -999.2500      0.2952      0.1752      0.4395      0.5038      2.4180      1.9742      2.9750     -7.6740    -30.4410      2.9750    -19.6740     -9.5925      0.9192      0.8797      0.9192      0.1443      0.2887      0.2887      0.7048
    831.0000      0.2664      0.4130      3.0000   -999.2500   -999.2500      2.3210      0.7078      2.5180   -999.2500   -999.2500      0.2922      0.1750      0.4388      0.5026      2.3210      2.0041      3.1330     -7.5290    -30.4355      3.1330    -19.5290     -9.4112      0.9411      0.9116      0.9411      0.1466      0.2931      0.2931      0.7078
    831.5000      0.2448      0.3930      3.0000   -999.2500   -999.2500      2.6400      0.7100      2.5286   -999.2500   -999.2500      0.2900      0.1748      0.4383      0.5017      2.6400      2.0269      3.3740     -7.4200    -30.4300      3.3740    -19.4200     -9.2750      0.8967      0.8439      0.8967      0.1482      0.2964      0.2964      0.7100
    832.0000      0.2331      0.3819      3.0000   -999.2500   -999.2500      2.8380      0.7107      2.5322   -999.2500   -999.2500      0.2893      0.1748      0.4381      0.5014      2.8380      2.0346      3.6680     -7.3820    -30.4245      3.6680    -19.3820     -9.2275      0.8717      0.8058      0.8717      0.1488      0.2976      0.2976      0.7107
    832.5000      0.2233      0.3688      3.0000   -999.2500   -999.2500      3.0280      0.7064      2.5111   -999.2500   -999.2500      0.2936      0.1751      0.4391      0.5031      3.0280      1.9891      4.0230     -7.5950    -30.4190      4.0230    -19.5950     -9.4937      0.8399      0.7606      0.8399      0.1455      0.2910      0.2910      0.7064
    833.0000      0.2127      0.3522      3.0000   -999.2500   -999.2500      3.2610      0.6984      2.4723   -999.2500   -999.2500      0.3016      0.1757      0.4410      0.5064      3.2610      1.9089      4.2850     -7.9870    -30.4135      4.2850    -19.9870     -9.9837      0.7985      0.7053      0.7985      0.1394      0.2788      0.2788      0.6984
    833.5000      0.2034      0.3367      3.0000   -999.2500   -999.2500      3.4910      0.6904      2.4335   -999.2500   -999.2500      0.3096      0.1763      0.4430      0.5097      3.4910      1.8326      4.5830     -8.3790    -30.4080      4.5830    -20.3790    -10.4737      0.7602      0.6569      0.7602      0.1334      0.2667      0.2667      0.6904
    834.0000      0.1942      0.3154      3.0000   -999.2500   -999.2500      3.7530      0.6744      2.3558   -999.2500   -999.2500      0.3256      0.1775      0.4468      0.5162      3.7530      1.6911      5.4710     -9.1650    -30.4025      5.4710    -21.1650    -11.4563      0.7060      0.5965      0.7060      0.1212      0.2424      0.2424      0.6744
    834.5000      0.1792      0.2878      3.0000   -999.2500   -999.2500      4.2230      0.6577      2.2745   -999.2500   -999.2500      0.3423      0.1787      0.4508      0.5230      4.2230      1.5574      6.1170     -9.9870    -30.3970      6.1170    -21.9870    -12.4837      0.6383      0.5237      0.6383      0.1085      0.2170      0.2170      0.6577
    835.0000      0.1711      0.2653      3.0000   -999.2500   -999.2500      4.5250      0.6389      2.1826   -999.2500   -999.2500      0.3611      0.1801      0.4553      0.5308      4.5250      1.4219      6.5910    -10.9160    -30.3915      6.5910    -22.9160    -13.6450      0.5827      0.4738      0.5827      0.0942      0.1883      0.1883      0.6277
    835.5000      0.1652      0.2533      2.0000   -999.2500   -999.2500      4.7540      0.6309      2.1437   -999.2500   -999.2500      0.3691      0.1807      0.4571      0.5341      4.7540      1.3690      7.0830    -11.3080    -30.3860      7.0830    -23.3080    -14.1350      0.5541      0.4476      0.5541      0.0881      0.1762      0.1762      0.5872
    836.0000      0.1614      0.2451      2.0000   -999.2500   -999.2500      4.9090      0.6251      2.1154   -999.2500   -999.2500      0.3749      0.1812      0.4585      0.5364      4.9090      1.3320      7.1400    -11.5930    -30.3805      7.1400    -23.5930    -14.4913      0.5346      0.4307      0.5346      0.0837      0.1673      0.1673      0.5577
    836.5000      0.1597      0.2417      2.0000   -999.2500   -999.2500      4.9840      0.6230      2.1047   -999.2500   -999.2500      0.3770      0.1813      0.4590      0.5373      4.9840      1.3183      7.0030    -11.6990    -30.3750      7.0030    -23.6990    -14.6237      0.5265      0.4235      0.5265      0.0820      0.1640      0.1640      0.5466
    837.0000      0.1584      0.2410      2.0000   -999.2500   -999.2500      5.0370      0.6237      2.1083   -999.2500   -999.2500      0.3763      0.1813      0.4588      0.5370      5.0370      1.3228      6.2480    -11.6610    -30.3695      6.2480    -23.6610    -14.5763      0.5251      0.4210      0.5251      0.0825      0.1651      0.1651      0.5503
    837.5000      0.1562      0.2619      3.0000   -999.2500   -999.2500      5.0840      0.6542      2.2568   -999.2500   -999.2500      0.3458      0.1790      0.4516      0.5245      5.0840      1.5298      5.7920    -10.1550    -30.3640      5.7920    -22.1550    -12.6938      0.5800      0.4516      0.5800      0.1058      0.2115      0.2115      0.6542
    838.0000      0.1574      0.2770      3.0000   -999.2500   -999.2500      4.9790      0.6724      2.3453   -999.2500   -999.2500      0.3276      0.1776      0.4472      0.5170      4.9790      1.6725      4.4610     -9.2580    -30.3585      4.4610    -21.2580    -11.5725      0.6193      0.4803      0.6193      0.1196      0.2391      0.2391      0.6724
    838.5000      0.1788      0.3095      3.0000   -999.2500   -999.2500      4.1700      0.6869      2.4161   -999.2500   -999.2500      0.3131      0.1765      0.4437      0.5110      4.1700      1.7989      4.2810     -8.5400    -30.3530      4.2810    -20.5400    -10.6750      0.6975      0.5712      0.6975      0.1306      0.2613      0.2613      0.6869
    839.0000      0.1877      0.3288      3.0000   -999.2500   -999.2500      3.8710      0.7008      2.4833   -999.2500   -999.2500      0.2992      0.1755      0.4403      0.5053      3.8710      1.9303      4.1520     -7.8580    -30.3475      4.1520    -19.8580     -9.8225      0.7468      0.6274      0.7468      0.1411      0.2823      0.2823      0.7008
