~V
VERS. 2.00: Ver 2.00
WRAP.   NO:        
~W
 STRT.FT 40:
 STOP.FT 4330:
 STEP.FT 0.5:
 NULL. -999.250000:
 COMP. Standard (Chevron):Company
 WELL. KCL 44-45:Well
 FLD. Pioneer:Field
 LOC. S32 T11N R22W:Location
 STAT. CA:State
 SRVC. :Service Company
 SON. :Service Order #
 DATE. :Log Date
 UWI. 0941000:Unique Well ID
~C
 DEPT.FT :
 BVES. :
 BVTS. :
 FACE. :
 GR.RE/T :
 GRS.RE/T :
 ILD.OHMM :
 LTHE. :
 MM. :
 NEUS.CPS :
 NEUT.CPS :
 PHES. :
 PHMX. :
 PHTS. :
 PHZC. :
 RD.OHMM :
 ROS. :
 RS.OHMM :
 SBL.MV :
 SCLN. :
 SN.OHMM :
 SP.MV :
 SPN. :
 STUS. :
 SWES. :
 SWTS. :
 VCDS. :
 VCLY. :
 VCWS. :
 VSHS. :
~P
~A
# ...
   3539.0000      0.0100      0.3600      4.0000      4.5440      4.2723      3.6813      0.8500 -1000000015047466220000000000000.0000    246.6315    242.7600      0.1500 49090916870222007100000000000.0000      0.5000 270000019174388625000000000000.0000      3.6813      0.5337   -999.2500   -999.2500   -999.2500   -999.2500   -999.2500   -999.2500      0.2955      0.0667      0.7200      0.3500   -999.2500      0.7000      0.8500
   3539.5000      0.0100      0.3600      4.0000      4.4940      4.2285      3.7298      0.8500 -1000000166163193670000000000000.0000    249.9401    243.2170      0.1500 49090916870222007100000000000.0000      0.5000 270000019174388625000000000000.0000      3.7298      0.5337   -999.2500   -999.2500   -999.2500   -999.2500   -999.2500   -999.2500      0.2928      0.0667      0.7200      0.3500   -999.2500      0.7000      0.8500
   3540.0000      0.0100      0.3600      4.0000      4.4440      4.1855      3.7852      0.8500   -999.2500    252.6471    244.7230      0.1500 49090916870222007100000000000.0000      0.5000 270000019174388625000000000000.0000      3.7852      0.5336   -999.2500   -999.2500   -999.2500   -999.2500   -999.2500   -999.2500      0.2898      0.0667      0.7200      0.3500   -999.2500      0.7000      0.8500
   3540.5000      0.0100      0.3600      4.0000      4.4020      4.1145      3.9097      0.8500   -999.2500    255.3922    244.9920      0.1500 49090916870222007100000000000.0000      0.5000 270000019174388625000000000000.0000      3.9097      0.5336   -999.2500   -999.2500   -999.2500   -999.2500   -999.2500   -999.2500      0.2833      0.0667      0.7200      0.3500   -999.2500      0.7000      0.8500
   3541.0000      0.0100      0.3600      4.0000      4.3640      4.2026      4.0480      0.8500   -999.2500    257.5192    245.2600      0.1500 49090916870222007100000000000.0000      0.5000 270000019174388625000000000000.0000      4.0480      0.5335   -999.2500   -999.2500   -999.2500   -999.2500   -999.2500   -999.2500      0.2764      0.0667      0.7200      0.3500   -999.2500      0.7000      0.8500
   3541.5000      0.0100      0.3600      4.0000      4.3230      4.2248      4.2495      0.8500   -999.2500    259.4775    245.9860      0.1500 49090916870222007100000000000.0000      0.5000 270000019174388625000000000000.0000      4.2495      0.5335   -999.2500   -999.2500   -999.2500   -999.2500   -999.2500   -999.2500      0.2671      0.0667      0.7200      0.3500   -999.2500      0.7000      0.8500
   3542.0000      0.0100      0.3600      4.0000      4.2660      4.2369      4.4701      0.8500   -999.2500    260.7397    246.7110      0.1500 49090916870222007100000000000.0000      0.5000 270000019174388625000000000000.0000      4.4701      0.5335   -999.2500   -999.2500   -999.2500   -999.2500   -999.2500   -999.2500      0.2576      0.0667      0.7200      0.3500   -999.2500      0.7000      0.8500
   3542.5000      0.0100      0.3600      4.0000      4.2240      4.2252      4.7546      0.8500   -999.2500    261.9293    250.3260      0.1500 49090916870222007100000000000.0000      0.5000 270000019174388625000000000000.0000      4.7546      0.5334   -999.2500   -999.2500   -999.2500   -999.2500   -999.2500   -999.2500      0.2465      0.0667      0.7200      0.3500   -999.2500      0.7000      0.8500
   3543.0000      0.0100      0.3600      4.0000      4.1810      4.1710      5.1392      0.8500   -999.2500    265.5833    252.9160      0.1500 49090916870222007100000000000.0000      0.5000 270000019174388625000000000000.0000      5.1392      0.5334   -999.2500   -999.2500   -999.2500   -999.2500   -999.2500   -999.2500      0.2330      0.0667      0.7200      0.3500   -999.2500      0.7000      0.8500
   3543.5000      0.0100      0.3600      4.0000      4.1070      4.1321      5.5304      0.8500   -999.2500    268.6398    255.6700      0.1500 49090916870222007100000000000.0000      0.5000 270000019174388625000000000000.0000      5.5304      0.5333   -999.2500   -999.2500   -999.2500   -999.2500   -999.2500   -999.2500      0.2208      0.0667      0.7200      0.3500   -999.2500      0.7000      0.8500
   3544.0000      0.0100      0.3600      4.0000      4.2130      4.0950      5.8184      0.8500   -999.2500    272.1132    257.7200      0.1500 49090916870222007100000000000.0000      0.5000 270000019174388625000000000000.0000      5.8184      0.5333   -999.2500   -999.2500   -999.2500   -999.2500   -999.2500   -999.2500      0.2127      0.0667      0.7200      0.3500   -999.2500      0.7000      0.8500
   3544.5000      0.0100      0.3600      4.0000      4.2260      4.0477      6.0065      0.8500   -999.2500    274.7347    259.6620      0.1500 49090916870222007100000000000.0000      0.5000 270000019174388625000000000000.0000      6.0065      0.5332   -999.2500   -999.2500   -999.2500   -999.2500   -999.2500   -999.2500      0.2078      0.0667      0.7200      0.3500   -999.2500      0.7000      0.8500
   3545.0000      0.0100      0.3600      4.0000      4.2380      4.0273      6.0689      0.8500   -999.2500    276.8293    260.8490      0.1500 49090916870222007100000000000.0000      0.5000 270000019174388625000000000000.0000      6.0689      0.5332   -999.2500   -999.2500   -999.2500   -999.2500   -999.2500   -999.2500      0.2062      0.0667      0.7200      0.3500   -999.2500      0.7000      0.8500
   3545.5000      0.0100      0.3600      4.0000      4.2240      4.0353      6.1156      0.8500   -999.2500    278.2828    262.0350      0.1500 49090916870222007100000000000.0000      0.5000 270000019174388625000000000000.0000      6.1156      0.5331   -999.2500   -999.2500   -999.2500   -999.2500   -999.2500   -999.2500      0.2050      0.0667      0.7200      0.3500   -999.2500      0.7000      0.8500
   3546.0000      0.0100      0.3600      4.0000      4.1660      4.0469      6.1374      0.8500   -999.2500    278.0608    265.9180      0.1500 49090916870222007100000000000.0000      0.5000 270000019174388625000000000000.0000      6.1374      0.5331   -999.2500   -999.2500   -999.2500   -999.2500   -999.2500   -999.2500      0.2044      0.0667      0.7200      0.3500   -999.2500      0.7000      0.8500
   3546.5000      0.0100      0.3600      4.0000      4.1290      4.1115      5.9712      0.8500   -999.2500    277.2091    268.8870      0.1500 49090916870222007100000000000.0000      0.5000 270000019174388625000000000000.0000      5.9712      0.5331   -999.2500   -999.2500   -999.2500   -999.2500   -999.2500   -999.2500      0.2086      0.0667      0.7200      0.3500   -999.2500      0.7000      0.8500
   3547.0000      0.0100      0.3600      4.0000      4.0920      4.3466      5.7408      0.8500   -999.2500    274.7334    272.3950      0.1500 49090916870222007100000000000.0000      0.5000 270000019174388625000000000000.0000      5.7408      0.5330   -999.2500   -999.2500   -999.2500   -999.2500   -999.2500   -999.2500      0.2147      0.0667      0.7200      0.3500   -999.2500      0.7000      0.8500
   3547.5000      0.0100      0.3600      4.0000      4.0440      4.4647      5.4385      0.8500   -999.2500    268.2526    274.9310      0.1500 49090916870222007100000000000.0000      0.5000 270000019174388625000000000000.0000      5.4385      0.5330   -999.2500   -999.2500   -999.2500   -999.2500   -999.2500   -999.2500      0.2234      0.0667      0.7200      0.3500   -999.2500      0.7000      0.8500
   3548.0000      0.0100      0.3600      4.0000      4.0260      4.5294      5.1272      0.8500   -999.2500    265.5472    276.9820      0.1500 49090916870222007100000000000.0000      0.5000 270000019174388625000000000000.0000      5.1272      0.5329   -999.2500   -999.2500   -999.2500   -999.2500   -999.2500   -999.2500      0.2332      0.0667      0.7200      0.3500   -999.2500      0.7000      0.8500
   3548.5000      0.0100      0.3600      4.0000      4.0360      4.5739      4.8368      0.8500   -999.2500    264.0898    278.3830      0.1500 49090916870222007100000000000.0000      0.5000 270000019174388625000000000000.0000      4.8368      0.5329   -999.2500   -999.2500   -999.2500   -999.2500   -999.2500   -999.2500      0.2432      0.0667      0.7200      0.3500   -999.2500      0.7000      0.8500
