~V
VERS. 2.00: Ver 2.00
WRAP.   NO:        
~W
 STRT.FT 10:
 STOP.FT 5350:
 STEP.FT 0.5:
 NULL. -999.250000:
 COMP. Standard (Chevron):Company
 WELL. KCL 44-12:Well
 FLD. Pioneer:Field
 LOC. S32 T11N R22W:Location
 STAT. CA:State
 SRVC. :Service Company
 SON. :Service Order #
 DATE. :Log Date
 UWI. 0940400:Unique Well ID
~C
 DEPT.FT :
 GRS.RE/T :
 ILD.OHMM :
 LTHE. :
 MM. :
 NEUT.CPS :
 PHES. :
 PHMX. :
 PHTS. :
 PHZC. :
 RD.OHMM :
 ROS. :
 RS.OHMM :
 SBL.MV :
 SCLN. :
 SN.OHMM :
 SP.MV :
 SPN. :
 VCDS. :
 VCLY. :
 VCWS. :
 VSHS. :
~P
~A
# ...
   4351.5000      4.6520      3.4590      0.8500   -999.2500    212.4880      0.1500 49090916870222007100000000000.0000      0.5000 270000019174388625000000000000.0000      3.4590      0.4704      6.4350    -13.2290   -999.2500      6.4350    -61.2290    -37.7971      0.3500   -999.2500      0.7000      0.8500
   4352.0000      4.5120      3.3610      0.8500   -999.2500    213.4310      0.1500 49090916870222007100000000000.0000      0.5000 270000019174388625000000000000.0000      3.3610      0.4704      6.4240    -13.0510   -999.2500      6.4240    -61.0510    -37.2886      0.3500   -999.2500      0.7000      0.8500
   4352.5000      4.4090      3.2170      0.8500   -999.2500    214.9380      0.1500 49090916870222007100000000000.0000      0.5000 270000019174388625000000000000.0000      3.2170      0.4703      6.6180    -13.8440   -999.2500      6.6180    -61.8440    -39.5543      0.3500   -999.2500      0.7000      0.8500
   4353.0000      4.3330      3.1840      0.8500   -999.2500    215.6130      0.1500 49090916870222007100000000000.0000      0.5000 270000019174388625000000000000.0000      3.1840      0.4703      7.1330    -14.7440   -999.2500      7.1330    -62.7440    -42.1257      0.3500   -999.2500      0.7000      0.8500
   4353.5000      4.2600      3.1520      0.8500   -999.2500    216.2880      0.1500 49090916870222007100000000000.0000      0.5000 270000019174388625000000000000.0000      3.1520      0.4703      7.8280    -15.6450   -999.2500      7.8280    -63.6450    -44.7000      0.3500   -999.2500      0.7000      0.8500
   4354.0000      4.1520      3.1390      0.8500   -999.2500    217.4180      0.1500 49090916870222007100000000000.0000      0.5000 270000019174388625000000000000.0000      3.1390      0.4702      8.4620    -17.5900   -999.2500      8.4620    -65.5900    -50.2571      0.3500   -999.2500      0.7000      0.8500
   4354.5000      4.0310      3.1260      0.8500   -999.2500    217.8780      0.1500 49090916870222007100000000000.0000      0.5000 270000019174388625000000000000.0000      3.1260      0.4702      8.9740    -19.2110   -999.2500      8.9740    -67.2110    -54.8886      0.3500   -999.2500      0.7000      0.8500
   4355.0000      3.9010      3.1260      0.8500   -999.2500    218.3380      0.1500 49090916870222007100000000000.0000      0.5000 270000019174388625000000000000.0000      3.1260      0.4702      9.6040    -19.9680   -999.2500      9.6040    -67.9680    -57.0514      0.3500   -999.2500      0.7000      0.8500
   4355.5000      3.7330      3.1370      0.8500   -999.2500    219.1990      0.1500 49090916870222007100000000000.0000      0.5000 270000019174388625000000000000.0000      3.1370      0.4701      9.9720    -20.7790   -999.2500      9.9720    -68.7790    -59.3686      0.3500   -999.2500      0.7000      0.8500
   4356.0000      3.6150      3.1400      0.8500   -999.2500    219.5790      0.1500 49090916870222007100000000000.0000      0.5000 270000019174388625000000000000.0000      3.1400      0.4701      9.9210    -21.5900   -999.2500      9.9210    -69.5900    -61.6857      0.3500   -999.2500      0.7000      0.8500
   4356.5000      3.5840      3.1400      0.8500   -999.2500    219.9580      0.1500 49090916870222007100000000000.0000      0.5000 270000019174388625000000000000.0000      3.1400      0.4701      9.6040    -22.1490   -999.2500      9.6040    -70.1490    -63.2829      0.3500   -999.2500      0.7000      0.8500
   4357.0000      3.5360      3.0540      0.8500   -999.2500    220.4440      0.1500 49090916870222007100000000000.0000      0.5000 270000019174388625000000000000.0000      3.0540      0.4700      9.1500    -22.7090   -999.2500      9.1500    -70.7090    -64.8829      0.3500   -999.2500      0.7000      0.8500
   4357.5000      3.4910      2.9560      0.8500   -999.2500    219.8300      0.1500 49090916870222007100000000000.0000      0.5000 270000019174388625000000000000.0000      2.9560      0.4700      8.8330    -22.9860   -999.2500      8.8330    -70.9860    -65.6743      0.3500   -999.2500      0.7000      0.8500
   4358.0000      3.4470      2.8660      0.8500   -999.2500    219.2150      0.1500 49090916870222007100000000000.0000      0.5000 270000019174388625000000000000.0000      2.8660      0.4700      8.6670    -23.2630   -999.2500      8.6670    -71.2630    -66.4657      0.3500   -999.2500      0.7000      0.8500
   4358.5000      3.3780      2.7870      0.8500   -999.2500    218.4120      0.1500 49090916870222007100000000000.0000      0.5000 270000019174388625000000000000.0000      2.7870      0.4699      8.7530    -23.5410   -999.2500      8.7530    -71.5410    -67.2600      0.3500   -999.2500      0.7000      0.8500
   4359.0000      3.3570      2.7400      0.8500   -999.2500    218.3880      0.1500 49090916870222007100000000000.0000      0.5000 270000019174388625000000000000.0000      2.7400      0.4699      8.8830    -23.8480   -999.2500      8.8830    -71.8480    -68.1371      0.3500   -999.2500      0.7000      0.8500
   4359.5000      3.3300      2.7470      0.8500   -999.2500    218.3640      0.1500 49090916870222007100000000000.0000      0.5000 270000019174388625000000000000.0000      2.7470      0.4698      8.9870    -24.1560   -999.2500      8.9870    -72.1560    -69.0172      0.3500   -999.2500      0.7000      0.8500
   4360.0000      3.2980      2.7500      0.8500   -999.2500    218.3940      0.1500 49090916870222007100000000000.0000      0.5000 270000019174388625000000000000.0000      2.7500      0.4698      9.0450    -25.6340   -999.2500      9.0450    -73.6340    -73.2400      0.3500   -999.2500      0.7000      0.8500
   4360.5000      3.2660      2.7610      0.8500   -999.2500    218.4230      0.1500 49090916870222007100000000000.0000      0.5000 270000019174388625000000000000.0000      2.7610      0.4698      8.8720    -26.2460   -999.2500      8.8720    -74.2460    -74.9886      0.3500   -999.2500      0.7000      0.8500
   4361.0000      3.2370      2.7790      0.8500   -999.2500    218.3550      0.1500 49090916870222007100000000000.0000      0.5000 270000019174388625000000000000.0000      2.7790      0.4697      8.6840    -27.6150   -999.2500      8.6840    -75.6150    -78.9000      0.3500   -999.2500      0.7000      0.8500
   4361.5000      3.1940      2.7860      0.8500   -999.2500    218.2860      0.1500 49090916870222007100000000000.0000      0.5000 270000019174388625000000000000.0000      2.7860      0.4697      8.2050    -28.9840   -999.2500      8.2050    -76.9840    -82.8114      0.3500   -999.2500      0.7000      0.8500
   4362.0000      3.2680      2.7930      0.8500   -999.2500    218.2170      0.1500 49090916870222007100000000000.0000      0.5000 270000019174388625000000000000.0000      2.7930      0.4697      7.8270    -31.4680   -999.2500      7.8270    -79.4680    -89.9086      0.3500   -999.2500      0.7000      0.8500
   4362.5000      3.3130      2.7970      0.8500   -999.2500    217.9690      0.1500 49090916870222007100000000000.0000      0.5000 270000019174388625000000000000.0000      2.7970      0.4696      7.4340    -33.5200   -999.2500      7.4340    -81.5200    -95.7714      0.3500   -999.2500      0.7000      0.8500
   4363.0000      3.3590      2.7970      0.8500   -999.2500    217.7220      0.1500 49090916870222007100000000000.0000      0.5000 270000019174388625000000000000.0000      2.7970      0.4696      7.2570    -35.6440   -999.2500      7.2570    -83.6440   -101.8400      0.3500   -999.2500      0.7000      0.8500
   4363.5000      3.4020      2.7970      0.8500   -999.2500    217.4740      0.1500 49090916870222007100000000000.0000      0.5000 270000019174388625000000000000.0000      2.7970      0.4696      7.1130    -40.4660   -999.2500      7.1130    -88.4660   -115.6172      0.3500   -999.2500      0.7000      0.8500
   4364.0000      3.4450      2.7910      0.8500   -999.2500    217.1280      0.1500 49090916870222007100000000000.0000      0.5000 270000019174388625000000000000.0000      2.7910      0.4695      7.0260    -45.0720   -999.2500      7.0260    -93.0720   -128.7772      0.3500   -999.2500      0.7000      0.8500
