~V
VERS. 2.00: Ver 2.00
WRAP.   NO:        
~W
 STRT.FT 20:
 STOP.FT 4330:
 STEP.FT 0.5:
 NULL. -999.250000:
 COMP. Standard (Chevron):Company
 WELL. KCL 44-25:Well
 FLD. Pioneer:Field
 LOC. S32 T11N R22W:Location
 STAT. CA:State
 SRVC. :Service Company
 SON. :Service Order #
 DATE. :Log Date
 UWI. 0940600:Unique Well ID
~C
 DEPT.FT :
 BVES. :
 BVTS. :
 FACE. :
 GR.RE/T :
 GRS.RE/T :
 ILD.OHMM :
 LTHE. :
 MM. :
 NEUS.CPS :
 NEUT.CPS :
 PHES. :
 PHMX. :
 PHTS. :
 PHZC. :
 RD.OHMM :
 ROS. :
 RS.OHMM :
 SBL.MV :
 SCLN. :
 SN.OHMM :
 SP.MV :
 SPN. :
 STUS. :
 SWES. :
 SWTS. :
 VCDS. :
 VCLY. :
 VCWS. :
 VSHS. :
~P
~A
# ...
   3520.0000      0.0100      0.3600      4.0000      4.4340      4.5423      5.1920      0.8500   -999.2500    256.2581    255.7350      0.1500 49090916870222007100000000000.0000      0.5000 270000019174388625000000000000.0000      5.1920      0.5354   -999.2500   -999.2500   -999.2500   -999.2500   -999.2500   -999.2500      0.2322      0.0667      0.7200      0.3500   -999.2500      0.7000      0.8500
   3520.5000      0.0100      0.3600      4.0000      4.3870      4.4182      5.0150      0.8500   -999.2500    253.4643    248.9750      0.1500 49090916870222007100000000000.0000      0.5000 270000019174388625000000000000.0000      5.0150      0.5354   -999.2500   -999.2500   -999.2500   -999.2500   -999.2500   -999.2500      0.2380      0.0667      0.7200      0.3500   -999.2500      0.7000      0.8500
   3521.0000      0.0100      0.3600      4.0000      4.3490      4.3748      4.9270      0.8500   -999.2500    247.4142    244.0980      0.1500 49090916870222007100000000000.0000      0.5000 270000019174388625000000000000.0000      4.9270      0.5353   -999.2500   -999.2500   -999.2500   -999.2500   -999.2500   -999.2500      0.2411      0.0667      0.7200      0.3500   -999.2500      0.7000      0.8500
   3521.5000      0.0100      0.3600      4.0000      4.3240      4.3414      4.8000      0.8500   -999.2500    243.6122    242.5010      0.1500 49090916870222007100000000000.0000      0.5000 270000019174388625000000000000.0000      4.8000      0.5353   -999.2500   -999.2500   -999.2500   -999.2500   -999.2500   -999.2500      0.2456      0.0667      0.7200      0.3500   -999.2500      0.7000      0.8500
   3522.0000      0.0100      0.3600      4.0000      4.3760      4.3390      4.7060      0.8500   -999.2500    242.5209    242.5700      0.1500 49090916870222007100000000000.0000      0.5000 270000019174388625000000000000.0000      4.7060      0.5352   -999.2500   -999.2500   -999.2500   -999.2500   -999.2500   -999.2500      0.2491      0.0667      0.7200      0.3500   -999.2500      0.7000      0.8500
   3522.5000      0.0100      0.3600      4.0000      4.4290      4.3904      4.6290      0.8500   -999.2500    243.6588    246.5660      0.1500 49090916870222007100000000000.0000      0.5000 270000019174388625000000000000.0000      4.6290      0.5352   -999.2500   -999.2500   -999.2500   -999.2500   -999.2500   -999.2500      0.2521      0.0667      0.7200      0.3500   -999.2500      0.7000      0.8500
   3523.0000      0.0100      0.3600      4.0000      4.4890      4.4444      4.5740      0.8500   -999.2500    247.1636    248.8950      0.1500 49090916870222007100000000000.0000      0.5000 270000019174388625000000000000.0000      4.5740      0.5351   -999.2500   -999.2500   -999.2500   -999.2500   -999.2500   -999.2500      0.2542      0.0667      0.7200      0.3500   -999.2500      0.7000      0.8500
   3523.5000      0.0100      0.3600      4.0000      4.6050      4.5169      4.5770      0.8500   -999.2500    249.1967    250.1480      0.1500 49090916870222007100000000000.0000      0.5000 270000019174388625000000000000.0000      4.5770      0.5351   -999.2500   -999.2500   -999.2500   -999.2500   -999.2500   -999.2500      0.2541      0.0667      0.7200      0.3500   -999.2500      0.7000      0.8500
   3524.0000      0.0100      0.3600      4.0000      4.7020      4.6268      4.6310      0.8500   -999.2500    250.5143    251.7770      0.1500 49090916870222007100000000000.0000      0.5000 270000019174388625000000000000.0000      4.6310      0.5351   -999.2500   -999.2500   -999.2500   -999.2500   -999.2500   -999.2500      0.2519      0.0667      0.7200      0.3500   -999.2500      0.7000      0.8500
   3524.5000      0.0100      0.3600      4.0000      4.7820      4.7187      4.6860      0.8500   -999.2500    251.9041    252.3850      0.1500 49090916870222007100000000000.0000      0.5000 270000019174388625000000000000.0000      4.6860      0.5350   -999.2500   -999.2500   -999.2500   -999.2500   -999.2500   -999.2500      0.2498      0.0667      0.7200      0.3500   -999.2500      0.7000      0.8500
   3525.0000      0.0100      0.3600      4.0000      4.7630      4.7783      4.8400      0.8500   -999.2500    252.4348    252.6430      0.1500 49090916870222007100000000000.0000      0.5000 270000019174388625000000000000.0000      4.8400      0.5350   -999.2500   -999.2500   -999.2500   -999.2500   -999.2500   -999.2500      0.2440      0.0667      0.7200      0.3500   -999.2500      0.7000      0.8500
   3525.5000      0.0100      0.3600      4.0000      4.7730      4.7648      4.9250      0.8500   -999.2500    252.6889    252.9020      0.1500 49090916870222007100000000000.0000      0.5000 270000019174388625000000000000.0000      4.9250      0.5349   -999.2500   -999.2500   -999.2500   -999.2500   -999.2500   -999.2500      0.2410      0.0667      0.7200      0.3500   -999.2500      0.7000      0.8500
   3526.0000      0.0100      0.3600      4.0000      4.7940      4.7764      4.9810      0.8500   -999.2500    253.1737    254.5850      0.1500 49090916870222007100000000000.0000      0.5000 270000019174388625000000000000.0000      4.9810      0.5349   -999.2500   -999.2500   -999.2500   -999.2500   -999.2500   -999.2500      0.2390      0.0667      0.7200      0.3500   -999.2500      0.7000      0.8500
   3526.5000      0.0100      0.3600      4.0000      4.7980      4.7946      5.0990      0.8500   -999.2500    254.8614    256.4830      0.1500 49090916870222007100000000000.0000      0.5000 270000019174388625000000000000.0000      5.0990      0.5348   -999.2500   -999.2500   -999.2500   -999.2500   -999.2500   -999.2500      0.2350      0.0667      0.7200      0.3500   -999.2500      0.7000      0.8500
   3527.0000      0.0100      0.3600      4.0000      4.6870      4.7836      5.1880      0.8500   -999.2500    256.8130    259.0270      0.1500 49090916870222007100000000000.0000      0.5000 270000019174388625000000000000.0000      5.1880      0.5348   -999.2500   -999.2500   -999.2500   -999.2500   -999.2500   -999.2500      0.2320      0.0667      0.7200      0.3500   -999.2500      0.7000      0.8500
   3527.5000      0.0100      0.3600      4.0000      4.5820      4.6750      5.3520      0.8500   -999.2500    259.4943    263.1300      0.1500 49090916870222007100000000000.0000      0.5000 270000019174388625000000000000.0000      5.3520      0.5347   -999.2500   -999.2500   -999.2500   -999.2500   -999.2500   -999.2500      0.2268      0.0667      0.7200      0.3500   -999.2500      0.7000      0.8500
   3528.0000      0.0100      0.3600      4.0000      4.3710      4.5613      5.6600      0.8500 -1000000015047466220000000000000.0000    263.5638    267.5560      0.1500 49090916870222007100000000000.0000      0.5000 270000019174388625000000000000.0000      5.6600      0.5347   -999.2500   -999.2500   -999.2500   -999.2500   -999.2500   -999.2500      0.2177      0.0667      0.7200      0.3500   -999.2500      0.7000      0.8500
   3528.5000      0.0100      0.3600      4.0000      4.3240      4.3671      6.2050      0.8500   -999.2500    267.7826    270.3140      0.1500 49090916870222007100000000000.0000      0.5000 270000019174388625000000000000.0000      6.2050      0.5347   -999.2500   -999.2500   -999.2500   -999.2500   -999.2500   -999.2500      0.2034      0.0667      0.7200      0.3500   -999.2500      0.7000      0.8500
   3529.0000      0.0100      0.3600      4.0000      4.2040      4.3160      6.4700      0.8500   -999.2500    270.4291    272.0510      0.1500 49090916870222007100000000000.0000      0.5000 270000019174388625000000000000.0000      6.4700      0.5346   -999.2500   -999.2500   -999.2500   -999.2500   -999.2500   -999.2500      0.1971      0.0667      0.7200      0.3500   -999.2500      0.7000      0.8500
   3529.5000      0.0100      0.3600      4.0000      4.1820      4.2029      6.6020      0.8500   -999.2500    272.1143    273.3050      0.1500 49090916870222007100000000000.0000      0.5000 270000019174388625000000000000.0000      6.6020      0.5346   -999.2500   -999.2500   -999.2500   -999.2500   -999.2500   -999.2500      0.1942      0.0667      0.7200      0.3500   -999.2500      0.7000      0.8500
