~V
VERS. 2.00: Ver 2.00
WRAP.   NO:        
~W
 STRT.FT 10:
 STOP.FT 5350:
 STEP.FT 0.5:
 NULL. -999.250000:
 COMP. Standard (Chevron):Company
 WELL. KCL 44-12:Well
 FLD. Pioneer:Field
 LOC. S32 T11N R22W:Location
 STAT. CA:State
 SRVC. :Service Company
 SON. :Service Order #
 DATE. :Log Date
 UWI. 0940400:Unique Well ID
~C
 DEPT.FT :
 GRS.RE/T :
 ILD.OHMM :
 LTHE. :
 MM. :
 NEUT.CPS :
 PHES. :
 PHMX. :
 PHTS. :
 PHZC. :
 RD.OHMM :
 ROS. :
 RS.OHMM :
 SBL.MV :
 SCLN. :
 SN.OHMM :
 SP.MV :
 SPN. :
 VCDS. :
 VCLY. :
 VCWS. :
 VSHS. :
~P
~A
# ...
    374.0000   -999.2500      0.9820      0.8500   -999.2500   -999.2500      0.1500 49090916870222007100000000000.0000      0.5000 270000019174388625000000000000.0000      0.9820      1.1222     50.1500     -2.7699   -999.2500     50.1500    -46.3580     -7.9141      0.3500   -999.2500      0.7000      0.8500
    374.5000   -999.2500     88.9720      0.8500   -999.2500   -999.2500      0.1500 49090916870222007100000000000.0000      0.5000 270000019174388625000000000000.0000     88.9720      1.1220     99.2420     -2.6883   -999.2500     99.2420    -46.2510     -7.6809      0.3500   -999.2500      0.7000      0.8500
    375.0000   -999.2500     83.5320      0.8500   -999.2500   -999.2500      0.1500 49090916870222007100000000000.0000      0.5000 270000019174388625000000000000.0000     83.5320      1.1218     92.8720     -2.6777   -999.2500     92.8720    -46.2150     -7.6505      0.3500   -999.2500      0.7000      0.8500
    375.5000   -999.2500     77.7690      0.8500   -999.2500   -999.2500      0.1500 49090916870222007100000000000.0000      0.5000 270000019174388625000000000000.0000     77.7690      1.1216     88.8620     -2.8121   -999.2500     88.8620    -46.3240     -8.0345      0.3500   -999.2500      0.7000      0.8500
    376.0000   -999.2500     72.2210      0.8500   -999.2500   -999.2500      0.1500 49090916870222007100000000000.0000      0.5000 270000019174388625000000000000.0000     72.2210      1.1214     84.5670     -2.8374   -999.2500     84.5670    -46.3240     -8.1070      0.3500   -999.2500      0.7000      0.8500
    376.5000   -999.2500     69.7160      0.8500   -999.2500   -999.2500      0.1500 49090916870222007100000000000.0000      0.5000 270000019174388625000000000000.0000     69.7160      1.1212     80.9520     -2.8628   -999.2500     80.9520    -46.3240     -8.1794      0.3500   -999.2500      0.7000      0.8500
    377.0000   -999.2500     67.6390      0.8500   -999.2500   -999.2500      0.1500 49090916870222007100000000000.0000      0.5000 270000019174388625000000000000.0000     67.6390      1.1210     79.4120     -2.8892   -999.2500     79.4120    -46.3250     -8.2548      0.3500   -999.2500      0.7000      0.8500
    377.5000   -999.2500     66.0990      0.8500   -999.2500   -999.2500      0.1500 49090916870222007100000000000.0000      0.5000 270000019174388625000000000000.0000     66.0990      1.1208     78.8390     -2.8606   -999.2500     78.8390    -46.2710     -8.1730      0.3500   -999.2500      0.7000      0.8500
    378.0000   -999.2500     64.9530      0.8500   -999.2500   -999.2500      0.1500 49090916870222007100000000000.0000      0.5000 270000019174388625000000000000.0000     64.9530      1.1206     78.3010     -2.8319   -999.2500     78.3010    -46.2170     -8.0912      0.3500   -999.2500      0.7000      0.8500
    378.5000   -999.2500     64.2000      0.8500   -999.2500   -999.2500      0.1500 49090916870222007100000000000.0000      0.5000 270000019174388625000000000000.0000     64.2000      1.1204     79.0510     -2.7493   -999.2500     79.0510    -46.1090     -7.8551      0.3500   -999.2500      0.7000      0.8500
    379.0000   -999.2500     63.3410      0.8500   -999.2500   -999.2500      0.1500 49090916870222007100000000000.0000      0.5000 270000019174388625000000000000.0000     63.3410      1.1203     77.7980     -2.6667   -999.2500     77.7980    -46.0010     -7.6191      0.3500   -999.2500      0.7000      0.8500
    379.5000   -999.2500     62.1940      0.8500   -999.2500   -999.2500      0.1500 49090916870222007100000000000.0000      0.5000 270000019174388625000000000000.0000     62.1940      1.1201     75.5780     -2.6020   -999.2500     75.5780    -45.9110     -7.4344      0.3500   -999.2500      0.7000      0.8500
    380.0000   -999.2500     60.5470      0.8500   -999.2500   -999.2500      0.1500 49090916870222007100000000000.0000      0.5000 270000019174388625000000000000.0000     60.5470      1.1199     73.2510     -2.5374   -999.2500     73.2510    -45.8210     -7.2498      0.3500   -999.2500      0.7000      0.8500
    380.5000   -999.2500     58.6130      0.8500   -999.2500   -999.2500      0.1500 49090916870222007100000000000.0000      0.5000 270000019174388625000000000000.0000     58.6130      1.1197     73.1760     -2.4368   -999.2500     73.1760    -45.6950     -6.9623      0.3500   -999.2500      0.7000      0.8500
    381.0000   -999.2500     57.9300      0.8500   -999.2500   -999.2500      0.1500 49090916870222007100000000000.0000      0.5000 270000019174388625000000000000.0000     57.9300      1.1195     74.2470     -2.3372   -999.2500     74.2470    -45.5700     -6.6776      0.3500   -999.2500      0.7000      0.8500
    381.5000   -999.2500     61.5770      0.8500   -999.2500   -999.2500      0.1500 49090916870222007100000000000.0000      0.5000 270000019174388625000000000000.0000     61.5770      1.1193     76.4280     -2.2925   -999.2500     76.4280    -45.5000     -6.5501      0.3500   -999.2500      0.7000      0.8500
    382.0000   -999.2500     66.0480      0.8500   -999.2500   -999.2500      0.1500 49090916870222007100000000000.0000      0.5000 270000019174388625000000000000.0000     66.0480      1.1191     89.2010     -2.1739   -999.2500     89.2010    -45.3560     -6.2112      0.3500   -999.2500      0.7000      0.8500
    382.5000   -999.2500     70.8410      0.8500   -999.2500   -999.2500      0.1500 49090916870222007100000000000.0000      0.5000 270000019174388625000000000000.0000     70.8410      1.1189     45.0920     -2.0203   -999.2500     45.0920    -45.1770     -5.7722      0.3500   -999.2500      0.7000      0.8500
    383.0000   -999.2500     88.3720      0.8500   -999.2500   -999.2500      0.1500 49090916870222007100000000000.0000      0.5000 270000019174388625000000000000.0000     88.3720      1.1187      0.9830     -1.9027   -999.2500      0.9830    -45.0340     -5.4362      0.3500   -999.2500      0.7000      0.8500
    383.5000   -999.2500     91.5190      0.8500   -999.2500   -999.2500      0.1500 49090916870222007100000000000.0000      0.5000 270000019174388625000000000000.0000     91.5190      1.1185      1.3400     -1.8200   -999.2500      1.3400    -44.9260     -5.2001      0.3500   -999.2500      0.7000      0.8500
    384.0000   -999.2500      2.0130      0.8500   -999.2500   -999.2500      0.1500 49090916870222007100000000000.0000      0.5000 270000019174388625000000000000.0000      2.0130      1.1183      1.6980     -1.6304   -999.2500      1.6980    -44.7110     -4.6583      0.3500   -999.2500      0.7000      0.8500
    384.5000   -999.2500      2.1810      0.8500   -999.2500   -999.2500      0.1500 49090916870222007100000000000.0000      0.5000 270000019174388625000000000000.0000      2.1810      1.1181      1.9840     -1.3678   -999.2500      1.9840    -44.4230     -3.9079      0.3500   -999.2500      0.7000      0.8500
    385.0000   -999.2500      2.3340      0.8500   -999.2500   -999.2500      0.1500 49090916870222007100000000000.0000      0.5000 270000019174388625000000000000.0000      2.3340      1.1179      1.9940     -1.0341   -999.2500      1.9940    -44.0640     -2.9547      0.3500   -999.2500      0.7000      0.8500
    385.5000   -999.2500      2.3230      0.8500   -999.2500   -999.2500      0.1500 49090916870222007100000000000.0000      0.5000 270000019174388625000000000000.0000      2.3230      1.1177      1.9260     -0.7715   -999.2500      1.9260    -43.7760     -2.2044      0.3500   -999.2500      0.7000      0.8500
    386.0000   -999.2500      2.2300      0.8500   -999.2500   -999.2500      0.1500 49090916870222007100000000000.0000      0.5000 270000019174388625000000000000.0000      2.2300      1.1175      1.8540     -0.6539   -999.2500      1.8540    -43.6330     -1.8683      0.3500   -999.2500      0.7000      0.8500
    386.5000   -999.2500      2.0740      0.8500   -999.2500   -999.2500      0.1500 49090916870222007100000000000.0000      0.5000 270000019174388625000000000000.0000      2.0740      1.1173      1.7470     -0.6793   -999.2500      1.7470    -43.6330     -1.9408      0.3500   -999.2500      0.7000      0.8500
