~V
VERS. 2.00: Ver 2.00
WRAP.   NO:        
~W
 STRT.FT 40:
 STOP.FT 4330:
 STEP.FT 0.5:
 NULL. -999.250000:
 COMP. Standard (Chevron):Company
 WELL. KCL 44-45:Well
 FLD. Pioneer:Field
 LOC. S32 T11N R22W:Location
 STAT. CA:State
 SRVC. :Service Company
 SON. :Service Order #
 DATE. :Log Date
 UWI. 0941000:Unique Well ID
~C
 DEPT.FT :
 BVES. :
 BVTS. :
 FACE. :
 GR.RE/T :
 GRS.RE/T :
 ILD.OHMM :
 LTHE. :
 MM. :
 NEUS.CPS :
 NEUT.CPS :
 PHES. :
 PHMX. :
 PHTS. :
 PHZC. :
 RD.OHMM :
 ROS. :
 RS.OHMM :
 SBL.MV :
 SCLN. :
 SN.OHMM :
 SP.MV :
 SPN. :
 STUS. :
 SWES. :
 SWTS. :
 VCDS. :
 VCLY. :
 VCWS. :
 VSHS. :
~P
~A
# ...
   3799.0000      0.0100      0.3600      4.0000      5.9210      5.8547      4.1294      0.8500   -999.2500    225.0373    223.7680      0.1500 49090916870222007100000000000.0000      0.5000 270000019174388625000000000000.0000      4.1294      0.5117   -999.2500   -999.2500   -999.2500   -999.2500   -999.2500   -999.2500      0.2616      0.0667      0.7200      0.3500   -999.2500      0.7000      0.8500
   3799.5000      0.0100      0.3600      4.0000      5.9120      5.8535      4.1644      0.8500   -999.2500    225.4406    224.4070      0.1500 49090916870222007100000000000.0000      0.5000 270000019174388625000000000000.0000      4.1644      0.5116   -999.2500   -999.2500   -999.2500   -999.2500   -999.2500   -999.2500      0.2600      0.0667      0.7200      0.3500   -999.2500      0.7000      0.8500
   3800.0000      0.0100      0.3600      4.0000      5.8720      5.8878      4.3080      0.8500   -999.2500    225.0546    224.8330      0.1500 49090916870222007100000000000.0000      0.5000 270000019174388625000000000000.0000      4.3080      0.5116   -999.2500   -999.2500   -999.2500   -999.2500   -999.2500   -999.2500      0.2537      0.0667      0.7200      0.3500   -999.2500      0.7000      0.8500
   3800.5000      0.0100      0.3600      4.0000      5.8360      5.9201      4.2124      0.8500   -999.2500    223.8785    225.2590      0.1500 49090916870222007100000000000.0000      0.5000 270000019174388625000000000000.0000      4.2124      0.5116   -999.2500   -999.2500   -999.2500   -999.2500   -999.2500   -999.2500      0.2578      0.0667      0.7200      0.3500   -999.2500      0.7000      0.8500
   3801.0000      0.0100      0.3600      4.0000      5.8720      5.9457      4.1158      0.8500 -1000000015047466220000000000000.0000    222.8688    225.6320      0.1500 49090916870222007100000000000.0000      0.5000 270000019174388625000000000000.0000      4.1158      0.5115   -999.2500   -999.2500   -999.2500   -999.2500   -999.2500   -999.2500      0.2621      0.0667      0.7200      0.3500   -999.2500      0.7000      0.8500
   3801.5000      0.0100      0.3600      4.0000      5.9040      5.9648      4.0421      0.8500   -999.2500    222.0216    224.4640      0.1500 49090916870222007100000000000.0000      0.5000 270000019174388625000000000000.0000      4.0421      0.5115   -999.2500   -999.2500   -999.2500   -999.2500   -999.2500   -999.2500      0.2655      0.0667      0.7200      0.3500   -999.2500      0.7000      0.8500
   3802.0000      0.0100      0.3600      4.0000      5.9360      5.9756      4.0348      0.8500   -999.2500    220.9617    223.2970      0.1500 49090916870222007100000000000.0000      0.5000 270000019174388625000000000000.0000      4.0348      0.5114   -999.2500   -999.2500   -999.2500   -999.2500   -999.2500   -999.2500      0.2659      0.0667      0.7200      0.3500   -999.2500      0.7000      0.8500
   3802.5000      0.0100      0.3600      4.0000      5.9550      5.9791      4.1739      0.8500   -999.2500    219.7055    222.4560      0.1500 49090916870222007100000000000.0000      0.5000 270000019174388625000000000000.0000      4.1739      0.5114   -999.2500   -999.2500   -999.2500   -999.2500   -999.2500   -999.2500      0.2595      0.0667      0.7200      0.3500   -999.2500      0.7000      0.8500
   3803.0000      0.0100      0.3600      4.0000      5.9740      5.9799      4.3005      0.8500   -999.2500    218.5646    221.6150      0.1500 49090916870222007100000000000.0000      0.5000 270000019174388625000000000000.0000      4.3005      0.5114   -999.2500   -999.2500   -999.2500   -999.2500   -999.2500   -999.2500      0.2539      0.0667      0.7200      0.3500   -999.2500      0.7000      0.8500
   3803.5000      0.0100      0.3600      4.0000      5.9770      5.9845      4.3955      0.8500   -999.2500    218.2327    220.3680      0.1500 49090916870222007100000000000.0000      0.5000 270000019174388625000000000000.0000      4.3955      0.5113   -999.2500   -999.2500   -999.2500   -999.2500   -999.2500   -999.2500      0.2499      0.0667      0.7200      0.3500   -999.2500      0.7000      0.8500
   3804.0000      0.0100      0.3600      4.0000      5.9810      5.9929      4.4497      0.8500   -999.2500    218.5439    219.1210      0.1500 49090916870222007100000000000.0000      0.5000 270000019174388625000000000000.0000      4.4497      0.5113   -999.2500   -999.2500   -999.2500   -999.2500   -999.2500   -999.2500      0.2477      0.0667      0.7200      0.3500   -999.2500      0.7000      0.8500
   3804.5000      0.0100      0.3600      4.0000      5.9790      5.9596      4.3846      0.8500   -999.2500    218.8920    218.0880      0.1500 49090916870222007100000000000.0000      0.5000 270000019174388625000000000000.0000      4.3846      0.5112   -999.2500   -999.2500   -999.2500   -999.2500   -999.2500   -999.2500      0.2503      0.0667      0.7200      0.3500   -999.2500      0.7000      0.8500
   3805.0000      0.0100      0.3600      4.0000      5.9890      5.9037      4.3347      0.8500   -999.2500    219.1951    218.3530      0.1500 49090916870222007100000000000.0000      0.5000 270000019174388625000000000000.0000      4.3347      0.5112   -999.2500   -999.2500   -999.2500   -999.2500   -999.2500   -999.2500      0.2524      0.0667      0.7200      0.3500   -999.2500      0.7000      0.8500
   3805.5000      0.0100      0.3600      4.0000      5.9960      5.8519      4.2966      0.8500   -999.2500    219.4631    218.6980      0.1500 49090916870222007100000000000.0000      0.5000 270000019174388625000000000000.0000      4.2966      0.5112   -999.2500   -999.2500   -999.2500   -999.2500   -999.2500   -999.2500      0.2540      0.0667      0.7200      0.3500   -999.2500      0.7000      0.8500
   3806.0000      0.0100      0.3600      4.0000      5.9310      5.8016      4.2512      0.8500   -999.2500    219.6984    219.0440      0.1500 49090916870222007100000000000.0000      0.5000 270000019174388625000000000000.0000      4.2512      0.5111   -999.2500   -999.2500   -999.2500   -999.2500   -999.2500   -999.2500      0.2559      0.0667      0.7200      0.3500   -999.2500      0.7000      0.8500
   3806.5000      0.0100      0.3600      4.0000      5.8830      5.7755      4.2010      0.8500 -1000000166163193670000000000000.0000    219.7517    219.3100      0.1500 49090916870222007100000000000.0000      0.5000 270000019174388625000000000000.0000      4.2010      0.5111   -999.2500   -999.2500   -999.2500   -999.2500   -999.2500   -999.2500      0.2581      0.0667      0.7200      0.3500   -999.2500      0.7000      0.8500
   3807.0000      0.0100      0.3600      4.0000      5.8290      5.7537      4.1491      0.8500   -999.2500    218.8847    219.5760      0.1500 49090916870222007100000000000.0000      0.5000 270000019174388625000000000000.0000      4.1491      0.5110   -999.2500   -999.2500   -999.2500   -999.2500   -999.2500   -999.2500      0.2604      0.0667      0.7200      0.3500   -999.2500      0.7000      0.8500
   3807.5000      0.0100      0.3600      4.0000      5.7820      5.7063      4.0905      0.8500   -999.2500    218.0532    219.7860      0.1500 49090916870222007100000000000.0000      0.5000 270000019174388625000000000000.0000      4.0905      0.5110   -999.2500   -999.2500   -999.2500   -999.2500   -999.2500   -999.2500      0.2630      0.0667      0.7200      0.3500   -999.2500      0.7000      0.8500
   3808.0000      0.0100      0.3600      4.0000      5.7710      5.6389      4.0553      0.8500   -999.2500    218.9025    219.7280      0.1500 49090916870222007100000000000.0000      0.5000 270000019174388625000000000000.0000      4.0553      0.5109   -999.2500   -999.2500   -999.2500   -999.2500   -999.2500   -999.2500      0.2647      0.0667      0.7200      0.3500   -999.2500      0.7000      0.8500
   3808.5000      0.0100      0.3600      4.0000      5.7420      5.5943      4.0322      0.8500   -999.2500    219.8818    218.3170      0.1500 49090916870222007100000000000.0000      0.5000 270000019174388625000000000000.0000      4.0322      0.5109   -999.2500   -999.2500   -999.2500   -999.2500   -999.2500   -999.2500      0.2657      0.0667      0.7200      0.3500   -999.2500      0.7000      0.8500
