~V
VERS. 2.00: Ver 2.00
WRAP.   NO:        
~W
 STRT.FT 35:
 STOP.FT 5500:
 STEP.FT 0.5:
 NULL. -999.250000:
 COMP. Standard (Chevron):Company
 WELL. KCL 45-56:Well
 FLD. :Field
 LOC. S30 T11N R22W:Location
 STAT. CA:State
 SRVC. :Service Company
 SON. :Service Order #
 DATE. :Log Date
 UWI. 0369100:Unique Well ID
~C
 DEPT.FT :
 BVES. :
 BVTS. :
 ILD.OHMM :
 LLD.OHMM :
 LTHE. :
 MM. :
 PHES. :
 PHMX. :
 PHTS. :
 PHZC. :
 RD.OHMM :
 ROS. :
 RS.OHMM :
 SBL.MV :
 SCLN. :
 SN.OHMM :
 SP.MV :
 SPN. :
 STUS. :
 SWES. :
 SWTS. :
 VCDS. :
 VCLY. :
 VCWS. :
 VSHS. :
~P
~A
# ...
   1725.0000      0.1794      0.3945   -999.2500      1.3490      0.8206      2.7370      0.1794      0.1647      0.3945      0.4459      1.3490      2.5279   -999.2500     -6.3235    -50.0000   -999.2500    -13.1310     -6.3235      1.2687      1.0000      1.0000      0.2151      0.4301      0.4301      0.8206
   1725.5000      0.1794      0.3945   -999.2500      1.4600      0.8206      2.7370      0.1794      0.1647      0.3945      0.4459      1.4600      2.5277   -999.2500     -6.3261    -50.0000   -999.2500    -13.1340     -6.3261      1.2313      1.0000      1.0000      0.2151      0.4301      0.4301      0.8206
   1726.0000      0.1802      0.3947   -999.2500      1.5210      0.8198      2.7365      0.1802      0.1648      0.3947      0.4462      1.5210      2.5242   -999.2500     -6.4016    -50.0000   -999.2500    -13.2100     -6.4016      1.2117      1.0000      1.0000      0.2145      0.4290      0.4290      0.8198
   1726.5000      0.1813      0.3949   -999.2500      1.5460      0.8187      2.7357      0.1813      0.1648      0.3949      0.4466      1.5460      2.5191   -999.2500     -6.5121    -50.0000   -999.2500    -13.3210     -6.5121      1.2033      1.0000      1.0000      0.2137      0.4273      0.4273      0.8187
   1727.0000      0.1817      0.3950   -999.2500      1.5070      0.8183      2.7354      0.1817      0.1649      0.3950      0.4468      1.5070      2.5173   -999.2500     -6.5506    -50.0000   -999.2500    -13.3600     -6.5506      1.2147      1.0000      1.0000      0.2134      0.4267      0.4267      0.8183
   1727.5000      0.1820      0.3951   -999.2500      1.3510      0.8180      2.7352      0.1820      0.1649      0.3951      0.4469      1.3510      2.5154   -999.2500     -6.5891    -50.0000   -999.2500    -13.3990     -6.5891      1.2658      1.0000      1.0000      0.2131      0.4262      0.4262      0.8180
   1728.0000      0.1828      0.3953   -999.2500      1.2540      0.8172      2.7346      0.1828      0.1650      0.3953      0.4472      1.2540      2.5119   -999.2500     -6.6656    -50.0000   -999.2500    -13.4760     -6.6656      1.3014      1.0000      1.0000      0.2125      0.4250      0.4250      0.8172
   1728.5000      0.1839      0.3956   -999.2500      1.2110      0.8161      2.7339      0.1839      0.1650      0.3956      0.4477      1.2110      2.5068   -999.2500     -6.7772    -50.0000   -999.2500    -13.5880     -6.7772      1.3178      1.0000      1.0000      0.2117      0.4233      0.4233      0.8161
   1729.0000      0.1846      0.3957   -999.2500      1.2250      0.8154      2.7333      0.1846      0.1651      0.3957      0.4480      1.2250      2.5034   -999.2500     -6.8517    -50.0000   -999.2500    -13.6630     -6.8517      1.3114      1.0000      1.0000      0.2111      0.4222      0.4222      0.8154
   1729.5000      0.1839      0.3955   -999.2500      1.2610      0.8161      2.7338      0.1839      0.1650      0.3955      0.4477      1.2610      2.5064   -999.2500     -6.7832    -50.0000   -999.2500    -13.5950     -6.7832      1.2977      1.0000      1.0000      0.2116      0.4233      0.4233      0.8161
   1730.0000      0.1771      0.3938   -999.2500      1.2860      0.8229      2.7385      0.1771      0.1645      0.3938      0.4449      1.2860      2.5373   -999.2500     -6.1017    -50.0000   -999.2500    -12.9140     -6.1017      1.2937      1.0000      1.0000      0.2167      0.4335      0.4335      0.8229
   1730.5000      0.1724      0.3927   -999.2500      1.3070      0.8276      2.7417      0.1724      0.1642      0.3927      0.4430      1.3070      2.5587   -999.2500     -5.6362    -50.0000   -999.2500    -12.4490     -5.6362      1.2896      1.0000      1.0000      0.2202      0.4405      0.4405      0.8276
   1731.0000      0.1726      0.3927   -999.2500      1.3290      0.8274      2.7416      0.1726      0.1642      0.3927      0.4431      1.3290      2.5577   -999.2500     -5.6567    -50.0000   -999.2500    -12.4700     -5.6567      1.2813      1.0000      1.0000      0.2201      0.4401      0.4401      0.8274
   1731.5000      0.1728      0.3927   -999.2500      1.3870      0.8272      2.7415      0.1728      0.1642      0.3927      0.4431      1.3870      2.5566   -999.2500     -5.6773    -50.0000   -999.2500    -12.4910     -5.6773      1.2606      1.0000      1.0000      0.2199      0.4398      0.4398      0.8272
   1732.0000      0.1775      0.3939   -999.2500      1.3610      0.8225      2.7382      0.1775      0.1646      0.3939      0.4451      1.3610      2.5347   -999.2500     -6.1508    -50.0000   -999.2500    -12.9650     -6.1508      1.2657      1.0000      1.0000      0.2164      0.4327      0.4327      0.8225
   1732.5000      0.1797      0.3944   -999.2500      1.3180      0.8203      2.7367      0.1797      0.1647      0.3944      0.4459      1.3180      2.5247   -999.2500     -6.3693    -50.0000   -999.2500    -13.1840     -6.3693      1.2794      1.0000      1.0000      0.2147      0.4295      0.4295      0.8203
   1733.0000      0.1833      0.3953   -999.2500      1.2820      0.8167      2.7342      0.1833      0.1650      0.3953      0.4474      1.2820      2.5082   -999.2500     -6.7328    -50.0000   -999.2500    -13.5480     -6.7328      1.2899      1.0000      1.0000      0.2120      0.4240      0.4240      0.8167
   1733.5000      0.1851      0.3958   -999.2500      1.2460      0.8149      2.7329      0.1851      0.1651      0.3958      0.4481      1.2460      2.4999   -999.2500     -6.9163    -50.0000   -999.2500    -13.7320     -6.9163      1.3024      1.0000      1.0000      0.2106      0.4213      0.4213      0.8149
   1734.0000      0.1873      0.3963   -999.2500      1.1670      0.8127      2.7314      0.1873      0.1653      0.3963      0.4490      1.1670      2.4901   -999.2500     -7.1348    -50.0000   -999.2500    -13.9510     -7.1348      1.3333      1.0000      1.0000      0.2090      0.4180      0.4180      0.8127
   1734.5000      0.1884      0.3966   -999.2500      1.1130      0.8116      2.7306      0.1884      0.1654      0.3966      0.4494      1.1130      2.4851   -999.2500     -7.2464    -50.0000   -999.2500    -14.0630     -7.2464      1.3565      1.0000      1.0000      0.2082      0.4163      0.4163      0.8116
   1735.0000      0.1881      0.3965   -999.2500      1.0950      0.8119      2.7308      0.1881      0.1653      0.3965      0.4493      1.0950      2.4865   -999.2500     -7.2139    -50.0000   -999.2500    -14.0310     -7.2139      1.3652      1.0000      1.0000      0.2084      0.4168      0.4168      0.8119
   1735.5000      0.1892      0.3967   -999.2500      1.1180      0.8108      2.7301      0.1892      0.1654      0.3967      0.4497      1.1180      2.4815   -999.2500     -7.3254    -50.0000   -999.2500    -14.1430     -7.3254      1.3535      1.0000      1.0000      0.2076      0.4151      0.4151      0.8108
   1736.0000      0.1906      0.3971   -999.2500      1.1420      0.8094      2.7290      0.1906      0.1655      0.3971      0.4503      1.1420      2.4749   -999.2500     -7.4719    -50.0000   -999.2500    -14.2900     -7.4719      1.3414      1.0000      1.0000      0.2065      0.4129      0.4129      0.8094
   1736.5000      0.1924      0.3975   -999.2500      1.1960      0.8076      2.7278      0.1924      0.1656      0.3975      0.4511      1.1960      2.4668   -999.2500     -7.6554    -50.0000   -999.2500    -14.4740     -7.6554      1.3166      1.0000      1.0000      0.2051      0.4102      0.4102      0.8076
   1737.0000      0.1928      0.3976   -999.2500      1.2280      0.8072      2.7275      0.1928      0.1657      0.3976      0.4512      1.2280      2.4651   -999.2500     -7.6939    -50.0000   -999.2500    -14.5130     -7.6939      1.3031      1.0000      1.0000      0.2048      0.4096      0.4096      0.8072
   1737.5000      0.1921      0.3974   -999.2500      1.2070      0.8079      2.7280      0.1921      0.1656      0.3974      0.4509      1.2070      2.4680   -999.2500     -7.6255    -50.0000   -999.2500    -14.4450     -7.6255      1.3122      1.0000      1.0000      0.2053      0.4106      0.4106      0.8079
