~V
VERS. 2.00: Ver 2.00
WRAP.   NO:        
~W
 STRT.FT 30:
 STOP.FT 4840:
 STEP.FT 0.5:
 NULL. -999.250000:
 COMP. Standard (Chevron):Company
 WELL. KCL 44-23:Well
 FLD. Pioneer:Field
 LOC. S32 T11N R22W:Location
 STAT. CA:State
 SRVC. :Service Company
 SON. :Service Order #
 DATE. :Log Date
 UWI. 0940500:Unique Well ID
~C
 DEPT.FT :
 BVES. :
 BVTS. :
 FACE. :
 GR.RE/T :
 GRS.RE/T :
 ILD.OHMM :
 LTHE. :
 MM. :
 NEUT.CPS :
 PHES. :
 PHMX. :
 PHTS. :
 PHZC. :
 RD.OHMM :
 ROS. :
 RS.OHMM :
 SBL.MV :
 SCLN. :
 SN.OHMM :
 SP.MV :
 SPN.RE/T :
 STUS. :
 SWES. :
 SWTS. :
 VCDS. :
 VCLY. :
 VCWS. :
 VSHS. :
~P
~A
# ...
   3610.5000      0.0100      0.3600      4.0000      5.4720      5.4166      3.0490      0.8500   -999.2500    179.1940      0.1500 49090916870222007100000000000.0000      0.5000 270000019174388625000000000000.0000      3.0490      0.5275   -999.2500   -999.2500   -999.2500   -999.2500   -999.2500     -1.6671      0.3329      0.0667      0.7200      0.3500   -999.2500      0.7000      0.8500
   3611.0000      0.0100      0.3600      4.0000      5.4700      5.4367      3.0280      0.8500   -999.2500    179.3770      0.1500 49090916870222007100000000000.0000      0.5000 270000019174388625000000000000.0000      3.0280      0.5274   -999.2500   -999.2500   -999.2500   -999.2500   -999.2500     -1.2663      0.3345      0.0667      0.7200      0.3500   -999.2500      0.7000      0.8500
   3611.5000      0.0100      0.3600      4.0000      5.4690      5.4662      3.0170      0.8500   -999.2500    179.5610      0.1500 49090916870222007100000000000.0000      0.5000 270000019174388625000000000000.0000      3.0170      0.5274   -999.2500   -999.2500   -999.2500   -999.2500   -999.2500     -0.6761      0.3353      0.0667      0.7200      0.3500   -999.2500      0.7000      0.8500
   3612.0000      0.0100      0.3600      4.0000      5.4380      5.4719      3.0060      0.8500   -999.2500    179.9840      0.1500 49090916870222007100000000000.0000      0.5000 270000019174388625000000000000.0000      3.0060      0.5273   -999.2500   -999.2500   -999.2500   -999.2500   -999.2500     -0.5629      0.3361      0.0667      0.7200      0.3500   -999.2500      0.7000      0.8500
   3612.5000      0.0100      0.3600      4.0000      5.4110      5.4703      2.9770      0.8500   -999.2500    180.1420      0.1500 49090916870222007100000000000.0000      0.5000 270000019174388625000000000000.0000      2.9770      0.5273   -999.2500   -999.2500   -999.2500   -999.2500   -999.2500     -0.5947      0.3383      0.0667      0.7200      0.3500   -999.2500      0.7000      0.8500
   3613.0000      0.0100      0.3600      4.0000      5.3750      5.4691      2.9480      0.8500   -999.2500    180.3000      0.1500 49090916870222007100000000000.0000      0.5000 270000019174388625000000000000.0000      2.9480      0.5273   -999.2500   -999.2500   -999.2500   -999.2500   -999.2500     -0.6176      0.3406      0.0667      0.7200      0.3500   -999.2500      0.7000      0.8500
   3613.5000      0.0100      0.3600      4.0000      5.3140      5.4415      2.9280      0.8500   -999.2500    180.5630      0.1500 49090916870222007100000000000.0000      0.5000 270000019174388625000000000000.0000      2.9280      0.5272   -999.2500   -999.2500   -999.2500   -999.2500   -999.2500     -1.1708      0.3421      0.0667      0.7200      0.3500   -999.2500      0.7000      0.8500
   3614.0000      0.0100      0.3600      4.0000      5.2610      5.4137      2.9080      0.8500   -999.2500    180.6140      0.1500 49090916870222007100000000000.0000      0.5000 270000019174388625000000000000.0000      2.9080      0.5272   -999.2500   -999.2500   -999.2500   -999.2500   -999.2500     -1.7256      0.3437      0.0667      0.7200      0.3500   -999.2500      0.7000      0.8500
   3614.5000      0.0100      0.3600      4.0000      5.1970      5.3782      2.9080      0.8500   -999.2500    180.6650      0.1500 49090916870222007100000000000.0000      0.5000 270000019174388625000000000000.0000      2.9080      0.5271   -999.2500   -999.2500   -999.2500   -999.2500   -999.2500     -2.4353      0.3437      0.0667      0.7200      0.3500   -999.2500      0.7000      0.8500
   3615.0000      0.0100      0.3600      4.0000      5.1110      5.3188      2.9080      0.8500   -999.2500    180.7410      0.1500 49090916870222007100000000000.0000      0.5000 270000019174388625000000000000.0000      2.9080      0.5271   -999.2500   -999.2500   -999.2500   -999.2500   -999.2500     -3.6236      0.3437      0.0667      0.7200      0.3500   -999.2500      0.7000      0.8500
   3615.5000      0.0100      0.3600      4.0000      5.0480      5.2646      2.9080      0.8500   -999.2500    180.8170      0.1500 49090916870222007100000000000.0000      0.5000 270000019174388625000000000000.0000      2.9080      0.5270   -999.2500   -999.2500   -999.2500   -999.2500   -999.2500     -4.7078      0.3436      0.0667      0.7200      0.3500   -999.2500      0.7000      0.8500
   3616.0000      0.0100      0.3600      4.0000      5.0390      5.2007      2.9000      0.8500   -999.2500    181.0790      0.1500 49090916870222007100000000000.0000      0.5000 270000019174388625000000000000.0000      2.9000      0.5270   -999.2500   -999.2500   -999.2500   -999.2500   -999.2500     -5.9867      0.3443      0.0667      0.7200      0.3500   -999.2500      0.7000      0.8500
   3616.5000      0.0100      0.3600      4.0000      5.0800      5.1150      2.8860      0.8500   -999.2500    181.2910      0.1500 49090916870222007100000000000.0000      0.5000 270000019174388625000000000000.0000      2.8860      0.5270   -999.2500   -999.2500   -999.2500   -999.2500   -999.2500     -7.7002      0.3454      0.0667      0.7200      0.3500   -999.2500      0.7000      0.8500
   3617.0000      0.0100      0.3600      4.0000      5.1230      5.0502      2.8750      0.8500   -999.2500    181.6070      0.1500 49090916870222007100000000000.0000      0.5000 270000019174388625000000000000.0000      2.8750      0.5269   -999.2500   -999.2500   -999.2500   -999.2500   -999.2500     -8.9952      0.3462      0.0667      0.7200      0.3500   -999.2500      0.7000      0.8500
   3617.5000      0.0100      0.3600      4.0000      5.1840      5.0392      2.8550      0.8500   -999.2500    182.0320      0.1500 49090916870222007100000000000.0000      0.5000 270000019174388625000000000000.0000      2.8550      0.5269   -999.2500   -999.2500   -999.2500   -999.2500   -999.2500     -9.2156      0.3479      0.0667      0.7200      0.3500   -999.2500      0.7000      0.8500
   3618.0000      0.0100      0.3600      4.0000      5.2250      5.0794      2.8350      0.8500   -999.2500    182.2970      0.1500 49090916870222007100000000000.0000      0.5000 270000019174388625000000000000.0000      2.8350      0.5268   -999.2500   -999.2500   -999.2500   -999.2500   -999.2500     -8.4113      0.3495      0.0667      0.7200      0.3500   -999.2500      0.7000      0.8500
   3618.5000      0.0100      0.3600      4.0000      5.2530      5.1229      2.8100      0.8500   -999.2500    182.7210      0.1500 49090916870222007100000000000.0000      0.5000 270000019174388625000000000000.0000      2.8100      0.5268   -999.2500   -999.2500   -999.2500   -999.2500   -999.2500     -7.5425      0.3516      0.0667      0.7200      0.3500   -999.2500      0.7000      0.8500
   3619.0000      0.0100      0.3600      4.0000      5.2860      5.1843      2.7910      0.8500   -999.2500    183.0920      0.1500 49090916870222007100000000000.0000      0.5000 270000019174388625000000000000.0000      2.7910      0.5267   -999.2500   -999.2500   -999.2500   -999.2500   -999.2500     -6.3135      0.3532      0.0667      0.7200      0.3500   -999.2500      0.7000      0.8500
   3619.5000      0.0100      0.3600      4.0000      5.3090      5.2255      2.7700      0.8500   -999.2500    183.4650      0.1500 49090916870222007100000000000.0000      0.5000 270000019174388625000000000000.0000      2.7700      0.5267   -999.2500   -999.2500   -999.2500   -999.2500   -999.2500     -5.4895      0.3550      0.0667      0.7200      0.3500   -999.2500      0.7000      0.8500
   3620.0000      0.0100      0.3600      4.0000      5.3450      5.2540      2.7590      0.8500   -999.2500    184.1580      0.1500 49090916870222007100000000000.0000      0.5000 270000019174388625000000000000.0000      2.7590      0.5267   -999.2500   -999.2500   -999.2500   -999.2500   -999.2500     -4.9205      0.3559      0.0667      0.7200      0.3500   -999.2500      0.7000      0.8500
   3620.5000      0.0100      0.3600      4.0000      5.3470      5.2869      2.7510      0.8500   -999.2500    184.9040      0.1500 49090916870222007100000000000.0000      0.5000 270000019174388625000000000000.0000      2.7510      0.5266   -999.2500   -999.2500   -999.2500   -999.2500   -999.2500     -4.2614      0.3566      0.0667      0.7200      0.3500   -999.2500      0.7000      0.8500
