~V
VERS. 2.00: Ver 2.00
WRAP.   NO:        
~W
 STRT.FT 40:
 STOP.FT 4330:
 STEP.FT 0.5:
 NULL. -999.250000:
 COMP. Standard (Chevron):Company
 WELL. KCL 44-45:Well
 FLD. Pioneer:Field
 LOC. S32 T11N R22W:Location
 STAT. CA:State
 SRVC. :Service Company
 SON. :Service Order #
 DATE. :Log Date
 UWI. 0941000:Unique Well ID
~C
 DEPT.FT :
 BVES. :
 BVTS. :
 FACE. :
 GR.RE/T :
 GRS.RE/T :
 ILD.OHMM :
 LTHE. :
 MM. :
 NEUS.CPS :
 NEUT.CPS :
 PHES. :
 PHMX. :
 PHTS. :
 PHZC. :
 RD.OHMM :
 ROS. :
 RS.OHMM :
 SBL.MV :
 SCLN. :
 SN.OHMM :
 SP.MV :
 SPN. :
 STUS. :
 SWES. :
 SWTS. :
 VCDS. :
 VCLY. :
 VCWS. :
 VSHS. :
~P
~A
# ...
    638.0000      0.1031      0.2584      3.0000   -999.2500   -999.2500      8.3892      0.7145      2.5738   -999.2500   -999.2500      0.2855      0.1749      0.4408      0.5021      8.3892      2.1667      9.0691     -7.5050   -999.2500      9.0691    -32.5612    -10.0067      0.5861      0.3610      0.5861      0.1553      0.3106      0.3106      0.7145
    638.5000      0.0990      0.2600      3.0000   -999.2500   -999.2500      8.6518      0.7222      2.6107   -999.2500   -999.2500      0.2778      0.1744      0.4389      0.4990      8.6518      2.2556      9.2469     -7.1013   -999.2500      9.2469    -32.1425     -9.4684      0.5924      0.3562      0.5924      0.1611      0.3221      0.3221      0.7222
    639.0000      0.0955      0.2610      3.0000   -999.2500   -999.2500      8.8838      0.7281      2.6393   -999.2500   -999.2500      0.2719      0.1739      0.4374      0.4966      8.8838      2.3276      9.3728     -6.7885   -999.2500      9.3728    -31.8147     -9.0514      0.5967      0.3512      0.5967      0.1655      0.3310      0.3310      0.7281
    639.5000      0.0940      0.2610      3.0000   -999.2500   -999.2500      8.9895      0.7300      2.6486   -999.2500   -999.2500      0.2700      0.1738      0.4370      0.4958      8.9895      2.3515      9.4699     -6.6868   -999.2500      9.4699    -31.6981     -8.9158      0.5973      0.3483      0.5973      0.1670      0.3339      0.3339      0.7300
    640.0000      0.0990      0.2336      3.0000   -999.2500   -999.2500      8.7791      0.6873      2.4414   -999.2500   -999.2500      0.3127      0.1770      0.4473      0.5132      8.7791      1.8807      9.3108     -8.9537   -999.2500      9.3108    -33.9500    -11.9383      0.5221      0.3165      0.5221      0.1346      0.2692      0.2692      0.6873
    640.5000      0.1046      0.2132      3.0000   -999.2500   -999.2500      8.6474      0.6530      2.2746   -999.2500   -999.2500      0.3470      0.1795      0.4556      0.5273      8.6474      1.5845      9.2171    -10.7778   -999.2500      9.2171    -35.7591    -14.3704      0.4679      0.3015      0.4679      0.1085      0.2171      0.2171      0.6530
    641.0000      0.1080      0.1942      2.0000   -999.2500   -999.2500      8.5619      0.6236      2.1315   -999.2500   -999.2500      0.3764      0.1817      0.4625      0.5394      8.5619      1.3756      9.3714    -12.3435   -999.2500      9.3714    -37.3098    -16.4580      0.4198      0.2870      0.4198      0.0862      0.1723      0.1723      0.5744
    641.5000      0.1105      0.1751      2.0000   -999.2500   -999.2500      8.5205      0.5953      1.9930   -999.2500   -999.2500      0.4047      0.1838      0.4692      0.5510      8.5205      1.2056      9.6187    -14.9573   -999.2500      9.6187    -39.9086    -19.9430      0.3731      0.2732      0.3731      0.0645      0.1291      0.1291      0.4302
    642.0000      0.1078      0.1574      1.0000   -999.2500   -999.2500      8.8295      0.5759      1.8994   -999.2500   -999.2500      0.4241      0.1853      0.4737      0.5591      8.8295      1.1053      9.9045    -17.5569   -999.2500      9.9045    -42.4932    -23.4091      0.3323      0.2541      0.3323      0.0497      0.0994      0.0994      0.3312
    642.5000      0.1167      0.1517      1.0000   -999.2500   -999.2500      9.0114      0.5569      1.8701   -999.2500   -999.2500      0.4431      0.1867      0.4782      0.5669      9.0114      1.0650     10.2088    -20.1187   -999.2500     10.2088    -45.0400    -26.8249      0.3173      0.2634      0.3173      0.0350      0.0701      0.0701      0.2336
    643.0000      0.1246      0.1472      1.0000   -999.2500   -999.2500      9.1426      0.5407      1.8451   -999.2500   -999.2500      0.4593      0.1879      0.4819      0.5737      9.1426      1.0325     10.4080    -22.3027   -999.2500     10.4080    -47.2090    -29.7369      0.3054      0.2713      0.3054      0.0226      0.0451      0.0451      0.1504
    643.5000      0.1304      0.1441      1.0000   -999.2500   -999.2500      9.2205      0.5291      1.8273   -999.2500   -999.2500      0.4709      0.1888      0.4845      0.5785      9.2205      1.0103     10.4682    -23.8602   -999.2500     10.4682    -48.7516    -31.8136      0.2974      0.2770      0.2974      0.0137      0.0273      0.0273      0.0910
    644.0000      0.1346      0.1474      1.0000   -999.2500   -999.2500      8.8193      0.5280      1.8255   -999.2500   -999.2500      0.4720      0.1889      0.4848      0.5789      8.8193      1.0081     10.0934    -24.0165   -999.2500     10.0934    -48.8930    -32.0221      0.3041      0.2852      0.3041      0.0128      0.0255      0.0255      0.0851
    644.5000      0.1405      0.1568      1.0000   -999.2500   -999.2500      7.9714      0.5326      1.8326   -999.2500   -999.2500      0.4674      0.1885      0.4837      0.5770      7.9714      1.0167      9.3182    -23.3983   -999.2500      9.3182    -48.2598    -31.1978      0.3242      0.3006      0.3242      0.0163      0.0326      0.0326      0.1086
    645.0000      0.1427      0.1657      1.0000   -999.2500   -999.2500      7.3602      0.5414      1.8461   -999.2500   -999.2500      0.4586      0.1879      0.4817      0.5734      7.3602      1.0336      8.6382    -22.2146   -999.2500      8.6382    -47.0610    -29.6194      0.3441      0.3111      0.3441      0.0231      0.0461      0.0461      0.1537
    645.5000      0.1409      0.1773      1.0000   -999.2500   -999.2500      6.7743      0.5588      1.8729   -999.2500   -999.2500      0.4412      0.1866      0.4776      0.5661      6.7743      1.0686      7.8790    -19.8686   -999.2500      7.8790    -44.7001    -26.4914      0.3712      0.3193      0.3712      0.0365      0.0729      0.0729      0.2431
    646.0000      0.1429      0.2022      2.0000   -999.2500   -999.2500      6.0434      0.5885      1.9592   -999.2500   -999.2500      0.4115      0.1843      0.4707      0.5538      6.0434      1.1677      6.7482    -15.8825   -999.2500      6.7482    -40.6990    -21.1767      0.4295      0.3474      0.4295      0.0592      0.1185      0.1185      0.3950
    646.5000      0.1586      0.2471      2.0000   -999.2500   -999.2500      5.2580      0.6268      2.1463   -999.2500   -999.2500      0.3732      0.1815      0.4617      0.5380      5.2580      1.3949      5.6963    -12.1815   -999.2500      5.6963    -36.9830    -16.2420      0.5353      0.4251      0.5353      0.0885      0.1770      0.1770      0.5899
    647.0000      0.1696      0.3014      3.0000   -999.2500   -999.2500      4.7091      0.6837      2.4230   -999.2500   -999.2500      0.3163      0.1772      0.4481      0.5146      4.7091      1.8437      5.2967     -9.1542   -999.2500      5.2967    -33.9407    -12.2056      0.6725      0.5362      0.6725      0.1317      0.2635      0.2635      0.6837
    647.5000      0.1690      0.3460      3.0000   -999.2500   -999.2500      4.4578      0.7436      2.7019   -999.2500   -999.2500      0.2564      0.1728      0.4335      0.4901      4.4578      2.5014      5.1773     -5.9816   -999.2500      5.1773    -30.7531     -7.9755      0.7982      0.6589      0.7982      0.1770      0.3541      0.3541      0.7436
    648.0000      0.1586      0.3520      3.0000   -999.2500   -999.2500      4.3160      0.7653      2.7170   -999.2500   -999.2500      0.2347      0.1711      0.4281      0.4813      4.3160      2.6121      5.2377     -4.8338   -999.2500      5.2377    -29.5903     -6.4450      0.8223      0.6758      0.8223      0.1934      0.3869      0.3869      0.7653
    648.5000      0.1581      0.3576      3.0000   -999.2500   -999.2500      4.1647      0.7734      2.7226   -999.2500   -999.2500      0.2266      0.1705      0.4261      0.4780      4.1647      2.6547      5.3233     -4.4108   -999.2500      5.3233    -29.1524     -5.8811      0.8391      0.6975      0.8391      0.1995      0.3990      0.3990      0.7734
    649.0000      0.1534      0.3562      4.0000   -999.2500   -999.2500      4.2161      0.7778      2.7257   -999.2500   -999.2500      0.2222      0.1702      0.4250      0.4762      4.2161      2.6785      5.4252     -4.1781   -999.2500      5.4252    -28.9047     -5.5708      0.8380      0.6902      0.8380      0.2028      0.4056      0.4056      0.7778
