~V
VERS. 2.00: Ver 2.00
WRAP.   NO:        
~W
 STRT.FT 35:
 STOP.FT 5500:
 STEP.FT 0.5:
 NULL. -999.250000:
 COMP. Standard (Chevron):Company
 WELL. KCL 45-56:Well
 FLD. :Field
 LOC. S30 T11N R22W:Location
 STAT. CA:State
 SRVC. :Service Company
 SON. :Service Order #
 DATE. :Log Date
 UWI. 0369100:Unique Well ID
~C
 DEPT.FT :
 BVES. :
 BVTS. :
 ILD.OHMM :
 LLD.OHMM :
 LTHE. :
 MM. :
 PHES. :
 PHMX. :
 PHTS. :
 PHZC. :
 RD.OHMM :
 ROS. :
 RS.OHMM :
 SBL.MV :
 SCLN. :
 SN.OHMM :
 SP.MV :
 SPN. :
 STUS. :
 SWES. :
 SWTS. :
 VCDS. :
 VCLY. :
 VCWS. :
 VSHS. :
~P
~A
# ...
   1452.0000      0.2139      0.4081   -999.2500      1.4030      0.7861      2.7177      0.2139      0.1679      0.4081      0.4632      1.4030      2.4442   -999.2500     -9.1087    -50.0000   -999.2500    -15.6520     -9.1087      1.2340      1.0000      1.0000      0.1942      0.3884      0.3884      0.7861
   1452.5000      0.2146      0.4083   -999.2500      1.3450      0.7854      2.7172      0.2146      0.1679      0.4083      0.4635      1.3450      2.4410   -999.2500     -9.1802    -50.0000   -999.2500    -15.7240     -9.1802      1.2533      1.0000      1.0000      0.1936      0.3873      0.3873      0.7854
   1453.0000      0.2185      0.4092   -999.2500      1.3090      0.7815      2.7145      0.2185      0.1682      0.4092      0.4651      1.3090      2.4237   -999.2500     -9.5757    -50.0000   -999.2500    -16.1200     -9.5757      1.2630      1.0000      1.0000      0.1907      0.3814      0.3814      0.7815
   1453.5000      0.2212      0.4099   -999.2500      1.2760      0.7788      2.7126      0.2212      0.1684      0.4099      0.4661      1.2760      2.4120   -999.2500     -9.8442    -50.0000   -999.2500    -16.3890     -9.8442      1.2731      1.0000      1.0000      0.1887      0.3773      0.3773      0.7788
   1454.0000      0.2239      0.4105   -999.2500      1.2500      0.7761      2.7108      0.2239      0.1686      0.4105      0.4672      1.2500      2.4004   -999.2500    -10.1138    -50.0000   -999.2500    -16.6590    -10.1138      1.2809      1.0000      1.0000      0.1866      0.3733      0.3733      0.7761
   1454.5000      0.2282      0.4116   -999.2500      1.2390      0.7718      2.7078      0.2282      0.1689      0.4116      0.4690      1.2390      2.3820   -999.2500    -10.5463    -50.0000   -999.2500    -17.0920    -10.5463      1.2817      1.0000      1.0000      0.1834      0.3668      0.3668      0.7718
   1455.0000      0.2281      0.4115   -999.2500      1.3720      0.7719      2.7078      0.2281      0.1689      0.4115      0.4690      1.3720      2.3820   -999.2500    -10.5458    -50.0000   -999.2500    -17.0920    -10.5458      1.2330      1.0000      1.0000      0.1834      0.3668      0.3668      0.7719
   1455.5000      0.2271      0.4113   -999.2500      1.5190      0.7729      2.7085      0.2271      0.1688      0.4113      0.4685      1.5190      2.3864   -999.2500    -10.4383    -50.0000   -999.2500    -16.9850    -10.4383      1.1817      1.0000      1.0000      0.1842      0.3684      0.3684      0.7729
   1456.0000      0.2256      0.4109   -999.2500      1.6130      0.7744      2.7095      0.2256      0.1687      0.4109      0.4679      1.6130      2.3925   -999.2500    -10.2938    -50.0000   -999.2500    -16.8410    -10.2938      1.1567      1.0000      1.0000      0.1853      0.3706      0.3706      0.7744
   1456.5000      0.2241      0.4105   -999.2500      1.7310      0.7759      2.7105      0.2241      0.1686      0.4105      0.4673      1.7310      2.3986   -999.2500    -10.1483    -50.0000   -999.2500    -16.6960    -10.1483      1.1278      1.0000      1.0000      0.1864      0.3728      0.3728      0.7759
   1457.0000      0.2205      0.4096   -999.2500      1.8140      0.7795      2.7130      0.2205      0.1683      0.4096      0.4658      1.8140      2.4139   -999.2500     -9.7879    -50.0000   -999.2500    -16.3360     -9.7879      1.1109      1.0000      1.0000      0.1891      0.3782      0.3782      0.7795
   1457.5000      0.2191      0.4093   -999.2500      1.8960      0.7809      2.7140      0.2191      0.1682      0.4093      0.4652      1.8960      2.4200   -999.2500     -9.6434    -50.0000   -999.2500    -16.1920     -9.6434      1.0938      1.0000      1.0000      0.1902      0.3803      0.3803      0.7809
   1458.0000      0.2216      0.4099   -999.2500      1.9030      0.7784      2.7123      0.2216      0.1684      0.4099      0.4663      1.9030      2.4091   -999.2500     -9.8959    -50.0000   -999.2500    -16.4450     -9.8959      1.0906      1.0000      1.0000      0.1883      0.3766      0.3766      0.7784
   1458.5000      0.2248      0.4107   -999.2500      1.8450      0.7752      2.7100      0.2248      0.1686      0.4107      0.4676      1.8450      2.3952   -999.2500    -10.2194    -50.0000   -999.2500    -16.7690    -10.2194      1.1009      1.0000      1.0000      0.1859      0.3717      0.3717      0.7752
   1459.0000      0.2284      0.4115   -999.2500      1.7510      0.7716      2.7075      0.2284      0.1689      0.4115      0.4690      1.7510      2.3800   -999.2500    -10.5789    -50.0000   -999.2500    -17.1290    -10.5789      1.1199      1.0000      1.0000      0.1832      0.3663      0.3663      0.7716
   1459.5000      0.2269      0.4112   -999.2500      1.6430      0.7731      2.7085      0.2269      0.1688      0.4112      0.4684      1.6430      2.3860   -999.2500    -10.4344    -50.0000   -999.2500    -16.9850    -10.4344      1.1477      1.0000      1.0000      0.1842      0.3685      0.3685      0.7731
   1460.0000      0.2237      0.4103   -999.2500      1.1630      0.7763      2.7108      0.2237      0.1686      0.4103      0.4671      1.1630      2.3997   -999.2500    -10.1090    -50.0000   -999.2500    -16.6600    -10.1090      1.3163      1.0000      1.0000      0.1867      0.3734      0.3734      0.7763
   1460.5000      0.2241      0.4104   -999.2500      1.3500      0.7759      2.7105      0.2241      0.1686      0.4104      0.4672      1.3500      2.3979   -999.2500    -10.1495    -50.0000   -999.2500    -16.7010    -10.1495      1.2436      1.0000      1.0000      0.1864      0.3728      0.3728      0.7759
   1461.0000      0.2209      0.4096   -999.2500      1.6050      0.7791      2.7127      0.2209      0.1683      0.4096      0.4659      1.6050      2.4114   -999.2500     -9.8310    -50.0000   -999.2500    -16.3830     -9.8310      1.1620      1.0000      1.0000      0.1888      0.3775      0.3775      0.7791
   1461.5000      0.1504      0.3426   -999.2500      3.8110      0.7838      2.7159      0.2162      0.1680      0.4085      0.4640      3.8110      2.4314   -999.2500     -9.3675    -50.0000   -999.2500    -15.9200     -9.3675      0.8387      0.6953      0.8387      0.1922      0.3845      0.3845      0.7838
   1462.0000      0.1058      0.3018   -999.2500      5.2580      0.7887      2.7194      0.2113      0.1676      0.4073      0.4620      5.2580      2.4532   -999.2500     -8.8690    -50.0000   -999.2500    -15.4220     -8.8690      0.7411      0.5009      0.7411      0.1960      0.3920      0.3920      0.7887
   1462.5000      0.0743      0.2730   -999.2500      6.7700      0.7923      2.7218      0.2077      0.1674      0.4064      0.4606      6.7700      2.4689   -999.2500     -8.5125    -50.0000   -999.2500    -15.0660     -8.5125      0.6717      0.3577      0.6717      0.1987      0.3973      0.3973      0.7923
   1463.0000      0.0402      0.2415   -999.2500      9.4090      0.7959      2.7243      0.2041      0.1671      0.4055      0.4591      9.4090      2.4847   -999.2500     -8.1571    -50.0000   -999.2500    -14.7110     -8.1571      0.5956      0.1967      0.5956      0.2013      0.4026      0.4026      0.7959
   1463.5000      0.0377      0.2403   -999.2500      9.5270      0.7976      2.7255      0.2024      0.1670      0.4050      0.4584      9.5270      2.4925   -999.2500     -7.9826    -50.0000   -999.2500    -14.5370     -7.9826      0.5934      0.1863      0.5934      0.2026      0.4053      0.4053      0.7976
   1464.0000      0.0405      0.2399   -999.2500      9.5590      0.7933      2.7225      0.2067      0.1673      0.4061      0.4601      9.5590      2.4728   -999.2500     -8.4191    -50.0000   -999.2500    -14.9740     -8.4191      0.5907      0.1960      0.5907      0.1994      0.3987      0.3987      0.7933
   1464.5000      0.0785      0.2754   -999.2500      6.6120      0.7900      2.7202      0.2100      0.1675      0.4069      0.4615      6.6120      2.4581   -999.2500     -8.7486    -50.0000   -999.2500    -15.3040     -8.7486      0.6769      0.3740      0.6769      0.1969      0.3938      0.3938      0.7900
