~V
VERS. 2.00: Ver 2.00
WRAP.   NO:        
~W
 STRT.FT 29:
 STOP.FT 4770:
 STEP.FT 0.5:
 NULL. -999.250000:
 COMP. Standard (Chevron):Company
 WELL. KCL 44-32:Well
 FLD. Pioneer:Field
 LOC. S32 T11N R22W:Location
 STAT. CA:State
 SRVC. :Service Company
 SON. :Service Order #
 DATE. :Log Date
 UWI. 0940700:Unique Well ID
~C
 DEPT.FT :
 BVES. :
 BVTS. :
 FACE. :
 GRS.RE/T :
 ILD.OHMM :
 LTHE. :
 MM. :
 NEUT.CPS :
 PHES. :
 PHMX. :
 PHTS. :
 PHZC. :
 RD.OHMM :
 ROS. :
 RS.OHMM :
 SBL.MV :
 SCLN. :
 SN.OHMM :
 SP.MV :
 SPN. :
 STUS. :
 SWES. :
 SWTS. :
 VCDS. :
 VCLY. :
 VCWS. :
 VSHS. :
~P
~A
# ...
   2969.0000      0.2295      0.2706      1.0000   -999.2500      2.2560      0.6216      1.9199   -999.2500      0.3784      0.1768      0.4196      0.5124      2.2560      0.9956      3.4140    -34.8482    -96.0774      3.4140    -56.5490    -69.6964      0.6451      0.6064      0.6451      0.0412      0.0824      0.0824      0.2746
   2969.5000      0.2254      0.2695      1.0000   -999.2500      2.2810      0.6254      1.9257   -999.2500      0.3746      0.1765      0.4187      0.5109      2.2810      1.0014      3.4620    -33.9302    -96.0841      3.4620    -55.6180    -67.8604      0.6436      0.6016      0.6436      0.0441      0.0881      0.0881      0.2937
   2970.0000      0.2185      0.2686      2.0000   -999.2500      2.3100      0.6334      1.9387   -999.2500      0.3666      0.1759      0.4168      0.5076      2.3100      1.0146      3.4800    -31.9732    -96.0908      3.4800    -53.6480    -63.9464      0.6445      0.5959      0.6445      0.0502      0.1004      0.1004      0.3345
   2970.5000      0.2177      0.2710      2.0000   -999.2500      2.3210      0.6374      1.9586   -999.2500      0.3626      0.1756      0.4158      0.5059      2.3210      1.0334      3.3440    -30.9852    -96.0974      3.3440    -52.6470    -61.9704      0.6516      0.6004      0.6516      0.0533      0.1065      0.1065      0.3551
   2971.0000      0.2175      0.2668      1.0000   -999.2500      2.3350      0.6323      1.9363   -999.2500      0.3677      0.1760      0.4170      0.5080      2.3350      1.0122      3.0960    -32.2572    -96.1041      3.0960    -53.9060    -64.5144      0.6398      0.5915      0.6398      0.0493      0.0986      0.0986      0.3287
   2971.5000      0.2206      0.2647      1.0000   -999.2500      2.3570      0.6255      1.9259   -999.2500      0.3745      0.1765      0.4186      0.5108      2.3570      1.0016      3.0490    -33.9232    -96.1108      3.0490    -55.5590    -67.8465      0.6324      0.5891      0.6324      0.0441      0.0882      0.0882      0.2941
   2972.0000      0.2182      0.2649      1.0000   -999.2500      2.3600      0.6290      1.9313   -999.2500      0.3710      0.1762      0.4178      0.5094      2.3600      1.0070      3.1350    -33.0792    -96.1175      3.1350    -54.7020    -66.1585      0.6341      0.5880      0.6341      0.0468      0.0935      0.0935      0.3117
   2972.5000      0.2159      0.2653      1.0000   -999.2500      2.3600      0.6324      1.9366   -999.2500      0.3676      0.1760      0.4170      0.5079      2.3600      1.0124      3.1280    -32.2352    -96.1241      3.1280    -53.8450    -64.4705      0.6362      0.5873      0.6362      0.0494      0.0988      0.0988      0.3293
   2973.0000      0.2208      0.2658      1.0000   -999.2500      2.3420      0.6267      1.9278   -999.2500      0.3733      0.1764      0.4183      0.5103      2.3420      1.0034      3.1920    -33.6503    -96.1308      3.1920    -55.2470    -67.3005      0.6353      0.5914      0.6353      0.0450      0.0900      0.0900      0.2999
   2973.5000      0.2244      0.2667      1.0000   -999.2500      2.3200      0.6233      1.9226   -999.2500      0.3767      0.1767      0.4191      0.5117      2.3200      0.9982      3.2710    -34.4923    -96.1375      3.2710    -56.0760    -68.9845      0.6365      0.5956      0.6365      0.0424      0.0847      0.0847      0.2824
   2974.0000      0.2182      0.2678      1.0000   -999.2500      2.3200      0.6327      1.9371   -999.2500      0.3673      0.1760      0.4169      0.5078      2.3200      1.0129      3.3600    -32.1773    -96.1442      3.3600    -53.7480    -64.3545      0.6423      0.5940      0.6423      0.0496      0.0992      0.0992      0.3306
   2974.5000      0.2145      0.2728      2.0000   -999.2500      2.3770      0.6441      1.9910   -999.2500      0.3559      0.1751      0.4142      0.5031      2.3770      1.0649      3.2240    -29.3963    -96.1508      3.2240    -50.9540    -58.7925      0.6586      0.6027      0.6586      0.0583      0.1166      0.1166      0.3885
   2975.0000      0.2112      0.2766      2.0000   -999.2500      2.4160      0.6534      2.0365   -999.2500      0.3466      0.1744      0.4120      0.4992      2.4160      1.1115      2.8720    -27.1193    -96.1575      2.8720    -48.6640    -54.2386      0.6714      0.6094      0.6714      0.0654      0.1308      0.1308      0.4359
   2975.5000      0.2097      0.2766      2.0000   -999.2500      2.4410      0.6554      2.0463   -999.2500      0.3446      0.1743      0.4115      0.4984      2.4410      1.1219      2.6820    -26.6323    -96.1642      2.6820    -48.1640    -53.2646      0.6720      0.6084      0.6720      0.0669      0.1338      0.1338      0.4461
   2976.0000      0.2110      0.2823      2.0000   -999.2500      2.4120      0.6612      2.0747   -999.2500      0.3388      0.1738      0.4102      0.4960      2.4120      1.1526      2.5950    -25.2153    -96.1709      2.5950    -46.7340    -50.4306      0.6884      0.6228      0.6884      0.0713      0.1427      0.1427      0.4756
   2976.5000      0.2149      0.2892      2.0000   -999.2500      2.3440      0.6651      2.0937   -999.2500      0.3349      0.1735      0.4092      0.4944      2.3440      1.1739      2.5090    -24.2633    -96.1775      2.5090    -45.7690    -48.5266      0.7067      0.6416      0.7067      0.0743      0.1486      0.1486      0.4954
   2977.0000      0.2194      0.2998      2.0000   -999.2500      2.2650      0.6731      2.1330   -999.2500      0.3269      0.1729      0.4073      0.4911      2.2650      1.2194      2.4950    -23.3473    -96.1842      2.4950    -44.8400    -46.6946      0.7361      0.6711      0.7361      0.0804      0.1609      0.1609      0.5363
   2977.5000      0.2211      0.3121      3.0000   -999.2500      2.2220      0.6869      2.2003   -999.2500      0.3131      0.1719      0.4040      0.4854      2.2220      1.3028      2.5800    -22.0013    -96.1909      2.5800    -43.4810    -44.0026      0.7724      0.7062      0.7724      0.0910      0.1819      0.1819      0.6064
   2978.0000      0.2246      0.3199      3.0000   -999.2500      2.1640      0.6927      2.2282   -999.2500      0.3073      0.1715      0.4027      0.4830      2.1640      1.3396      2.6630    -21.4443    -96.1976      2.6630    -42.9110    -42.8887      0.7945      0.7308      0.7945      0.0953      0.1906      0.1906      0.6354
   2978.5000      0.2279      0.3014      2.0000   -999.2500      2.1500      0.6642      2.0891   -999.2500      0.3358      0.1736      0.4094      0.4947      2.1500      1.1687      2.7950    -24.5093    -96.2042      2.7950    -45.9630    -49.0187      0.7362      0.6785      0.7362      0.0736      0.1471      0.1471      0.4905
   2979.0000      0.2286      0.2951      2.0000   -999.2500      2.1460      0.6549      2.0438   -999.2500      0.3451      0.1743      0.4116      0.4986      2.1460      1.1191      3.0030    -26.7843    -96.2109      3.0030    -48.2250    -53.5687      0.7170      0.6625      0.7170      0.0665      0.1330      0.1330      0.4432
   2979.5000      0.2282      0.2900      2.0000   -999.2500      2.1560      0.6489      2.0142   -999.2500      0.3511      0.1747      0.4130      0.5011      2.1560      1.0883      3.1360    -28.2714    -96.2176      3.1360    -49.6990    -56.5427      0.7022      0.6498      0.7022      0.0619      0.1237      0.1237      0.4123
   2980.0000      0.2253      0.2784      2.0000   -999.2500      2.2030      0.6374      1.9581   -999.2500      0.3626      0.1756      0.4157      0.5058      2.2030      1.0327      3.4690    -31.0854    -96.2243      3.4690    -52.5000    -62.1707      0.6697      0.6213      0.6697      0.0531      0.1062      0.1062      0.3539
   2980.5000      0.2462      0.2650      1.0000   -999.2500      2.2960      0.5926      1.8759   -999.2500      0.4074      0.1790      0.4261      0.5243      2.2960      0.9533      3.7990    -42.1094    -96.2309      3.7990    -63.5110    -84.2188      0.6218      0.6045      0.6218      0.0187      0.0374      0.0374      0.1248
