~V
VERS. 2.00: Ver 2.00
WRAP.   NO:        
~W
 STRT.FT 10:
 STOP.FT 5350:
 STEP.FT 0.5:
 NULL. -999.250000:
 COMP. Standard (Chevron):Company
 WELL. KCL 44-12:Well
 FLD. Pioneer:Field
 LOC. S32 T11N R22W:Location
 STAT. CA:State
 SRVC. :Service Company
 SON. :Service Order #
 DATE. :Log Date
 UWI. 0940400:Unique Well ID
~C
 DEPT.FT :
 GRS.RE/T :
 ILD.OHMM :
 LTHE. :
 MM. :
 NEUT.CPS :
 PHES. :
 PHMX. :
 PHTS. :
 PHZC. :
 RD.OHMM :
 ROS. :
 RS.OHMM :
 SBL.MV :
 SCLN. :
 SN.OHMM :
 SP.MV :
 SPN. :
 VCDS. :
 VCLY. :
 VCWS. :
 VSHS. :
~P
~A
# ...
   2285.5000   -999.2500      2.0100      0.7141      2.3759   -999.2500      0.2859      0.1714      0.4103      0.4826      2.0100      1.5894      2.5820    -14.8277   -140.7311      2.5820    -56.1990    -42.3650      0.1244      0.2487      0.2487      0.7141
   2286.0000   -999.2500      1.9830      0.6985      2.3001   -999.2500      0.3015      0.1725      0.4140      0.4890      1.9830      1.4705      2.5270    -16.5516   -140.7344      2.5270    -57.9180    -47.2904      0.1125      0.2250      0.2250      0.6985
   2286.5000   -999.2500      1.9560      0.6897      2.2572   -999.2500      0.3103      0.1732      0.4161      0.4926      1.9560      1.4084      2.5020    -17.5245   -140.7376      2.5020    -58.8860    -50.0701      0.1058      0.2116      0.2116      0.6897
   2287.0000   -999.2500      1.9080      0.6974      2.2947   -999.2500      0.3026      0.1726      0.4143      0.4894      1.9080      1.4625      2.4910    -16.6744   -140.7408      2.4910    -58.0310    -47.6412      0.1117      0.2233      0.2233      0.6974
   2287.5000   -999.2500      1.8570      0.7080      2.3463   -999.2500      0.2920      0.1718      0.4117      0.4850      1.8570      1.5415      2.5480    -15.5023   -140.7441      2.5480    -56.8540    -44.2923      0.1197      0.2395      0.2395      0.7080
   2288.0000   -999.2500      1.9150      0.7190      2.3995   -999.2500      0.2810      0.1710      0.4090      0.4805      1.9150      1.6286      2.6130    -14.2942   -140.7473      2.6130    -55.6410    -40.8406      0.1281      0.2561      0.2561      0.7190
   2288.5000   -999.2500      1.9730      0.7144      2.3772   -999.2500      0.2856      0.1713      0.4101      0.4824      1.9730      1.5913      2.7320    -14.8021   -140.7506      2.7320    -56.1440    -42.2917      0.1246      0.2491      0.2491      0.7144
   2289.0000   -999.2500      2.0740      0.7072      2.3422   -999.2500      0.2928      0.1719      0.4119      0.4853      2.0740      1.5349      3.0030    -15.5970   -140.7538      3.0030    -56.9340    -44.5628      0.1191      0.2382      0.2382      0.7072
   2289.5000   -999.2500      2.1750      0.7052      2.3325   -999.2500      0.2948      0.1720      0.4123      0.4861      2.1750      1.5197      3.5880    -15.8189   -140.7570      3.5880    -57.1510    -45.1968      0.1176      0.2351      0.2351      0.7052
   2290.0000   -999.2500      2.4460      0.7033      2.3227   -999.2500      0.2967      0.1722      0.4128      0.4870      2.4460      1.5047      4.0330    -16.0398   -140.7603      4.0330    -57.3670    -45.8280      0.1161      0.2321      0.2321      0.7033
   2290.5000   -999.2500      2.9440      0.7100      2.3554   -999.2500      0.2900      0.1717      0.4112      0.4842      2.9440      1.5558      5.4900    -15.2987   -140.7635      5.4900    -56.6210    -43.7105      0.1212      0.2423      0.2423      0.7100
   2291.0000   -999.2500      3.7940      0.7151      2.3803   -999.2500      0.2849      0.1713      0.4099      0.4821      3.7940      1.5963      6.0070    -14.7336   -140.7668      6.0070    -56.0510    -42.0959      0.1250      0.2501      0.2501      0.7151
   2291.5000   -999.2500      4.0100      0.7203      2.4051   -999.2500      0.2797      0.1709      0.4087      0.4800      4.0100      1.6380      6.3890    -14.1695   -140.7701      6.3890    -55.4820    -40.4842      0.1289      0.2579      0.2579      0.7203
   2292.0000   -999.2500      4.2450      0.7150      2.3796   -999.2500      0.2850      0.1713      0.4099      0.4821      4.2450      1.5951      6.6790    -14.7494   -140.7733      6.6790    -56.0570    -42.1410      0.1249      0.2499      0.2499      0.7150
   2292.5000   -999.2500      4.4080      0.7065      2.3384   -999.2500      0.2935      0.1719      0.4120      0.4856      4.4080      1.5288      7.1410    -15.6862   -140.7765      7.1410    -56.9890    -44.8178      0.1185      0.2370      0.2370      0.7065
   2293.0000   -999.2500      4.4180      0.6913      2.2640   -999.2500      0.3087      0.1731      0.4156      0.4918      4.4180      1.4178      7.6720    -17.3761   -140.7798      7.6720    -58.6740    -49.6461      0.1069      0.2138      0.2138      0.6913
   2293.5000   -999.2500      4.3670      0.6806      2.2118   -999.2500      0.3194      0.1739      0.4182      0.4962      4.3670      1.3459      7.0430    -18.5630   -140.7830      7.0430    -59.8560    -53.0372      0.0987      0.1974      0.1974      0.6581
   2294.0000   -999.2500      4.2510      0.6705      2.1627   -999.2500      0.3295      0.1746      0.4205      0.5004      4.2510      1.2825      6.6780    -19.6789   -140.7863      6.6780    -60.9670    -56.2255      0.0910      0.1821      0.1821      0.6070
   2294.5000   -999.2500      3.9870      0.6569      2.0963   -999.2500      0.3431      0.1756      0.4238      0.5060      3.9870      1.2027      5.7520    -21.1888   -140.7895      5.7520    -62.4720    -60.5395      0.0807      0.1613      0.1613      0.5378
   2295.0000   -999.2500      3.5170      0.6472      2.0486   -999.2500      0.3528      0.1764      0.4261      0.5100      3.5170      1.1492      5.3930    -22.6627   -140.7927      5.3930    -63.9410    -64.7506      0.0732      0.1464      0.1464      0.4881
   2295.5000   -999.2500      3.0760      0.6435      2.0308   -999.2500      0.3565      0.1766      0.4269      0.5115      3.0760      1.1301      4.2690    -23.6716   -140.7960      4.2690    -64.9450    -67.6332      0.0704      0.1409      0.1409      0.4696
   2296.0000   -999.2500      2.5870      0.6404      2.0156   -999.2500      0.3596      0.1769      0.4276      0.5127      2.5870      1.1141      3.3180    -24.5375   -140.7992      3.3180    -65.8060    -70.1071      0.0681      0.1361      0.1361      0.4537
   2296.5000   -999.2500      2.2250      0.6393      2.0098   -999.2500      0.3607      0.1769      0.4279      0.5132      2.2250      1.1080      3.1150    -24.8664   -140.8025      3.1150    -66.1300    -71.0468      0.0672      0.1343      0.1343      0.4477
   2297.0000   -999.2500      2.0880      0.6390      2.0084   -999.2500      0.3610      0.1770      0.4279      0.5133      2.0880      1.1066      2.9160    -24.9463   -140.8057      2.9160    -66.2050    -71.2751      0.0669      0.1339      0.1339      0.4463
   2297.5000   -999.2500      2.0590      0.6390      2.0083   -999.2500      0.3610      0.1770      0.4279      0.5133      2.0590      1.1064      2.8610    -24.9542   -140.8090      2.8610    -66.2080    -71.2977      0.0669      0.1338      0.1338      0.4461
   2298.0000   -999.2500      2.0660      0.6369      1.9981   -999.2500      0.3631      0.1771      0.4284      0.5142      2.0660      1.0959      2.8860    -25.5341   -140.8122      2.8860    -66.7830    -72.9545      0.0653      0.1307      0.1307      0.4355
   2298.5000   -999.2500      2.1120      0.6343      1.9854   -999.2500      0.3657      0.1773      0.4290      0.5152      2.1120      1.0830      2.9510    -26.2570   -140.8154      2.9510    -67.5010    -75.0199      0.0633      0.1267      0.1267      0.4223
   2299.0000   -999.2500      2.1700      0.6334      1.9808   -999.2500      0.3666      0.1774      0.4292      0.5156      2.1700      1.0784      3.0770    -26.5149   -140.8187      3.0770    -67.7540    -75.7567      0.0626      0.1253      0.1253      0.4175
   2299.5000   -999.2500      2.3360      0.6342      1.9845   -999.2500      0.3658      0.1773      0.4290      0.5153      2.3360      1.0821      3.2580    -26.3078   -140.8219      3.2580    -67.5420    -75.1650      0.0632      0.1264      0.1264      0.4214
   2300.0000   -999.2500      2.4480      0.6347      1.9869   -999.2500      0.3653      0.1773      0.4289      0.5151      2.4480      1.0844      3.4240    -26.1726   -140.8252      3.4240    -67.4020    -74.7790      0.0636      0.1272      0.1272      0.4238
   2300.5000   -999.2500      2.5020      0.6354      1.9906   -999.2500      0.3646      0.1772      0.4287      0.5147      2.5020      1.0881      3.5720    -25.9655   -140.8284      3.5720    -67.1900    -74.1873      0.0641      0.1283      0.1283      0.4277
