~V
VERS. 2.00: Ver 2.00
WRAP.   NO:        
~W
 STRT.FT 20:
 STOP.FT 4330:
 STEP.FT 0.5:
 NULL. -999.250000:
 COMP. Standard (Chevron):Company
 WELL. KCL 44-25:Well
 FLD. Pioneer:Field
 LOC. S32 T11N R22W:Location
 STAT. CA:State
 SRVC. :Service Company
 SON. :Service Order #
 DATE. :Log Date
 UWI. 0940600:Unique Well ID
~C
 DEPT.FT :
 BVES. :
 BVTS. :
 FACE. :
 GR.RE/T :
 GRS.RE/T :
 ILD.OHMM :
 LTHE. :
 MM. :
 NEUS.CPS :
 NEUT.CPS :
 PHES. :
 PHMX. :
 PHTS. :
 PHZC. :
 RD.OHMM :
 ROS. :
 RS.OHMM :
 SBL.MV :
 SCLN. :
 SN.OHMM :
 SP.MV :
 SPN. :
 STUS. :
 SWES. :
 SWTS. :
 VCDS. :
 VCLY. :
 VCWS. :
 VSHS. :
~P
~A
# ...
   4050.0000      0.0100      0.3600      4.0000      5.4300      5.4219      5.6950      0.8500   -999.2500    271.6389    271.7070      0.1500 49090916870222007100000000000.0000      0.5000 270000019174388625000000000000.0000      5.6950      0.4921   -999.2500   -999.2500   -999.2500   -999.2500   -999.2500   -999.2500      0.1983      0.0667      0.7200      0.3500   -999.2500      0.7000      0.8500
   4050.5000      0.0100      0.3600      4.0000      5.2810      5.2868      5.9110      0.8500   -999.2500    272.8340    272.8800      0.1500 49090916870222007100000000000.0000      0.5000 270000019174388625000000000000.0000      5.9110      0.4920   -999.2500   -999.2500   -999.2500   -999.2500   -999.2500   -999.2500      0.1927      0.0667      0.7200      0.3500   -999.2500      0.7000      0.8500
   4051.0000      0.0100      0.3600      4.0000      5.2050      5.2077      6.0260      0.8500   -999.2500    273.7511    273.7830      0.1500 49090916870222007100000000000.0000      0.5000 270000019174388625000000000000.0000      6.0260      0.4920   -999.2500   -999.2500   -999.2500   -999.2500   -999.2500   -999.2500      0.1899      0.0667      0.7200      0.3500   -999.2500      0.7000      0.8500
   4051.5000      0.0100      0.3600      4.0000      5.1590      5.1604      6.1260      0.8500   -999.2500    274.9182    274.9550      0.1500 49090916870222007100000000000.0000      0.5000 270000019174388625000000000000.0000      6.1260      0.4919   -999.2500   -999.2500   -999.2500   -999.2500   -999.2500   -999.2500      0.1875      0.0667      0.7200      0.3500   -999.2500      0.7000      0.8500
   4052.0000      0.0100      0.3600      4.0000      5.0730      5.0754      6.3740      0.8500   -999.2500    276.0958    276.1280      0.1500 49090916870222007100000000000.0000      0.5000 270000019174388625000000000000.0000      6.3740      0.4919   -999.2500   -999.2500   -999.2500   -999.2500   -999.2500   -999.2500      0.1819      0.0667      0.7200      0.3500   -999.2500      0.7000      0.8500
   4052.5000      0.0100      0.3600      4.0000      5.0360      5.0369      6.4890      0.8500 -1000000015047466220000000000000.0000    277.2724    277.3000      0.1500 49090916870222007100000000000.0000      0.5000 270000019174388625000000000000.0000      6.4890      0.4919   -999.2500   -999.2500   -999.2500   -999.2500   -999.2500   -999.2500      0.1794      0.0667      0.7200      0.3500   -999.2500      0.7000      0.8500
   4053.0000      0.0100      0.3600      4.0000      5.0110      5.0115      6.5280      0.8500   -999.2500    277.0784    277.0740      0.1500 49090916870222007100000000000.0000      0.5000 270000019174388625000000000000.0000      6.5280      0.4918   -999.2500   -999.2500   -999.2500   -999.2500   -999.2500   -999.2500      0.1785      0.0667      0.7200      0.3500   -999.2500      0.7000      0.8500
   4053.5000      0.0100      0.3600      4.0000      5.0380      5.0376      6.5390      0.8500   -999.2500    274.9991    274.9660      0.1500 49090916870222007100000000000.0000      0.5000 270000019174388625000000000000.0000      6.5390      0.4918   -999.2500   -999.2500   -999.2500   -999.2500   -999.2500   -999.2500      0.1783      0.0667      0.7200      0.3500   -999.2500      0.7000      0.8500
   4054.0000      0.0100      0.3600      4.0000      5.0700      5.0700      6.4520      0.8500 -1000000166163193670000000000000.0000    271.7290    271.7290      0.1500 49090916870222007100000000000.0000      0.5000 270000019174388625000000000000.0000      6.4520      0.4918   -999.2500   -999.2500   -999.2500   -999.2500   -999.2500   -999.2500      0.1801      0.0667      0.7200      0.3500   -999.2500      0.7000      0.8500
   4054.5000      0.0100      0.3600      4.0000      5.1680      5.1680      6.1930      0.8500   -999.2500    269.2440    269.2440      0.1500 49090916870222007100000000000.0000      0.5000 270000019174388625000000000000.0000      6.1930      0.4917   -999.2500   -999.2500   -999.2500   -999.2500   -999.2500   -999.2500      0.1859      0.0667      0.7200      0.3500   -999.2500      0.7000      0.8500
   4055.0000      0.0100      0.3600      4.0000      5.2910      5.2910      5.8910      0.8500   -999.2500    268.3190    268.3190      0.1500 49090916870222007100000000000.0000      0.5000 270000019174388625000000000000.0000      5.8910      0.4917   -999.2500   -999.2500   -999.2500   -999.2500   -999.2500   -999.2500      0.1931      0.0667      0.7200      0.3500   -999.2500      0.7000      0.8500
   4055.5000      0.0100      0.3600      4.0000      5.4340      5.4340      5.7180      0.8500   -999.2500    266.9100    266.9100      0.1500 49090916870222007100000000000.0000      0.5000 270000019174388625000000000000.0000      5.7180      0.4916   -999.2500   -999.2500   -999.2500   -999.2500   -999.2500   -999.2500      0.1975      0.0667      0.7200      0.3500   -999.2500      0.7000      0.8500
   4056.0000      0.0100      0.3600      4.0000      5.5260      5.5260      5.4700      0.8500   -999.2500    265.8240    265.8240      0.1500 49090916870222007100000000000.0000      0.5000 270000019174388625000000000000.0000      5.4700      0.4916   -999.2500   -999.2500   -999.2500   -999.2500   -999.2500   -999.2500      0.2042      0.0667      0.7200      0.3500   -999.2500      0.7000      0.8500
   4056.5000      0.0100      0.3600      4.0000      5.5780      5.5780      5.2290      0.8500   -999.2500    266.8350    266.8350      0.1500 49090916870222007100000000000.0000      0.5000 270000019174388625000000000000.0000      5.2290      0.4916   -999.2500   -999.2500   -999.2500   -999.2500   -999.2500   -999.2500      0.2112      0.0667      0.7200      0.3500   -999.2500      0.7000      0.8500
   4057.0000      0.0100      0.3600      4.0000      5.6230      5.6230      5.1210      0.8500   -999.2500    269.6210    269.6210      0.1500 49090916870222007100000000000.0000      0.5000 270000019174388625000000000000.0000      5.1210      0.4915   -999.2500   -999.2500   -999.2500   -999.2500   -999.2500   -999.2500      0.2145      0.0667      0.7200      0.3500   -999.2500      0.7000      0.8500
   4057.5000      0.0100      0.3600      4.0000      5.6710      5.6710      5.0710      0.8500   -999.2500    271.3850    271.3850      0.1500 49090916870222007100000000000.0000      0.5000 270000019174388625000000000000.0000      5.0710      0.4915   -999.2500   -999.2500   -999.2500   -999.2500   -999.2500   -999.2500      0.2161      0.0667      0.7200      0.3500   -999.2500      0.7000      0.8500
   4058.0000      0.0100      0.3600      4.0000      5.6980      5.6980      5.1310      0.8500 -1000000166163193670000000000000.0000    272.6640    272.6640      0.1500 49090916870222007100000000000.0000      0.5000 270000019174388625000000000000.0000      5.1310      0.4915   -999.2500   -999.2500   -999.2500   -999.2500   -999.2500   -999.2500      0.2142      0.0667      0.7200      0.3500   -999.2500      0.7000      0.8500
   4058.5000      0.0100      0.3600      4.0000      5.7210      5.7210      5.1640      0.8500   -999.2500    273.5680    273.5680      0.1500 49090916870222007100000000000.0000      0.5000 270000019174388625000000000000.0000      5.1640      0.4914   -999.2500   -999.2500   -999.2500   -999.2500   -999.2500   -999.2500      0.2131      0.0667      0.7200      0.3500   -999.2500      0.7000      0.8500
   4059.0000      0.0100      0.3600      4.0000      5.7500      5.7500      5.2070      0.8500   -999.2500    275.8690    275.8690      0.1500 49090916870222007100000000000.0000      0.5000 270000019174388625000000000000.0000      5.2070      0.4914   -999.2500   -999.2500   -999.2500   -999.2500   -999.2500   -999.2500      0.2118      0.0667      0.7200      0.3500   -999.2500      0.7000      0.8500
   4059.5000      0.0100      0.3600      4.0000      5.7180      5.7180      5.2570      0.8500   -999.2500    277.3110    277.3110      0.1500 49090916870222007100000000000.0000      0.5000 270000019174388625000000000000.0000      5.2570      0.4913   -999.2500   -999.2500   -999.2500   -999.2500   -999.2500   -999.2500      0.2103      0.0667      0.7200      0.3500   -999.2500      0.7000      0.8500
