~V
VERS. 2.00: Ver 2.00
WRAP.   NO:        
~W
 STRT.FT 35:
 STOP.FT 5500:
 STEP.FT 0.5:
 NULL. -999.250000:
 COMP. Standard (Chevron):Company
 WELL. KCL 45-56:Well
 FLD. :Field
 LOC. S30 T11N R22W:Location
 STAT. CA:State
 SRVC. :Service Company
 SON. :Service Order #
 DATE. :Log Date
 UWI. 0369100:Unique Well ID
~C
 DEPT.FT :
 BVES. :
 BVTS. :
 ILD.OHMM :
 LLD.OHMM :
 LTHE. :
 MM. :
 PHES. :
 PHMX. :
 PHTS. :
 PHZC. :
 RD.OHMM :
 ROS. :
 RS.OHMM :
 SBL.MV :
 SCLN. :
 SN.OHMM :
 SP.MV :
 SPN. :
 STUS. :
 SWES. :
 SWTS. :
 VCDS. :
 VCLY. :
 VCWS. :
 VSHS. :
~P
~A
# ...
    802.0000      0.0000      0.2408   -999.2500      2.8290      1.5434      2.7522      0.0000   -999.2500      0.2408      0.2877      2.8290   -999.2500   -999.2500    -12.9220    -38.1714   -999.2500    -18.9220    -12.9220      1.2515      1.0000      1.0000      0.2223      0.4630      0.4630      1.5434
    802.5000      0.0000      0.2454   -999.2500      2.7070      1.5729      2.7562      0.0000   -999.2500      0.2454      0.2868      2.7070   -999.2500   -999.2500    -12.4160    -38.0952   -999.2500    -18.4160    -12.4160      1.2749      1.0000      1.0000      0.2265      0.4719      0.4719      1.5729
    803.0000      0.0000      0.2486   -999.2500      2.6350      1.5935      2.7591      0.0000   -999.2500      0.2486      0.2861      2.6350   -999.2500   -999.2500    -12.0540    -38.0191   -999.2500    -18.0540    -12.0540      1.2899      1.0000      1.0000      0.2295      0.4781      0.4781      1.5935
    803.5000      0.0000      0.2508   -999.2500      2.7580      1.6077      2.7611      0.0000   -999.2500      0.2508      0.2857      2.7580   -999.2500   -999.2500    -11.8000    -37.9429   -999.2500    -17.8000    -11.8000      1.2724      1.0000      1.0000      0.2315      0.4823      0.4823      1.6077
    804.0000      0.0000      0.2499   -999.2500      2.8160      1.6019      2.7603      0.0000   -999.2500      0.2499      0.2859      2.8160   -999.2500   -999.2500    -11.8700    -37.8667   -999.2500    -17.8700    -11.8700      1.2626      1.0000      1.0000      0.2307      0.4806      0.4806      1.6019
    804.5000      0.0000      0.2476   -999.2500      2.8340      1.5872      2.7582      0.0000   -999.2500      0.2476      0.2863      2.8340   -999.2500   -999.2500    -12.0850    -37.7905   -999.2500    -18.0850    -12.0850      1.2576      1.0000      1.0000      0.2286      0.4761      0.4761      1.5872
    805.0000      0.0000      0.2516   -999.2500      2.6220      1.6125      2.7617      0.0000   -999.2500      0.2516      0.2855      2.6220   -999.2500   -999.2500    -11.6510    -37.7143   -999.2500    -17.6510    -11.6510      1.2950      1.0000      1.0000      0.2322      0.4838      0.4838      1.6125
    805.5000      0.0000      0.2493   -999.2500      2.5070      1.5978      2.7597      0.0000   -999.2500      0.2493      0.2860      2.5070   -999.2500   -999.2500    -11.8650    -37.6381   -999.2500    -17.8650    -11.8650      1.3124      1.0000      1.0000      0.2301      0.4793      0.4793      1.5978
    806.0000      0.0000      0.2452   -999.2500      2.3020      1.5718      2.7561      0.0000   -999.2500      0.2452      0.2867      2.3020   -999.2500   -999.2500    -12.2590    -37.5619   -999.2500    -18.2590    -12.2590      1.3468      1.0000      1.0000      0.2263      0.4715      0.4715      1.5718
    806.5000      0.0000      0.2527   -999.2500      2.1510      1.6196      2.7627      0.0000   -999.2500      0.2527      0.2853      2.1510   -999.2500   -999.2500    -11.4660    -37.4857   -999.2500    -17.4660    -11.4660      1.3861      1.0000      1.0000      0.2332      0.4859      0.4859      1.6196
    807.0000      0.0000      0.2546   -999.2500      2.0760      1.6318      2.7644      0.0000   -999.2500      0.2546      0.2849      2.0760   -999.2500   -999.2500    -11.2470    -37.4095   -999.2500    -17.2470    -11.2470      1.4122      1.0000      1.0000      0.2350      0.4895      0.4895      1.6318
    807.5000      0.0000      0.2586   -999.2500      2.0660      1.6575      2.7680      0.0000   -999.2500      0.2586      0.2841      2.0660   -999.2500   -999.2500    -10.8140    -37.3333   -999.2500    -16.8140    -10.8140      1.4190      1.0000      1.0000      0.2387      0.4972      0.4972      1.6575
    808.0000      0.0000      0.2598   -999.2500      2.1020      1.6652      2.7690      0.0000   -999.2500      0.2598      0.2839      2.1020   -999.2500   -999.2500    -10.6680    -37.2572   -999.2500    -16.6680    -10.6680      1.4120      1.0000      1.0000      0.2398      0.4996      0.4996      1.6652
    808.5000      0.0000      0.2628   -999.2500      2.2030      1.6843      2.7717      0.0000   -999.2500      0.2628      0.2833      2.2030   -999.2500   -999.2500    -10.3420    -37.1810   -999.2500    -16.3420    -10.3420      1.3930      1.0000      1.0000      0.2425      0.5053      0.5053      1.6843
    809.0000      0.0000      0.2675   -999.2500      2.4160      1.7148      2.7759      0.0000   -999.2500      0.2675      0.2824      2.4160   -999.2500   -999.2500     -9.8360    -37.1048   -999.2500    -15.8360     -9.8360      1.3553      1.0000      1.0000      0.2469      0.5144      0.5144      1.7148
    809.5000      0.0000      0.2698   -999.2500      2.9890      1.7295      2.7779      0.0000   -999.2500      0.2698      0.2819      2.9890   -999.2500   -999.2500     -9.5820    -37.0286   -999.2500    -15.5820     -9.5820      1.2643      1.0000      1.0000      0.2491      0.5189      0.5189      1.7295
    810.0000      0.0000      0.2675   -999.2500      3.0900      1.7148      2.7759      0.0000   -999.2500      0.2675      0.2824      3.0900   -999.2500   -999.2500     -9.7960    -36.9524   -999.2500    -15.7960     -9.7960      1.2479      1.0000      1.0000      0.2469      0.5144      0.5144      1.7148
    810.5000      0.0000      0.2591   -999.2500      3.1330      1.6608      2.7684      0.0000   -999.2500      0.2591      0.2840      3.1330   -999.2500   -999.2500    -10.6280    -36.8762   -999.2500    -16.6280    -10.6280      1.2273      1.0000      1.0000      0.2392      0.4983      0.4983      1.6608
    811.0000      0.0000      0.2539   -999.2500      3.1770      1.6272      2.7638      0.0000   -999.2500      0.2539      0.2850      3.1770   -999.2500   -999.2500    -11.1360    -36.8000   -999.2500    -17.1360    -11.1360      1.2165      1.0000      1.0000      0.2343      0.4882      0.4882      1.6272
    811.5000      0.0000      0.2554   -999.2500      3.1950      1.6370      2.7651      0.0000   -999.2500      0.2554      0.2847      3.1950   -999.2500   -999.2500    -10.9600    -36.7238   -999.2500    -16.9600    -10.9600      1.2157      1.0000      1.0000      0.2357      0.4911      0.4911      1.6370
    812.0000      0.0000      0.2564   -999.2500      3.1910      1.6433      2.7660      0.0000   -999.2500      0.2564      0.2845      3.1910   -999.2500   -999.2500    -10.8370    -36.6476   -999.2500    -16.8370    -10.8370      1.2172      1.0000      1.0000      0.2366      0.4930      0.4930      1.6433
    812.5000      0.0000      0.2574   -999.2500      2.1930      1.6498      2.7669      0.0000   -999.2500      0.2574      0.2843      2.1930   -999.2500   -999.2500    -10.7130    -36.5714   -999.2500    -16.7130    -10.7130      1.3891      1.0000      1.0000      0.2376      0.4949      0.4949      1.6498
    813.0000      0.0000      0.2582   -999.2500      2.0380      1.6550      2.7676      0.0000   -999.2500      0.2582      0.2841      2.0380   -999.2500   -999.2500    -10.6100    -36.4953   -999.2500    -16.6100    -10.6100      1.4251      1.0000      1.0000      0.2383      0.4965      0.4965      1.6550
    813.5000      0.0000      0.2504   -999.2500      2.0240      1.6049      2.7607      0.0000   -999.2500      0.2504      0.2856      2.0240   -999.2500   -999.2500    -11.3700    -36.4191   -999.2500    -17.3700    -11.3700      1.4127      1.0000      1.0000      0.2311      0.4815      0.4815      1.6049
    814.0000      0.0000      0.2519   -999.2500      2.0170      1.6147      2.7620      0.0000   -999.2500      0.2519      0.2853      2.0170   -999.2500   -999.2500    -11.1930    -36.3429   -999.2500    -17.1930    -11.1930      1.4160      1.0000      1.0000      0.2325      0.4844      0.4844      1.6147
    814.5000      0.0000      0.2567   -999.2500      2.0130      1.6454      2.7663      0.0000   -999.2500      0.2567      0.2843      2.0130   -999.2500   -999.2500    -10.6920    -36.2667   -999.2500    -16.6920    -10.6920      1.4294      1.0000      1.0000      0.2369      0.4936      0.4936      1.6454
