~V
VERS. 2.00: Ver 2.00
WRAP.   NO:        
~W
 STRT.FT 30:
 STOP.FT 4840:
 STEP.FT 0.5:
 NULL. -999.250000:
 COMP. Standard (Chevron):Company
 WELL. KCL 44-23:Well
 FLD. Pioneer:Field
 LOC. S32 T11N R22W:Location
 STAT. CA:State
 SRVC. :Service Company
 SON. :Service Order #
 DATE. :Log Date
 UWI. 0940500:Unique Well ID
~C
 DEPT.FT :
 BVES. :
 BVTS. :
 FACE. :
 GR.RE/T :
 GRS.RE/T :
 ILD.OHMM :
 LTHE. :
 MM. :
 NEUT.CPS :
 PHES. :
 PHMX. :
 PHTS. :
 PHZC. :
 RD.OHMM :
 ROS. :
 RS.OHMM :
 SBL.MV :
 SCLN. :
 SN.OHMM :
 SP.MV :
 SPN.RE/T :
 STUS. :
 SWES. :
 SWTS. :
 VCDS. :
 VCLY. :
 VCWS. :
 VSHS. :
~P
~A
# ...
   2321.5000      0.3251      0.4190      3.0000   -999.2500   -999.2500      1.2100      0.6749      2.1807   -999.2500      0.3251      0.1742      0.4190      0.4982      1.2100      1.3040      1.3060    -24.5587    -91.1719      1.3060    -71.8270    -32.7449      1.0336      1.0000      1.0000      0.0939      0.1877      0.1877      0.6258
   2322.0000      0.3263      0.4193      3.0000   -999.2500   -999.2500      1.1630      0.6737      2.1750   -999.2500      0.3263      0.1743      0.4193      0.4987      1.1630      1.2967      1.2600    -24.7541    -91.1844      1.2600    -72.0100    -33.0054      1.0494      1.0000      1.0000      0.0930      0.1859      0.1859      0.6198
   2322.5000      0.3261      0.4192      3.0000   -999.2500   -999.2500      1.1270      0.6739      2.1757   -999.2500      0.3261      0.1743      0.4192      0.4986      1.1270      1.2976      1.2880    -24.7335    -91.1970      1.2880    -71.9770    -32.9779      1.0645      1.0000      1.0000      0.0931      0.1862      0.1862      0.6205
   2323.0000      0.3258      0.4191      3.0000   -999.2500   -999.2500      1.1060      0.6742      2.1776   -999.2500      0.3258      0.1743      0.4191      0.4985      1.1060      1.2999      1.3350    -24.6769    -91.2095      1.3350    -71.9080    -32.9025      1.0743      1.0000      1.0000      0.0934      0.1867      0.1867      0.6225
   2323.5000      0.3263      0.4192      3.0000   -999.2500   -999.2500      1.1020      0.6737      2.1750   -999.2500      0.3263      0.1743      0.4192      0.4987      1.1020      1.2967      1.3770    -24.7643    -91.2220      1.3770    -71.9830    -33.0190      1.0749      1.0000      1.0000      0.0930      0.1860      0.1860      0.6198
   2324.0000      0.3325      0.4207      2.0000   -999.2500   -999.2500      1.1050      0.6675      2.1444   -999.2500      0.3325      0.1748      0.4207      0.5012      1.1050      1.2585      1.4060    -25.7857    -91.2346      1.4060    -72.9920    -34.3809      1.0608      1.0000      1.0000      0.0882      0.1764      0.1764      0.5879
   2324.5000      0.3392      0.4223      2.0000   -999.2500   -999.2500      1.1270      0.6608      2.1116   -999.2500      0.3392      0.1753      0.4223      0.5040      1.1270      1.2192      1.4450    -26.8781    -91.2471      1.4450    -74.0720    -35.8374      1.0371      1.0000      1.0000      0.0831      0.1661      0.1661      0.5538
   2325.0000      0.3503      0.4249      2.0000   -999.2500   -999.2500      1.1520      0.6497      2.0576   -999.2500      0.3503      0.1761      0.4249      0.5086      1.1520      1.1578      1.4490    -28.7975    -91.2597      1.4490    -75.9790    -38.3966      1.0024      1.0000      1.0000      0.0746      0.1492      0.1492      0.4975
   2325.5000      0.3480      0.4214      2.0000   -999.2500   -999.2500      1.1700      0.6480      2.0492   -999.2500      0.3520      0.1762      0.4253      0.5092      1.1700      1.1487      1.3810    -29.4959    -91.2722      1.3810    -76.6650    -39.3279      0.9908      0.9888      0.9908      0.0733      0.1466      0.1466      0.4888
   2326.0000      0.3414      0.4228      2.0000   -999.2500   -999.2500      1.1860      0.6586      2.1009   -999.2500      0.3414      0.1754      0.4228      0.5049      1.1860      1.2066      1.3200    -27.2483    -91.2847      1.3200    -74.4050    -36.3311      1.0081      1.0000      1.0000      0.0814      0.1628      0.1628      0.5426
   2326.5000      0.3166      0.4169      3.0000   -999.2500   -999.2500      1.2020      0.6834      2.2217   -999.2500      0.3166      0.1736      0.4169      0.4947      1.2020      1.3576      1.2730    -23.2407    -91.2973      1.2730    -70.3850    -30.9876      1.0536      1.0000      1.0000      0.1003      0.2005      0.2005      0.6684
   2327.0000      0.2940      0.4115      3.0000   -999.2500   -999.2500      1.2370      0.7060      2.3316   -999.2500      0.2940      0.1719      0.4115      0.4854      1.2370      1.5165      1.3160    -19.5921    -91.3098      1.3160    -66.7240    -26.1228      1.0941      1.0000      1.0000      0.1174      0.2349      0.2349      0.7060
   2327.5000      0.2996      0.4128      3.0000   -999.2500   -999.2500      1.2410      0.7004      2.3042   -999.2500      0.2996      0.1723      0.4128      0.4877      1.2410      1.4748      1.3450    -20.5055    -91.3223      1.3450    -67.6250    -27.3407      1.0802      1.0000      1.0000      0.1132      0.2263      0.2263      0.7004
   2328.0000      0.3152      0.4165      3.0000   -999.2500   -999.2500      1.2370      0.6848      2.2282   -999.2500      0.3152      0.1735      0.4165      0.4941      1.2370      1.3663      1.3750    -23.0359    -91.3349      1.3750    -70.1430    -30.7145      1.0433      1.0000      1.0000      0.1013      0.2026      0.2026      0.6752
   2328.5000      0.3140      0.4162      3.0000   -999.2500   -999.2500      1.2230      0.6860      2.2344   -999.2500      0.3140      0.1734      0.4162      0.4936      1.2230      1.3747      1.4050    -22.8353    -91.3474      1.4050    -69.9300    -30.4471      1.0509      1.0000      1.0000      0.1022      0.2045      0.2045      0.6816
   2329.0000      0.3116      0.4156      3.0000   -999.2500   -999.2500      1.2210      0.6884      2.2459   -999.2500      0.3116      0.1732      0.4156      0.4926      1.2210      1.3906      1.4800    -22.4557    -91.3600      1.4800    -69.5380    -29.9410      1.0563      1.0000      1.0000      0.1040      0.2081      0.2081      0.6884
   2329.5000      0.3092      0.4150      3.0000   -999.2500   -999.2500      1.2190      0.6908      2.2575   -999.2500      0.3092      0.1730      0.4150      0.4916      1.2190      1.4068      1.5230    -22.0751    -91.3725      1.5230    -69.1450    -29.4335      1.0676      1.0000      1.0000      0.1059      0.2117      0.2117      0.6908
   2330.0000      0.3055      0.4142      3.0000   -999.2500   -999.2500      1.2370      0.6945      2.2755   -999.2500      0.3055      0.1727      0.4142      0.4901      1.2370      1.4324      1.5040    -21.4805    -91.3850      1.5040    -68.5380    -28.6407      1.0687      1.0000      1.0000      0.1087      0.2173      0.2173      0.6945
   2330.5000      0.3018      0.4133      3.0000   -999.2500   -999.2500      1.2550      0.6982      2.2935   -999.2500      0.3018      0.1725      0.4133      0.4885      1.2550      1.4587      1.4840    -20.8849    -91.3976      1.4840    -67.9300    -27.8466      1.0699      1.0000      1.0000      0.1115      0.2230      0.2230      0.6982
   2331.0000      0.3076      0.4146      3.0000   -999.2500   -999.2500      1.2800      0.6924      2.2650   -999.2500      0.3076      0.1729      0.4146      0.4909      1.2800      1.4174      1.4410    -21.8353    -91.4101      1.4410    -68.8680    -29.1138      1.0432      1.0000      1.0000      0.1070      0.2141      0.2141      0.6924
   2331.5000      0.3116      0.4156      3.0000   -999.2500   -999.2500      1.2980      0.6884      2.2453   -999.2500      0.3116      0.1732      0.4156      0.4926      1.2980      1.3896      1.3980    -22.4967    -91.4227      1.3980    -69.5170    -29.9956      1.0291      1.0000      1.0000      0.1039      0.2079      0.2079      0.6884
   2332.0000      0.3157      0.4166      3.0000   -999.2500   -999.2500      1.2870      0.6843      2.2255   -999.2500      0.3157      0.1735      0.4166      0.4942      1.2870      1.3625      1.3580    -23.1581    -91.4352      1.3580    -70.1660    -30.8775      1.0246      1.0000      1.0000      0.1009      0.2017      0.2017      0.6724
   2332.5000      0.3310      0.4202      2.0000   -999.2500   -999.2500      1.2550      0.6690      2.1506   -999.2500      0.3310      0.1746      0.4202      0.5005      1.2550      1.2658      1.3190    -25.6525    -91.4477      1.3190    -72.6480    -34.2034      1.0039      1.0000      1.0000      0.0892      0.1783      0.1783      0.5944
