~V
VERS. 2.00: Ver 2.00
WRAP.   NO:        
~W
 STRT.FT 10:
 STOP.FT 5350:
 STEP.FT 0.5:
 NULL. -999.250000:
 COMP. Standard (Chevron):Company
 WELL. KCL 44-12:Well
 FLD. Pioneer:Field
 LOC. S32 T11N R22W:Location
 STAT. CA:State
 SRVC. :Service Company
 SON. :Service Order #
 DATE. :Log Date
 UWI. 0940400:Unique Well ID
~C
 DEPT.FT :
 GRS.RE/T :
 ILD.OHMM :
 LTHE. :
 MM. :
 NEUT.CPS :
 PHES. :
 PHMX. :
 PHTS. :
 PHZC. :
 RD.OHMM :
 ROS. :
 RS.OHMM :
 SBL.MV :
 SCLN. :
 SN.OHMM :
 SP.MV :
 SPN. :
 VCDS. :
 VCLY. :
 VCWS. :
 VSHS. :
~P
~A
# ...
    720.0000   -999.2500      2.7180      0.5991      2.0020   -999.2500      0.4009      0.1834      0.4668      0.5486      2.7180      1.2076      2.8920     -9.8082    -50.0000      2.8920    -35.8380    -28.0233      0.0659      0.1319      0.1319      0.4395
    720.5000   -999.2500      2.7090      0.5988      2.0006   -999.2500      0.4012      0.1834      0.4669      0.5487      2.7090      1.2060      2.8630     -9.8335    -50.0000      2.8630    -35.8380    -28.0958      0.0657      0.1314      0.1314      0.4381
    721.0000   -999.2500      2.7020      0.5957      1.9854   -999.2500      0.4043      0.1836      0.4676      0.5499      2.7020      1.1890      2.8420    -10.1099    -50.0000      2.8420    -36.0890    -28.8854      0.0633      0.1267      0.1267      0.4223
    721.5000   -999.2500      2.6950      0.5919      1.9663   -999.2500      0.4081      0.1839      0.4685      0.5515      2.6950      1.1680      2.8200    -10.4583    -50.0000      2.8200    -36.4120    -29.8808      0.0604      0.1207      0.1207      0.4024
    722.0000   -999.2500      2.6950      0.5888      1.9511   -999.2500      0.4112      0.1841      0.4692      0.5528      2.6950      1.1516      2.7920    -10.7346    -50.0000      2.7920    -36.6630    -30.6704      0.0580      0.1160      0.1160      0.3866
    722.5000   -999.2500      2.6950      0.5921      1.9675   -999.2500      0.4079      0.1839      0.4684      0.5514      2.6950      1.1692      2.7920    -10.4360    -50.0000      2.7920    -36.3390    -29.8172      0.0605      0.1211      0.1211      0.4037
    723.0000   -999.2500      2.6950      0.6003      2.0075   -999.2500      0.3997      0.1833      0.4665      0.5480      2.6950      1.2136      2.7990     -9.7074    -50.0000      2.7990    -35.5850    -27.7354      0.0668      0.1336      0.1336      0.4453
    723.5000   -999.2500      2.6950      0.6097      2.0534   -999.2500      0.3903      0.1826      0.4643      0.5441      2.6950      1.2672      2.8060     -8.8708    -50.0000      2.8060    -34.7230    -25.3450      0.0740      0.1479      0.1479      0.4931
    724.0000   -999.2500      2.6880      0.6281      2.1435   -999.2500      0.3719      0.1812      0.4599      0.5365      2.6880      1.3816      2.8240     -8.1411    -50.0000      2.8240    -33.9680    -23.2604      0.0880      0.1761      0.1761      0.5870
    724.5000   -999.2500      2.6750      0.6214      2.1105   -999.2500      0.3786      0.1817      0.4615      0.5393      2.6750      1.3382      2.8280     -8.3815    -50.0000      2.8280    -34.1830    -23.9472      0.0829      0.1658      0.1658      0.5526
    725.0000   -999.2500      2.6630      0.6105      2.0572   -999.2500      0.3895      0.1825      0.4641      0.5438      2.6630      1.2716      2.7780     -8.8019    -50.0000      2.7780    -34.5780    -25.1482      0.0746      0.1491      0.1491      0.4970
    725.5000   -999.2500      2.6480      0.6076      2.0430   -999.2500      0.3924      0.1827      0.4647      0.5450      2.6480      1.2546      2.7460     -9.0603    -50.0000      2.7460    -34.8110    -25.8864      0.0723      0.1447      0.1447      0.4823
    726.0000   -999.2500      2.6340      0.6047      2.0288   -999.2500      0.3953      0.1829      0.4654      0.5462      2.6340      1.2378      2.7130     -9.3186    -50.0000      2.7130    -35.0440    -26.6246      0.0701      0.1403      0.1403      0.4675
    726.5000   -999.2500      2.6020      0.6348      2.1756   -999.2500      0.3652      0.1807      0.4583      0.5338      2.6020      1.4253      2.6810     -7.9070    -50.0000      2.6810    -33.6070    -22.5914      0.0931      0.1861      0.1861      0.6204
    727.0000   -999.2500      2.5890      0.6613      2.3050   -999.2500      0.3387      0.1787      0.4519      0.5228      2.5890      1.6211      2.6450     -6.9634    -50.0000      2.6450    -32.6380    -19.8954      0.1133      0.2266      0.2266      0.6613
    727.5000   -999.2500      2.5770      0.6840      2.4150   -999.2500      0.3160      0.1770      0.4465      0.5135      2.5770      1.8146      2.6160     -6.1617    -50.0000      2.6160    -31.8110    -17.6050      0.1305      0.2609      0.2609      0.6840
    728.0000   -999.2500      2.5410      0.7097      2.5396   -999.2500      0.2903      0.1751      0.4403      0.5030      2.5410      2.0701      2.5770     -5.2531    -50.0000      2.5770    -30.8770    -15.0089      0.1499      0.2999      0.2999      0.7097
    728.5000   -999.2500      2.5120      0.7212      2.5952   -999.2500      0.2788      0.1742      0.4375      0.4983      2.5120      2.1985      2.5480     -4.8475    -50.0000      2.5480    -30.4460    -13.8500      0.1586      0.3173      0.3173      0.7212
    729.0000   -999.2500      2.4820      0.7296      2.6360   -999.2500      0.2704      0.1736      0.4354      0.4949      2.4820      2.2989      2.5250     -4.5499    -50.0000      2.5250    -30.1230    -12.9996      0.1650      0.3300      0.3300      0.7296
    729.5000   -999.2500      2.4510      0.7381      2.6770   -999.2500      0.2619      0.1730      0.4333      0.4914      2.4510      2.4055      2.5020     -4.2512    -50.0000      2.5020    -29.7990    -12.1464      0.1714      0.3428      0.3428      0.7381
    730.0000   -999.2500      2.3870      0.7425      2.6982   -999.2500      0.2575      0.1727      0.4322      0.4896      2.3870      2.4630      2.4700     -4.0966    -50.0000      2.4700    -29.6190    -11.7046      0.1747      0.3494      0.3494      0.7425
    730.5000   -999.2500      2.3730      0.7469      2.7028   -999.2500      0.2531      0.1723      0.4311      0.4878      2.3730      2.4871      2.4620     -3.9430    -50.0000      2.4620    -29.4400    -11.2657      0.1780      0.3560      0.3560      0.7469
    731.0000   -999.2500      2.3600      0.7472      2.7030   -999.2500      0.2528      0.1723      0.4310      0.4877      2.3600      2.4886      2.4520     -3.9314    -50.0000      2.4520    -29.4030    -11.2325      0.1783      0.3565      0.3565      0.7472
    731.5000   -999.2500      2.3470      0.7486      2.7039   -999.2500      0.2514      0.1722      0.4307      0.4871      2.3470      2.4949      2.4410     -3.8847    -50.0000      2.4410    -29.3310    -11.0992      0.1793      0.3585      0.3585      0.7486
    732.0000   -999.2500      2.3300      0.7484      2.7038   -999.2500      0.2516      0.1722      0.4307      0.4872      2.3300      2.4938      2.4410     -3.8921    -50.0000      2.4410    -29.3130    -11.1203      0.1791      0.3582      0.3582      0.7484
    732.5000   -999.2500      2.3230      0.7482      2.7036   -999.2500      0.2518      0.1722      0.4308      0.4873      2.3230      2.4926      2.4410     -3.8995    -50.0000      2.4410    -29.2950    -11.1414      0.1789      0.3579      0.3579      0.7482
    733.0000   -999.2500      2.3230      0.7490      2.7042   -999.2500      0.2510      0.1722      0.4306      0.4869      2.3230      2.4966      2.4480     -3.8699    -50.0000      2.4480    -29.2400    -11.0567      0.1796      0.3591      0.3591      0.7490
    733.5000   -999.2500      2.3280      0.7498      2.7048   -999.2500      0.2502      0.1721      0.4303      0.4866      2.3280      2.5004      2.4560     -3.8412    -50.0000      2.4560    -29.1860    -10.9749      0.1802      0.3604      0.3604      0.7498
    734.0000   -999.2500      2.3330      0.7441      2.7007   -999.2500      0.2559      0.1725      0.4318      0.4889      2.3330      2.4722      2.4770     -4.0456    -50.0000      2.4770    -29.3650    -11.5588      0.1758      0.3516      0.3516      0.7441
    734.5000   -999.2500      2.3620      0.7342      2.6574   -999.2500      0.2658      0.1733      0.4342      0.4929      2.3620      2.3526      2.4880     -4.3940    -50.0000      2.4880    -29.6880    -12.5542      0.1683      0.3367      0.3367      0.7342
    735.0000   -999.2500      2.3910      0.7243      2.6096   -999.2500      0.2757      0.1740      0.4366      0.4970      2.3910      2.2320      2.5040     -4.7423    -50.0000      2.5040    -30.0110    -13.5496      0.1609      0.3218      0.3218      0.7243
