~V
VERS. 2.00: Ver 2.00
WRAP.   NO:        
~W
 STRT.FT 10:
 STOP.FT 5350:
 STEP.FT 0.5:
 NULL. -999.250000:
 COMP. Standard (Chevron):Company
 WELL. KCL 44-12:Well
 FLD. Pioneer:Field
 LOC. S32 T11N R22W:Location
 STAT. CA:State
 SRVC. :Service Company
 SON. :Service Order #
 DATE. :Log Date
 UWI. 0940400:Unique Well ID
~C
 DEPT.FT :
 GRS.RE/T :
 ILD.OHMM :
 LTHE. :
 MM. :
 NEUT.CPS :
 PHES. :
 PHMX. :
 PHTS. :
 PHZC. :
 RD.OHMM :
 ROS. :
 RS.OHMM :
 SBL.MV :
 SCLN. :
 SN.OHMM :
 SP.MV :
 SPN. :
 VCDS. :
 VCLY. :
 VCWS. :
 VSHS. :
~P
~A
# ...
   5014.5000      2.9650      5.7880      0.8500   -999.2500    269.7960      0.1500 49090916870222007100000000000.0000      0.5000 270000019174388625000000000000.0000      5.7880      0.4289     10.1520    -38.8440   -999.2500     10.1520    -86.8440   -110.9829      0.3500   -999.2500      0.7000      0.8500
   5015.0000      3.0040      5.6000      0.8500   -999.2500    268.9260      0.1500 49090916870222007100000000000.0000      0.5000 270000019174388625000000000000.0000      5.6000      0.4288     10.5140    -39.1670   -999.2500     10.5140    -87.1670   -111.9057      0.3500   -999.2500      0.7000      0.8500
   5015.5000      3.1130      5.3930      0.8500   -999.2500    267.6260      0.1500 49090916870222007100000000000.0000      0.5000 270000019174388625000000000000.0000      5.3930      0.4288     10.8750    -39.7410   -999.2500     10.8750    -87.7410   -113.5457      0.3500   -999.2500      0.7000      0.8500
   5016.0000      3.1470      5.3170      0.8500   -999.2500    266.5970      0.1500 49090916870222007100000000000.0000      0.5000 270000019174388625000000000000.0000      5.3170      0.4288     10.6930    -40.6010   -999.2500     10.6930    -88.6010   -116.0029      0.3500   -999.2500      0.7000      0.8500
   5016.5000      3.1810      5.2700      0.8500   -999.2500    265.5680      0.1500 49090916870222007100000000000.0000      0.5000 270000019174388625000000000000.0000      5.2700      0.4288     10.3560    -41.8560   -999.2500     10.3560    -89.8560   -119.5886      0.3500   -999.2500      0.7000      0.8500
   5017.0000      3.2230      5.2590      0.8500   -999.2500    263.9960      0.1500 49090916870222007100000000000.0000      0.5000 270000019174388625000000000000.0000      5.2590      0.4287     10.0200    -43.0760   -999.2500     10.0200    -91.0760   -123.0743      0.3500   -999.2500      0.7000      0.8500
   5017.5000      3.2440      5.2840      0.8500   -999.2500    263.8820      0.1500 49090916870222007100000000000.0000      0.5000 270000019174388625000000000000.0000      5.2840      0.4287      9.6830    -44.5820   -999.2500      9.6830    -92.5820   -127.3772      0.3500   -999.2500      0.7000      0.8500
   5018.0000      3.1850      5.3090      0.8500   -999.2500    264.6830      0.1500 49090916870222007100000000000.0000      0.5000 270000019174388625000000000000.0000      5.3090      0.4287      9.3460    -45.8730   -999.2500      9.3460    -93.8730   -131.0657      0.3500   -999.2500      0.7000      0.8500
   5018.5000      3.1450      5.4830      0.8500   -999.2500    265.3780      0.1500 49090916870222007100000000000.0000      0.5000 270000019174388625000000000000.0000      5.4830      0.4286      9.2230    -46.5910   -999.2500      9.2230    -94.5910   -133.1172      0.3500   -999.2500      0.7000      0.8500
   5019.0000      3.1040      5.5880      0.8500   -999.2500    266.0730      0.1500 49090916870222007100000000000.0000      0.5000 270000019174388625000000000000.0000      5.5880      0.4286      9.2990    -47.5230   -999.2500      9.2990    -95.5230   -135.7800      0.3500   -999.2500      0.7000      0.8500
   5019.5000      3.0320      5.8740      0.8500   -999.2500    266.9810      0.1500 49090916870222007100000000000.0000      0.5000 270000019174388625000000000000.0000      5.8740      0.4286      9.3460    -47.8820   -999.2500      9.3460    -95.8820   -136.8057      0.3500   -999.2500      0.7000      0.8500
   5020.0000      2.9670      6.2910      0.8500   -999.2500    267.8900      0.1500 49090916870222007100000000000.0000      0.5000 270000019174388625000000000000.0000      6.2910      0.4286      9.3240    -48.0610   -999.2500      9.3240    -96.0610   -137.3171      0.3500   -999.2500      0.7000      0.8500
   5020.5000      2.9280      6.5260      0.8500   -999.2500    267.2370      0.1500 49090916870222007100000000000.0000      0.5000 270000019174388625000000000000.0000      6.5260      0.4285      9.2550    -47.7560   -999.2500      9.2550    -95.7560   -136.4457      0.3500   -999.2500      0.7000      0.8500
   5021.0000      2.8750      6.6390      0.8500   -999.2500    266.5830      0.1500 49090916870222007100000000000.0000      0.5000 270000019174388625000000000000.0000      6.6390      0.4285      9.1390    -47.4510   -999.2500      9.1390    -95.4510   -135.5743      0.3500   -999.2500      0.7000      0.8500
   5021.5000      2.8220      6.5990      0.8500   -999.2500    265.4960      0.1500 49090916870222007100000000000.0000      0.5000 270000019174388625000000000000.0000      6.5990      0.4285      8.9580    -46.4830   -999.2500      8.9580    -94.4830   -132.8086      0.3500   -999.2500      0.7000      0.8500
   5022.0000      2.8530      6.5010      0.8500   -999.2500    267.1050      0.1500 49090916870222007100000000000.0000      0.5000 270000019174388625000000000000.0000      6.5010      0.4284      8.7220    -44.7610   -999.2500      8.7220    -92.7610   -127.8886      0.3500   -999.2500      0.7000      0.8500
   5022.5000      2.8840      6.4210      0.8500   -999.2500    268.7150      0.1500 49090916870222007100000000000.0000      0.5000 270000019174388625000000000000.0000      6.4210      0.4284      8.6030    -45.2640   -999.2500      8.6030    -93.2640   -129.3257      0.3500   -999.2500      0.7000      0.8500
   5023.0000      2.8820      6.3410      0.8500   -999.2500    267.5220      0.1500 49090916870222007100000000000.0000      0.5000 270000019174388625000000000000.0000      6.3410      0.4284      8.5480    -45.6940   -999.2500      8.5480    -93.6940   -130.5543      0.3500   -999.2500      0.7000      0.8500
   5023.5000      2.9170      6.2250      0.8500   -999.2500    265.8990      0.1500 49090916870222007100000000000.0000      0.5000 270000019174388625000000000000.0000      6.2250      0.4284      8.4940    -45.9090   -999.2500      8.4940    -93.9090   -131.1686      0.3500   -999.2500      0.7000      0.8500
   5024.0000      2.9510      6.1810      0.8500   -999.2500    263.7360      0.1500 49090916870222007100000000000.0000      0.5000 270000019174388625000000000000.0000      6.1810      0.4283      8.4430    -44.9410   -999.2500      8.4430    -92.9410   -128.4029      0.3500   -999.2500      0.7000      0.8500
   5024.5000      2.9530      6.1380      0.8500   -999.2500    265.6670      0.1500 49090916870222007100000000000.0000      0.5000 270000019174388625000000000000.0000      6.1380      0.4283      8.2870    -44.4030   -999.2500      8.2870    -92.4030   -126.8657      0.3500   -999.2500      0.7000      0.8500
   5025.0000      2.9540      6.1050      0.8500   -999.2500    266.8480      0.1500 49090916870222007100000000000.0000      0.5000 270000019174388625000000000000.0000      6.1050      0.4283      8.0980    -44.6540   -999.2500      8.0980    -92.6540   -127.5829      0.3500   -999.2500      0.7000      0.8500
   5025.5000      2.9630      6.0650      0.8500   -999.2500    268.9950      0.1500 49090916870222007100000000000.0000      0.5000 270000019174388625000000000000.0000      6.0650      0.4282      8.0620    -45.0480   -999.2500      8.0620    -93.0480   -128.7086      0.3500   -999.2500      0.7000      0.8500
   5026.0000      3.0380      6.0320      0.8500   -999.2500    270.1480      0.1500 49090916870222007100000000000.0000      0.5000 270000019174388625000000000000.0000      6.0320      0.4282      8.0070    -45.4430   -999.2500      8.0070    -93.4430   -129.8372      0.3500   -999.2500      0.7000      0.8500
   5026.5000      3.1420      5.9920      0.8500   -999.2500    271.3010      0.1500 49090916870222007100000000000.0000      0.5000 270000019174388625000000000000.0000      5.9920      0.4282      7.9490    -47.4510   -999.2500      7.9490    -95.4510   -135.5743      0.3500   -999.2500      0.7000      0.8500
   5027.0000      3.1700      5.9520      0.8500   -999.2500    273.1770      0.1500 49090916870222007100000000000.0000      0.5000 270000019174388625000000000000.0000      5.9520      0.4282      7.8660    -49.1370   -999.2500      7.8660    -97.1370   -140.3914      0.3500   -999.2500      0.7000      0.8500
