~V
VERS. 2.00: Ver 2.00
WRAP.   NO:        
~W
 STRT.FT 10:
 STOP.FT 5350:
 STEP.FT 0.5:
 NULL. -999.250000:
 COMP. Standard (Chevron):Company
 WELL. KCL 44-12:Well
 FLD. Pioneer:Field
 LOC. S32 T11N R22W:Location
 STAT. CA:State
 SRVC. :Service Company
 SON. :Service Order #
 DATE. :Log Date
 UWI. 0940400:Unique Well ID
~C
 DEPT.FT :
 GRS.RE/T :
 ILD.OHMM :
 LTHE. :
 MM. :
 NEUT.CPS :
 PHES. :
 PHMX. :
 PHTS. :
 PHZC. :
 RD.OHMM :
 ROS. :
 RS.OHMM :
 SBL.MV :
 SCLN. :
 SN.OHMM :
 SP.MV :
 SPN. :
 VCDS. :
 VCLY. :
 VCWS. :
 VSHS. :
~P
~A
# ...
     49.0000   -999.2500   -999.2500      1.0000   -999.2500   -999.2500      0.0000 49090916870222007100000000000.0000      0.5000 270000019174388625000000000000.0000   -999.2500      1.2655   -999.2500   -999.2500   -999.2500   -999.2500   -999.2500   -999.2500      0.3500   -999.2500      0.7000      1.0000
     49.5000   -999.2500   -999.2500      1.0000   -999.2500   -999.2500      0.0000 49090916870222007100000000000.0000      0.5000 270000019174388625000000000000.0000   -999.2500      1.2652   -999.2500   -999.2500   -999.2500   -999.2500   -999.2500   -999.2500      0.3500   -999.2500      0.7000      1.0000
     50.0000   -999.2500   -999.2500      1.0000   -999.2500   -999.2500      0.0000 49090916870222007100000000000.0000      0.5000 270000019174388625000000000000.0000   -999.2500      1.2650      1.1050      5.1690   -999.2500      1.1050    -52.8310     14.7686      0.3500   -999.2500      0.7000      1.0000
     50.5000   -999.2500   -999.2500      1.0000   -999.2500   -999.2500      0.0000 49090916870222007100000000000.0000      0.5000 270000019174388625000000000000.0000   -999.2500      1.2647      1.1460      4.8430   -999.2500      1.1460    -53.1570     13.8371      0.3500   -999.2500      0.7000      1.0000
     51.0000   -999.2500   -999.2500      1.0000   -999.2500   -999.2500      0.0000 49090916870222007100000000000.0000      0.5000 270000019174388625000000000000.0000   -999.2500      1.2645      1.2390      4.4090   -999.2500      1.2390    -53.5910     12.5971      0.3500   -999.2500      0.7000      1.0000
     51.5000   -999.2500   -999.2500      1.0000   -999.2500   -999.2500      0.0000 49090916870222007100000000000.0000      0.5000 270000019174388625000000000000.0000   -999.2500      1.2642      1.3000      3.8310   -999.2500      1.3000    -54.1690     10.9457      0.3500   -999.2500      0.7000      1.0000
     52.0000   -999.2500   -999.2500      1.0000   -999.2500   -999.2500      0.0000 49090916870222007100000000000.0000      0.5000 270000019174388625000000000000.0000   -999.2500      1.2640      1.3570      3.2160   -999.2500      1.3570    -54.7840      9.1886      0.3500   -999.2500      0.7000      1.0000
     52.5000   -999.2500   -999.2500      1.0000   -999.2500   -999.2500      0.0000 49090916870222007100000000000.0000      0.5000 270000019174388625000000000000.0000   -999.2500      1.2637      1.4140      2.4930   -999.2500      1.4140    -55.5070      7.1229      0.3500   -999.2500      0.7000      1.0000
     53.0000   -999.2500   -999.2500      1.0000   -999.2500   -999.2500      0.0000 49090916870222007100000000000.0000      0.5000 270000019174388625000000000000.0000   -999.2500      1.2635      1.4370      1.9140   -999.2500      1.4370    -56.0860      5.4686      0.3500   -999.2500      0.7000      1.0000
     53.5000   -999.2500   -999.2500      1.0000   -999.2500   -999.2500      0.0000 49090916870222007100000000000.0000      0.5000 270000019174388625000000000000.0000   -999.2500      1.2633      1.4600      1.2270   -999.2500      1.4600    -56.7730      3.5057      0.3500   -999.2500      0.7000      1.0000
     54.0000   -999.2500   -999.2500      1.0000   -999.2500   -999.2500      0.0000 49090916870222007100000000000.0000      0.5000 270000019174388625000000000000.0000   -999.2500      1.2630      1.4820      0.7210   -999.2500      1.4820    -57.2790      2.0600      0.3500   -999.2500      0.7000      1.0000
     54.5000   -999.2500   -999.2500      1.0000   -999.2500   -999.2500      0.0000 49090916870222007100000000000.0000      0.5000 270000019174388625000000000000.0000   -999.2500      1.2628      1.4740      0.2150   -999.2500      1.4740    -57.7850      0.6143      0.3500   -999.2500      0.7000      1.0000
     55.0000   -999.2500   -999.2500      1.0000   -999.2500   -999.2500      0.0000 49090916870222007100000000000.0000      0.5000 270000019174388625000000000000.0000   -999.2500      1.2625      1.4670     -0.4720   -999.2500      1.4670    -58.4720     -1.3486      0.3500   -999.2500      0.7000      1.0000
     55.5000   -999.2500   -999.2500      1.0000   -999.2500   -999.2500      0.0000 49090916870222007100000000000.0000      0.5000 270000019174388625000000000000.0000   -999.2500      1.2623      1.4490     -0.7260   -999.2500      1.4490    -58.7260     -2.0743      0.3500   -999.2500      0.7000      1.0000
     56.0000   -999.2500   -999.2500      1.0000   -999.2500   -999.2500      0.0000 49090916870222007100000000000.0000      0.5000 270000019174388625000000000000.0000   -999.2500      1.2620      1.4350     -0.7990   -999.2500      1.4350    -58.7990     -2.2829      0.3500   -999.2500      0.7000      1.0000
     56.5000   -999.2500   -999.2500      1.0000   -999.2500   -999.2500      0.0000 49090916870222007100000000000.0000      0.5000 270000019174388625000000000000.0000   -999.2500      1.2618      1.4290     -0.7280   -999.2500      1.4290    -58.7280     -2.0800      0.3500   -999.2500      0.7000      1.0000
     57.0000   -999.2500   -999.2500      1.0000   -999.2500   -999.2500      0.0000 49090916870222007100000000000.0000      0.5000 270000019174388625000000000000.0000   -999.2500      1.2615      1.4240     -0.6570   -999.2500      1.4240    -58.6570     -1.8771      0.3500   -999.2500      0.7000      1.0000
     57.5000   -999.2500   -999.2500      1.0000   -999.2500   -999.2500      0.0000 49090916870222007100000000000.0000      0.5000 270000019174388625000000000000.0000   -999.2500      1.2613      1.4240     -0.8570   -999.2500      1.4240    -58.8570     -2.4486      0.3500   -999.2500      0.7000      1.0000
     58.0000   -999.2500   -999.2500      1.0000   -999.2500   -999.2500      0.0000 49090916870222007100000000000.0000      0.5000 270000019174388625000000000000.0000   -999.2500      1.2610      1.4200     -1.0560   -999.2500      1.4200    -59.0560     -3.0171      0.3500   -999.2500      0.7000      1.0000
     58.5000   -999.2500   -999.2500      1.0000   -999.2500   -999.2500      0.0000 49090916870222007100000000000.0000      0.5000 270000019174388625000000000000.0000   -999.2500      1.2608      1.4200     -1.3820   -999.2500      1.4200    -59.3820     -3.9486      0.3500   -999.2500      0.7000      1.0000
     59.0000   -999.2500   -999.2500      1.0000   -999.2500   -999.2500      0.0000 49090916870222007100000000000.0000      0.5000 270000019174388625000000000000.0000   -999.2500      1.2605      1.4180     -1.9250   -999.2500      1.4180    -59.9250     -5.5000      0.3500   -999.2500      0.7000      1.0000
     59.5000   -999.2500   -999.2500      1.0000   -999.2500   -999.2500      0.0000 49090916870222007100000000000.0000      0.5000 270000019174388625000000000000.0000   -999.2500      1.2603      1.4160     -2.3230   -999.2500      1.4160    -60.3230     -6.6371      0.3500   -999.2500      0.7000      1.0000
     60.0000   -999.2500   -999.2500      1.0000   -999.2500   -999.2500      0.0000 49090916870222007100000000000.0000      0.5000 270000019174388625000000000000.0000   -999.2500      1.2600      1.4050     -2.6850   -999.2500      1.4050    -60.6850     -7.6714      0.3500   -999.2500      0.7000      1.0000
     60.5000   -999.2500   -999.2500      1.0000   -999.2500   -999.2500      0.0000 49090916870222007100000000000.0000      0.5000 270000019174388625000000000000.0000   -999.2500      1.2598      1.3980     -2.9020   -999.2500      1.3980    -60.9020     -8.2914      0.3500   -999.2500      0.7000      1.0000
     61.0000   -999.2500   -999.2500      1.0000   -999.2500   -999.2500      0.0000 49090916870222007100000000000.0000      0.5000 270000019174388625000000000000.0000   -999.2500      1.2595      1.3970     -3.1740   -999.2500      1.3970    -61.1740     -9.0686      0.3500   -999.2500      0.7000      1.0000
     61.5000   -999.2500   -999.2500      1.0000   -999.2500   -999.2500      0.0000 49090916870222007100000000000.0000      0.5000 270000019174388625000000000000.0000   -999.2500      1.2593      1.4040     -3.4450   -999.2500      1.4040    -61.4450     -9.8429      0.3500   -999.2500      0.7000      1.0000
