~V
VERS. 2.00: Ver 2.00
WRAP.   NO:        
~W
 STRT.FT 20:
 STOP.FT 4330:
 STEP.FT 0.5:
 NULL. -999.250000:
 COMP. Standard (Chevron):Company
 WELL. KCL 44-25:Well
 FLD. Pioneer:Field
 LOC. S32 T11N R22W:Location
 STAT. CA:State
 SRVC. :Service Company
 SON. :Service Order #
 DATE. :Log Date
 UWI. 0940600:Unique Well ID
~C
 DEPT.FT :
 BVES. :
 BVTS. :
 FACE. :
 GR.RE/T :
 GRS.RE/T :
 ILD.OHMM :
 LTHE. :
 MM. :
 NEUS.CPS :
 NEUT.CPS :
 PHES. :
 PHMX. :
 PHTS. :
 PHZC. :
 RD.OHMM :
 ROS. :
 RS.OHMM :
 SBL.MV :
 SCLN. :
 SN.OHMM :
 SP.MV :
 SPN. :
 STUS. :
 SWES. :
 SWTS. :
 VCDS. :
 VCLY. :
 VCWS. :
 VSHS. :
~P
~A
# ...
   4320.0000      0.0100      0.3600      4.0000      6.3710      6.3710      4.3830      0.8500 -1000000166163193670000000000000.0000    253.5850    253.5850      0.1500 49090916870222007100000000000.0000      0.5000 270000019174388625000000000000.0000      4.3830      0.4726   -999.2500   -999.2500   -999.2500   -999.2500   -999.2500   -999.2500      0.2313      0.0667      0.7200      0.3500   -999.2500      0.7000      0.8500
   4320.5000      0.0100      0.3600      4.0000      6.2970      6.2970      4.2700      0.8500   -999.2500    254.4860    254.4860      0.1500 49090916870222007100000000000.0000      0.5000 270000019174388625000000000000.0000      4.2700      0.4725   -999.2500   -999.2500   -999.2500   -999.2500   -999.2500   -999.2500      0.2359      0.0667      0.7200      0.3500   -999.2500      0.7000      0.8500
   4321.0000      0.0100      0.3600      4.0000      6.2210      6.2210      4.1250      0.8500   -999.2500    254.8500    254.8500      0.1500 49090916870222007100000000000.0000      0.5000 270000019174388625000000000000.0000      4.1250      0.4725   -999.2500   -999.2500   -999.2500   -999.2500   -999.2500   -999.2500      0.2419      0.0667      0.7200      0.3500   -999.2500      0.7000      0.8500
   4321.5000      0.0100      0.3600      4.0000      6.2180      6.2180      4.0370      0.8500   -999.2500    254.9460    254.9460      0.1500 49090916870222007100000000000.0000      0.5000 270000019174388625000000000000.0000      4.0370      0.4725   -999.2500   -999.2500   -999.2500   -999.2500   -999.2500   -999.2500      0.2458      0.0667      0.7200      0.3500   -999.2500      0.7000      0.8500
   4322.0000      0.0100      0.3600      4.0000      6.1550      6.1550      3.9600      0.8500   -999.2500    253.9660    253.9660      0.1500 49090916870222007100000000000.0000      0.5000 270000019174388625000000000000.0000      3.9600      0.4724   -999.2500   -999.2500   -999.2500   -999.2500   -999.2500   -999.2500      0.2493      0.0667      0.7200      0.3500   -999.2500      0.7000      0.8500
   4322.5000      0.0100      0.3600      4.0000      6.2300      6.2300      3.9380      0.8500   -999.2500    251.6950    251.6950      0.1500 49090916870222007100000000000.0000      0.5000 270000019174388625000000000000.0000      3.9380      0.4724   -999.2500   -999.2500   -999.2500   -999.2500   -999.2500   -999.2500      0.2503      0.0667      0.7200      0.3500   -999.2500      0.7000      0.8500
   4323.0000      0.0100      0.3600      4.0000      6.3000      6.3000      3.9330      0.8500   -999.2500    249.7470    249.7470      0.1500 49090916870222007100000000000.0000      0.5000 270000019174388625000000000000.0000      3.9330      0.4724   -999.2500   -999.2500   -999.2500   -999.2500   -999.2500   -999.2500      0.2505      0.0667      0.7200      0.3500   -999.2500      0.7000      0.8500
   4323.5000      0.0100      0.3600      4.0000      6.3540      6.3540      3.9310      0.8500   -999.2500    248.3910    248.3910      0.1500 49090916870222007100000000000.0000      0.5000 270000019174388625000000000000.0000      3.9310      0.4723   -999.2500   -999.2500   -999.2500   -999.2500   -999.2500   -999.2500      0.2506      0.0667      0.7200      0.3500   -999.2500      0.7000      0.8500
   4324.0000      0.0100      0.3600      4.0000      6.3890      6.3890      3.9370      0.8500   -999.2500    247.5180    247.5180      0.1500 49090916870222007100000000000.0000      0.5000 270000019174388625000000000000.0000      3.9370      0.4723   -999.2500   -999.2500   -999.2500   -999.2500   -999.2500   -999.2500      0.2503      0.0667      0.7200      0.3500   -999.2500      0.7000      0.8500
   4324.5000      0.0100      0.3600      4.0000      6.3640      6.3640      3.9360      0.8500   -999.2500    247.1300    247.1300      0.1500 49090916870222007100000000000.0000      0.5000 270000019174388625000000000000.0000      3.9360      0.4723   -999.2500   -999.2500   -999.2500   -999.2500   -999.2500   -999.2500      0.2503      0.0667      0.7200      0.3500   -999.2500      0.7000      0.8500
   4325.0000      0.0100      0.3600      4.0000      6.2990      6.2990      3.9340      0.8500   -999.2500    249.8600    249.8600      0.1500 49090916870222007100000000000.0000      0.5000 270000019174388625000000000000.0000      3.9340      0.4722   -999.2500   -999.2500   -999.2500   -999.2500   -999.2500   -999.2500      0.2504      0.0667      0.7200      0.3500   -999.2500      0.7000      0.8500
   4325.5000      0.0100      0.3600      4.0000      6.2540      6.2540      3.9400      0.8500   -999.2500    252.2140    252.2140      0.1500 49090916870222007100000000000.0000      0.5000 270000019174388625000000000000.0000      3.9400      0.4722   -999.2500   -999.2500   -999.2500   -999.2500   -999.2500   -999.2500      0.2501      0.0667      0.7200      0.3500   -999.2500      0.7000      0.8500
   4326.0000      0.0100      0.3600      4.0000      6.2880      6.2880      3.9420      0.8500   -999.2500    254.5680    254.5680      0.1500 49090916870222007100000000000.0000      0.5000 270000019174388625000000000000.0000      3.9420      0.4722   -999.2500   -999.2500   -999.2500   -999.2500   -999.2500   -999.2500      0.2500      0.0667      0.7200      0.3500   -999.2500      0.7000      0.8500
   4326.5000      0.0100      0.3600      4.0000      6.2280      6.2280      3.9270      0.8500   -999.2500    256.7610    256.7610      0.1500 49090916870222007100000000000.0000      0.5000 270000019174388625000000000000.0000      3.9270      0.4721   -999.2500   -999.2500   -999.2500   -999.2500   -999.2500   -999.2500      0.2507      0.0667      0.7200      0.3500   -999.2500      0.7000      0.8500
   4327.0000      0.0100      0.3600      4.0000      6.1600      6.1600      3.9220      0.8500   -999.2500    258.3620    258.3620      0.1500 49090916870222007100000000000.0000      0.5000 270000019174388625000000000000.0000      3.9220      0.4721   -999.2500   -999.2500   -999.2500   -999.2500   -999.2500   -999.2500      0.2509      0.0667      0.7200      0.3500   -999.2500      0.7000      0.8500
   4327.5000      0.0100      0.3600      4.0000      6.1190      6.1190      3.9130      0.8500   -999.2500    259.2640    259.2640      0.1500 49090916870222007100000000000.0000      0.5000 270000019174388625000000000000.0000      3.9130      0.4721   -999.2500   -999.2500   -999.2500   -999.2500   -999.2500   -999.2500      0.2513      0.0667      0.7200      0.3500   -999.2500      0.7000      0.8500
   4328.0000      0.0100      0.3600      4.0000      6.1000      6.1000      3.8940      0.8500   -999.2500    260.2740    260.2740      0.1500 49090916870222007100000000000.0000      0.5000 270000019174388625000000000000.0000      3.8940      0.4720   -999.2500   -999.2500   -999.2500   -999.2500   -999.2500   -999.2500      0.2522      0.0667      0.7200      0.3500   -999.2500      0.7000      0.8500
   4328.5000      0.0100      0.3600      4.0000      6.0690      6.0690      3.8600      0.8500   -999.2500    261.3910    261.3910      0.1500 49090916870222007100000000000.0000      0.5000 270000019174388625000000000000.0000      3.8600      0.4720   -999.2500   -999.2500   -999.2500   -999.2500   -999.2500   -999.2500      0.2538      0.0667      0.7200      0.3500   -999.2500      0.7000      0.8500
   4329.0000      0.0100      0.3600      4.0000      6.0400      6.0400      3.8190      0.8500   -999.2500    263.2610    263.2610      0.1500 49090916870222007100000000000.0000      0.5000 270000019174388625000000000000.0000      3.8190      0.4719   -999.2500   -999.2500   -999.2500   -999.2500   -999.2500   -999.2500      0.2557      0.0667      0.7200      0.3500   -999.2500      0.7000      0.8500
   4329.5000      0.0100      0.3600      4.0000      6.0280      6.0280      3.7860      0.8500   -999.2500    264.9160    264.9160      0.1500 49090916870222007100000000000.0000      0.5000 270000019174388625000000000000.0000      3.7860      0.4719   -999.2500   -999.2500   -999.2500   -999.2500   -999.2500   -999.2500      0.2573      0.0667      0.7200      0.3500   -999.2500      0.7000      0.8500
