~V
VERS. 2.00: Ver 2.00
WRAP.   NO:        
~W
 STRT.FT 35:
 STOP.FT 5500:
 STEP.FT 0.5:
 NULL. -999.250000:
 COMP. Standard (Chevron):Company
 WELL. KCL 45-56:Well
 FLD. :Field
 LOC. S30 T11N R22W:Location
 STAT. CA:State
 SRVC. :Service Company
 SON. :Service Order #
 DATE. :Log Date
 UWI. 0369100:Unique Well ID
~C
 DEPT.FT :
 BVES. :
 BVTS. :
 ILD.OHMM :
 LLD.OHMM :
 LTHE. :
 MM. :
 PHES. :
 PHMX. :
 PHTS. :
 PHZC. :
 RD.OHMM :
 ROS. :
 RS.OHMM :
 SBL.MV :
 SCLN. :
 SN.OHMM :
 SP.MV :
 SPN. :
 STUS. :
 SWES. :
 SWTS. :
 VCDS. :
 VCLY. :
 VCWS. :
 VSHS. :
~P
~A
# ...
   1322.0000      0.2458      0.4183   -999.2500      1.8380      0.7542      2.6843      0.2458      0.1705      0.4183      0.4777      1.8380      2.3139   -999.2500    -11.9935    -50.0000   -999.2500    -18.4110    -11.9935      1.0896      1.0000      1.0000      0.1725      0.3451      0.3451      0.7542
   1322.5000      0.2498      0.4193   -999.2500      1.7610      0.7502      2.6650      0.2498      0.1708      0.4193      0.4794      1.7610      2.2649   -999.2500    -12.3950    -50.0000   -999.2500    -18.8130    -12.3950      1.0992      1.0000      1.0000      0.1695      0.3391      0.3391      0.7502
   1323.0000      0.2512      0.4197   -999.2500      1.6600      0.7488      2.6579      0.2512      0.1709      0.4197      0.4799      1.6600      2.2470   -999.2500    -12.5435    -50.0000   -999.2500    -18.9620    -12.5435      1.1211      1.0000      1.0000      0.1684      0.3368      0.3368      0.7488
   1323.5000      0.2456      0.4183   -999.2500      1.5470      0.7544      2.6853      0.2456      0.1705      0.4183      0.4776      1.5470      2.3162   -999.2500    -11.9730    -50.0000   -999.2500    -18.3920    -11.9730      1.1626      1.0000      1.0000      0.1727      0.3454      0.3454      0.7544
   1324.0000      0.2424      0.4175   -999.2500      1.4490      0.7576      2.7001      0.2424      0.1702      0.4175      0.4763      1.4490      2.3550   -999.2500    -11.6536    -50.0000   -999.2500    -18.0730    -11.6536      1.1975      1.0000      1.0000      0.1751      0.3502      0.3502      0.7576
   1324.5000      0.2410      0.4171   -999.2500      1.4200      0.7590      2.7011      0.2410      0.1701      0.4171      0.4757      1.4200      2.3607   -999.2500    -11.5141    -50.0000   -999.2500    -17.9340    -11.5141      1.2076      1.0000      1.0000      0.1761      0.3523      0.3523      0.7590
   1325.0000      0.2389      0.4166   -999.2500      1.5340      0.7611      2.7025      0.2389      0.1700      0.4166      0.4749      1.5340      2.3695   -999.2500    -11.3026    -50.0000   -999.2500    -17.7230    -11.3026      1.1748      1.0000      1.0000      0.1777      0.3555      0.3555      0.7611
   1325.5000      0.2371      0.4161   -999.2500      1.8500      0.7629      2.7037      0.2371      0.1698      0.4161      0.4742      1.8500      2.3769   -999.2500    -11.1271    -50.0000   -999.2500    -17.5480    -11.1271      1.0970      1.0000      1.0000      0.1790      0.3581      0.3581      0.7629
   1326.0000      0.2075      0.3903   -999.2500      2.7830      0.7679      2.7072      0.2321      0.1695      0.4149      0.4721      2.7830      2.3981   -999.2500    -10.6276    -50.0000   -999.2500    -17.0490    -10.6276      0.9408      0.8941      0.9408      0.1828      0.3656      0.3656      0.7679
   1326.5000      0.1821      0.3672   -999.2500      3.2860      0.7711      2.7094      0.2289      0.1692      0.4141      0.4708      3.2860      2.4118   -999.2500    -10.3081    -50.0000   -999.2500    -16.7300    -10.3081      0.8868      0.7953      0.8868      0.1852      0.3704      0.3704      0.7711
   1327.0000      0.1302      0.3178   -999.2500      4.7590      0.7743      2.7116      0.2257      0.1690      0.4133      0.4695      4.7590      2.4256   -999.2500     -9.9897    -50.0000   -999.2500    -16.4120     -9.9897      0.7689      0.5769      0.7689      0.1876      0.3752      0.3752      0.7743
   1327.5000      0.1078      0.2967   -999.2500      5.6690      0.7760      2.7128      0.2240      0.1689      0.4129      0.4688      5.6690      2.4332   -999.2500     -9.8142    -50.0000   -999.2500    -16.2370     -9.8142      0.7186      0.4812      0.7186      0.1889      0.3778      0.3778      0.7760
   1328.0000      0.1063      0.2947   -999.2500      5.7660      0.7753      2.7123      0.2247      0.1689      0.4131      0.4691      5.7660      2.4298   -999.2500     -9.8907    -50.0000   -999.2500    -16.3140     -9.8907      0.7134      0.4732      0.7134      0.1883      0.3766      0.3766      0.7753
   1328.5000      0.1076      0.2942   -999.2500      5.7830      0.7731      2.7108      0.2269      0.1691      0.4136      0.4700      5.7830      2.4200   -999.2500    -10.1132    -50.0000   -999.2500    -16.5370    -10.1132      0.7114      0.4740      0.7114      0.1867      0.3733      0.3733      0.7731
   1329.0000      0.1168      0.3026   -999.2500      5.3820      0.7720      2.7100      0.2280      0.1692      0.4138      0.4704      5.3820      2.4150   -999.2500    -10.2257    -50.0000   -999.2500    -16.6500    -10.2257      0.7313      0.5123      0.7313      0.1858      0.3716      0.3716      0.7720
   1329.5000      0.1668      0.3520   -999.2500      3.6600      0.7712      2.7094      0.2288      0.1692      0.4140      0.4707      3.6600      2.4116   -999.2500    -10.3022    -50.0000   -999.2500    -16.7270    -10.3022      0.8502      0.7290      0.8502      0.1852      0.3705      0.3705      0.7712
   1330.0000      0.2165      0.3980   -999.2500      2.6510      0.7662      2.7059      0.2338      0.1696      0.4153      0.4728      2.6510      2.3896   -999.2500    -10.8117    -50.0000   -999.2500    -17.2370    -10.8117      0.9583      0.9260      0.9583      0.1814      0.3628      0.3628      0.7662
   1330.5000      0.2374      0.4161   -999.2500      1.2250      0.7626      2.7034      0.2374      0.1699      0.4161      0.4742      1.2250      2.3741   -999.2500    -11.1733    -50.0000   -999.2500    -17.5990    -11.1733      1.2852      1.0000      1.0000      0.1787      0.3574      0.3574      0.7626
   1331.0000      0.2371      0.4160   -999.2500      1.1280      0.7629      2.7037      0.2371      0.1698      0.4160      0.4741      1.1280      2.3755   -999.2500    -11.1388    -50.0000   -999.2500    -17.5650    -11.1388      1.3262      1.0000      1.0000      0.1790      0.3579      0.3579      0.7629
   1331.5000      0.2374      0.4161   -999.2500      1.2210      0.7626      2.7034      0.2374      0.1699      0.4161      0.4742      1.2210      2.3739   -999.2500    -11.1753    -50.0000   -999.2500    -17.6020    -11.1753      1.2867      1.0000      1.0000      0.1787      0.3574      0.3574      0.7626
   1332.0000      0.2399      0.4167   -999.2500      1.3080      0.7601      2.7016      0.2399      0.1700      0.4167      0.4752      1.3080      2.3631   -999.2500    -11.4288    -50.0000   -999.2500    -17.8560    -11.4288      1.2456      1.0000      1.0000      0.1768      0.3536      0.3536      0.7601
   1332.5000      0.2424      0.4173   -999.2500      1.3590      0.7576      2.6992      0.2424      0.1702      0.4173      0.4762      1.3590      2.3511   -999.2500    -11.6823    -50.0000   -999.2500    -18.1100    -11.6823      1.2259      1.0000      1.0000      0.1749      0.3498      0.3498      0.7576
   1333.0000      0.2414      0.4171   -999.2500      1.3910      0.7586      2.7006      0.2414      0.1701      0.4171      0.4758      1.3910      2.3568   -999.2500    -11.5758    -50.0000   -999.2500    -18.0040    -11.5758      1.2162      1.0000      1.0000      0.1757      0.3514      0.3514      0.7586
   1333.5000      0.2403      0.4168   -999.2500      1.4240      0.7597      2.7014      0.2403      0.1701      0.4168      0.4754      1.4240      2.3612   -999.2500    -11.4694    -50.0000   -999.2500    -17.8980    -11.4694      1.2064      1.0000      1.0000      0.1765      0.3530      0.3530      0.7597
   1334.0000      0.2403      0.4168   -999.2500      1.4200      0.7597      2.7014      0.2403      0.1701      0.4168      0.4754      1.4200      2.3611   -999.2500    -11.4699    -50.0000   -999.2500    -17.8990    -11.4699      1.2076      1.0000      1.0000      0.1765      0.3530      0.3530      0.7597
   1334.5000      0.2396      0.4166   -999.2500      1.3450      0.7604      2.7018      0.2396      0.1700      0.4166      0.4751      1.3450      2.3640   -999.2500    -11.4004    -50.0000   -999.2500    -17.8300    -11.4004      1.2328      1.0000      1.0000      0.1770      0.3540      0.3540      0.7604
