~V
VERS. 2.00: Ver 2.00
WRAP.   NO:        
~W
 STRT.FT 10:
 STOP.FT 5350:
 STEP.FT 0.5:
 NULL. -999.250000:
 COMP. Standard (Chevron):Company
 WELL. KCL 44-12:Well
 FLD. Pioneer:Field
 LOC. S32 T11N R22W:Location
 STAT. CA:State
 SRVC. :Service Company
 SON. :Service Order #
 DATE. :Log Date
 UWI. 0940400:Unique Well ID
~C
 DEPT.FT :
 GRS.RE/T :
 ILD.OHMM :
 LTHE. :
 MM. :
 NEUT.CPS :
 PHES. :
 PHMX. :
 PHTS. :
 PHZC. :
 RD.OHMM :
 ROS. :
 RS.OHMM :
 SBL.MV :
 SCLN. :
 SN.OHMM :
 SP.MV :
 SPN. :
 VCDS. :
 VCLY. :
 VCWS. :
 VSHS. :
~P
~A
# ...
   4026.5000      3.8340      3.5380      0.8500   -999.2500    229.8660      0.1500 49090916870222007100000000000.0000      0.5000 270000019174388625000000000000.0000      3.5380      0.4938     12.1060    -27.2816   -999.2500     12.1060    -67.1780    -77.9474      0.3500   -999.2500      0.7000      0.8500
   4027.0000      3.8180      3.5330      0.8500   -999.2500    230.7380      0.1500 49090916870222007100000000000.0000      0.5000 270000019174388625000000000000.0000      3.5330      0.4938     14.6280    -27.7168   -999.2500     14.6280    -67.6290    -79.1908      0.3500   -999.2500      0.7000      0.8500
   4027.5000      3.7610      3.5270      0.8500   -999.2500    231.6100      0.1500 49090916870222007100000000000.0000      0.5000 270000019174388625000000000000.0000      3.5270      0.4938     16.0330    -28.0259   -999.2500     16.0330    -67.9540    -80.0741      0.3500   -999.2500      0.7000      0.8500
   4028.0000      3.6940      3.5200      0.8500   -999.2500    232.4820      0.1500 49090916870222007100000000000.0000      0.5000 270000019174388625000000000000.0000      3.5200      0.4937     16.7900    -28.0461   -999.2500     16.7900    -67.9900    -80.1318      0.3500   -999.2500      0.7000      0.8500
   4028.5000      3.6150      3.5130      0.8500   -999.2500    234.3020      0.1500 49090916870222007100000000000.0000      0.5000 270000019174388625000000000000.0000      3.5130      0.4937     17.2580    -28.0663   -999.2500     17.2580    -68.0260    -80.1894      0.3500   -999.2500      0.7000      0.8500
   4029.0000      3.5820      3.4980      0.8500   -999.2500    235.9070      0.1500 49090916870222007100000000000.0000      0.5000 270000019174388625000000000000.0000      3.4980      0.4936     17.5100    -28.0335   -999.2500     17.5100    -68.0090    -80.0956      0.3500   -999.2500      0.7000      0.8500
   4029.5000      3.5640      3.4840      0.8500   -999.2500    236.8150      0.1500 49090916870222007100000000000.0000      0.5000 270000019174388625000000000000.0000      3.4840      0.4936     17.5100    -28.0016   -999.2500     17.5100    -67.9930    -80.0047      0.3500   -999.2500      0.7000      0.8500
   4030.0000      3.6090      3.4700      0.8500   -999.2500    237.5080      0.1500 49090916870222007100000000000.0000      0.5000 270000019174388625000000000000.0000      3.4700      0.4936     17.1860    -27.9498   -999.2500     17.1860    -67.9570    -79.8566      0.3500   -999.2500      0.7000      0.8500
   4030.5000      3.6720      3.4610      0.8500   -999.2500    238.2000      0.1500 49090916870222007100000000000.0000      0.5000 270000019174388625000000000000.0000      3.4610      0.4935     16.4650    -27.8980   -999.2500     16.4650    -67.9210    -79.7085      0.3500   -999.2500      0.7000      0.8500
   4031.0000      3.7630      3.4520      0.8500 -1000000015047466220000000000000.0000    238.7310      0.1500 49090916870222007100000000000.0000      0.5000 270000019174388625000000000000.0000      3.4520      0.4935     15.9250    -27.8291   -999.2500     15.9250    -67.8680    -79.5119      0.3500   -999.2500      0.7000      0.8500
   4031.5000      3.8340      3.4080      0.8500   -999.2500    237.3020      0.1500 49090916870222007100000000000.0000      0.5000 270000019174388625000000000000.0000      3.4080      0.4935     15.2770    -27.7603   -999.2500     15.2770    -67.8150    -79.3152      0.3500   -999.2500      0.7000      0.8500
   4032.0000      3.8410      3.3960      0.8500   -999.2500    235.8720      0.1500 49090916870222007100000000000.0000      0.5000 270000019174388625000000000000.0000      3.3960      0.4934     14.6280    -27.7445   -999.2500     14.6280    -67.8150    -79.2700      0.3500   -999.2500      0.7000      0.8500
   4032.5000      3.8140      3.3830      0.8500   -999.2500    233.3680      0.1500 49090916870222007100000000000.0000      0.5000 270000019174388625000000000000.0000      3.3830      0.4934     12.8620    -27.7297   -999.2500     12.8620    -67.8160    -79.2276      0.3500   -999.2500      0.7000      0.8500
   4033.0000      3.7870      3.3400      0.8500   -999.2500    230.8640      0.1500 49090916870222007100000000000.0000      0.5000 270000019174388625000000000000.0000      3.3400      0.4933     12.1780    -27.8588   -999.2500     12.1780    -67.9610    -79.5967      0.3500   -999.2500      0.7000      0.8500
   4033.5000      3.7670      3.3240      0.8500   -999.2500    228.7630      0.1500 49090916870222007100000000000.0000      0.5000 270000019174388625000000000000.0000      3.3240      0.4933     11.4930    -28.0240   -999.2500     11.4930    -68.1420    -80.0686      0.3500   -999.2500      0.7000      0.8500
   4034.0000      3.7490      3.3080      0.8500   -999.2500    226.8230      0.1500 49090916870222007100000000000.0000      0.5000 270000019174388625000000000000.0000      3.3080      0.4933     11.1330    -28.1892   -999.2500     11.1330    -68.3230    -80.5405      0.3500   -999.2500      0.7000      0.8500
   4034.5000      3.7330      3.2610      0.8500   -999.2500    224.9370      0.1500 49090916870222007100000000000.0000      0.5000 270000019174388625000000000000.0000      3.2610      0.4932     10.7730    -28.2814   -999.2500     10.7730    -68.4310    -80.8039      0.3500   -999.2500      0.7000      0.8500
   4035.0000      3.7600      3.2190      0.8500   -999.2500    223.3730      0.1500 49090916870222007100000000000.0000      0.5000 270000019174388625000000000000.0000      3.2190      0.4932     10.0880    -28.3735   -999.2500     10.0880    -68.5390    -81.0672      0.3500   -999.2500      0.7000      0.8500
   4035.5000      3.7880      3.1780      0.8500   -999.2500    222.5620      0.1500 49090916870222007100000000000.0000      0.5000 270000019174388625000000000000.0000      3.1780      0.4932      8.9930    -28.5387   -999.2500      8.9930    -68.7200    -81.5392      0.3500   -999.2500      0.7000      0.8500
   4036.0000      3.8190      3.1380      0.8500   -999.2500    221.7500      0.1500 49090916870222007100000000000.0000      0.5000 270000019174388625000000000000.0000      3.1380      0.4931      8.7520    -28.7759   -999.2500      8.7520    -68.9730    -82.2168      0.3500   -999.2500      0.7000      0.8500
   4036.5000      3.8500      3.0990      0.8500 -1000000166163193670000000000000.0000    220.6700      0.1500 49090916870222007100000000000.0000      0.5000 270000019174388625000000000000.0000      3.0990      0.4931      8.5640    -29.1921   -999.2500      8.5640    -69.4050    -83.4059      0.3500   -999.2500      0.7000      0.8500
   4037.0000      3.8450      3.0120      0.8500   -999.2500    219.4820      0.1500 49090916870222007100000000000.0000      0.5000 270000019174388625000000000000.0000      3.0120      0.4930      8.3440    -29.5722   -999.2500      8.3440    -69.8010    -84.4921      0.3500   -999.2500      0.7000      0.8500
   4037.5000      3.8390      2.9360      0.8500   -999.2500    218.7780      0.1500 49090916870222007100000000000.0000      0.5000 270000019174388625000000000000.0000      2.9360      0.4930      8.0490    -30.0254   -999.2500      8.0490    -70.2700    -85.7868      0.3500   -999.2500      0.7000      0.8500
   4038.0000      3.7650      2.8860      0.8500   -999.2500    218.0740      0.1500 49090916870222007100000000000.0000      0.5000 270000019174388625000000000000.0000      2.8860      0.4930      8.0600    -29.9386   -999.2500      8.0600    -70.1990    -85.5388      0.3500   -999.2500      0.7000      0.8500
   4038.5000      3.7150      2.8720      0.8500   -999.2500    216.6700      0.1500 49090916870222007100000000000.0000      0.5000 270000019174388625000000000000.0000      2.8720      0.4929      8.1680    -29.4197   -999.2500      8.1680    -69.6960    -84.0564      0.3500   -999.2500      0.7000      0.8500
   4039.0000      3.7090      2.8610      0.8500   -999.2500    215.8050      0.1500 49090916870222007100000000000.0000      0.5000 270000019174388625000000000000.0000      2.8610      0.4929      8.3550    -28.7219   -999.2500      8.3550    -69.0140    -82.0626      0.3500   -999.2500      0.7000      0.8500
