~V
VERS. 2.00: Ver 2.00
WRAP.   NO:        
~W
 STRT.FT 10:
 STOP.FT 5350:
 STEP.FT 0.5:
 NULL. -999.250000:
 COMP. Standard (Chevron):Company
 WELL. KCL 44-12:Well
 FLD. Pioneer:Field
 LOC. S32 T11N R22W:Location
 STAT. CA:State
 SRVC. :Service Company
 SON. :Service Order #
 DATE. :Log Date
 UWI. 0940400:Unique Well ID
~C
 DEPT.FT :
 GRS.RE/T :
 ILD.OHMM :
 LTHE. :
 MM. :
 NEUT.CPS :
 PHES. :
 PHMX. :
 PHTS. :
 PHZC. :
 RD.OHMM :
 ROS. :
 RS.OHMM :
 SBL.MV :
 SCLN. :
 SN.OHMM :
 SP.MV :
 SPN. :
 VCDS. :
 VCLY. :
 VCWS. :
 VSHS. :
~P
~A
# ...
   1510.5000   -999.2500      1.1390      0.6241      2.0294   -999.2500      0.3759      0.1798      0.4461      0.5288      1.1390      1.1714      1.2980    -22.8031   -135.7048      1.2980    -64.0890    -65.1518      0.0702      0.1404      0.1404      0.4682
   1511.0000   -999.2500      1.1460      0.6238      2.0276   -999.2500      0.3762      0.1798      0.4462      0.5290      1.1460      1.1694      1.2920    -22.9043   -135.7080      1.2920    -64.1980    -65.4410      0.0699      0.1399      0.1399      0.4662
   1511.5000   -999.2500      1.1560      0.6250      2.0336   -999.2500      0.3750      0.1797      0.4459      0.5285      1.1560      1.1759      1.2860    -22.5745   -135.7113      1.2860    -63.8760    -64.4987      0.0709      0.1418      0.1418      0.4725
   1512.0000   -999.2500      1.1780      0.6269      2.0428   -999.2500      0.3731      0.1796      0.4454      0.5277      1.1780      1.1861      1.2750    -22.0677   -135.7145      1.2750    -63.3770    -63.0507      0.0723      0.1446      0.1446      0.4821
   1512.5000   -999.2500      1.1880      0.6301      2.0586   -999.2500      0.3699      0.1793      0.4446      0.5263      1.1880      1.2038      1.2750    -21.2029   -135.7177      1.2750    -62.5200    -60.5798      0.0748      0.1496      0.1496      0.4985
   1513.0000   -999.2500      1.2020      0.6355      2.0845   -999.2500      0.3645      0.1789      0.4434      0.5241      1.2020      1.2337      1.2820    -20.5871   -135.7210      1.2820    -61.9120    -58.8203      0.0788      0.1577      0.1577      0.5255
   1513.5000   -999.2500      1.2110      0.6442      2.1272   -999.2500      0.3558      0.1783      0.4413      0.5205      1.2110      1.2850      1.2920    -19.6503   -135.7242      1.2920    -60.9830    -56.1438      0.0855      0.1710      0.1710      0.5700
   1514.0000   -999.2500      1.2200      0.6516      2.1633   -999.2500      0.3484      0.1777      0.4395      0.5175      1.2200      1.3306      1.3140    -18.8565   -135.7275      1.3140    -60.1970    -53.8757      0.0911      0.1823      0.1823      0.6076
   1514.5000   -999.2500      1.2270      0.6470      2.1408   -999.2500      0.3530      0.1781      0.4406      0.5194      1.2270      1.3019      1.3240    -19.3507   -135.7307      1.3240    -60.6990    -55.2877      0.0876      0.1753      0.1753      0.5842
   1515.0000   -999.2500      1.2440      0.6421      2.1168   -999.2500      0.3579      0.1784      0.4418      0.5214      1.2440      1.2721      1.3130    -19.8809   -135.7340      1.3130    -61.2370    -56.8026      0.0839      0.1677      0.1677      0.5591
   1515.5000   -999.2500      1.2480      0.6342      2.0780   -999.2500      0.3658      0.1790      0.4436      0.5246      1.2480      1.2259      1.3060    -20.7331   -135.7372      1.3060    -62.0970    -59.2374      0.0778      0.1556      0.1556      0.5188
   1516.0000   -999.2500      1.2620      0.6321      2.0678   -999.2500      0.3679      0.1792      0.4441      0.5255      1.2620      1.2141      1.2910    -20.9583   -135.7404      1.2910    -62.3300    -59.8808      0.0762      0.1524      0.1524      0.5081
   1516.5000   -999.2500      1.2710      0.6303      2.0590   -999.2500      0.3697      0.1793      0.4445      0.5262      1.2710      1.2041      1.2800    -21.1825   -135.7437      1.2800    -62.5620    -60.5214      0.0749      0.1497      0.1497      0.4990
   1517.0000   -999.2500      1.2790      0.6387      2.1002   -999.2500      0.3613      0.1787      0.4425      0.5227      1.2790      1.2519      1.2690    -20.2477   -135.7469      1.2690    -61.6350    -57.8505      0.0813      0.1626      0.1626      0.5418
   1517.5000   -999.2500      1.2900      0.6485      2.1477   -999.2500      0.3515      0.1779      0.4402      0.5187      1.2900      1.3104      1.2650    -19.2029   -135.7502      1.2650    -60.5980    -54.8654      0.0887      0.1774      0.1774      0.5914
   1518.0000   -999.2500      1.2950      0.6459      2.1350   -999.2500      0.3541      0.1781      0.4408      0.5198      1.2950      1.2944      1.2610    -19.4821   -135.7534      1.2610    -60.8850    -55.6631      0.0867      0.1735      0.1735      0.5782
   1518.5000   -999.2500      1.3000      0.6330      2.0719   -999.2500      0.3670      0.1791      0.4439      0.5251      1.3000      1.2186      1.2660    -20.8713   -135.7567      1.2660    -62.2820    -59.6322      0.0769      0.1537      0.1537      0.5124
   1519.0000   -999.2500      1.3070      0.6296      2.0551   -999.2500      0.3704      0.1794      0.4447      0.5265      1.3070      1.1995      1.2710    -21.4005   -135.7599      1.2710    -62.8190    -61.1442      0.0742      0.1485      0.1485      0.4949
   1519.5000   -999.2500      1.3140      0.6292      2.0533   -999.2500      0.3708      0.1794      0.4447      0.5266      1.3140      1.1974      1.2890    -21.5017   -135.7632      1.2890    -62.9280    -61.4333      0.0740      0.1479      0.1479      0.4930
   1520.0000   -999.2500      1.3210      0.6281      2.0476   -999.2500      0.3719      0.1795      0.4450      0.5271      1.3210      1.1909      1.3100    -21.8169   -135.7664      1.3100    -63.2510    -62.3339      0.0731      0.1461      0.1461      0.4871
   1520.5000   -999.2500      1.3240      0.6250      2.0327   -999.2500      0.3750      0.1797      0.4457      0.5283      1.3240      1.1744      1.3240    -22.6330   -135.7697      1.3240    -64.0750    -64.6658      0.0707      0.1415      0.1415      0.4716
   1521.0000   -999.2500      1.3280      0.6262      2.0381   -999.2500      0.3738      0.1796      0.4454      0.5279      1.3280      1.1802      1.3380    -22.3392   -135.7729      1.3380    -63.7890    -63.8264      0.0716      0.1432      0.1432      0.4772
   1521.5000   -999.2500      1.3350      0.6306      2.0597   -999.2500      0.3694      0.1793      0.4444      0.5261      1.3350      1.2045      1.3600    -21.1524   -135.7761      1.3600    -62.6100    -60.4355      0.0750      0.1499      0.1499      0.4997
   1522.0000   -999.2500      1.3420      0.6386      2.0986   -999.2500      0.3614      0.1787      0.4425      0.5228      1.3420      1.2497      1.3740    -20.2876   -135.7794      1.3740    -61.7530    -57.9647      0.0810      0.1621      0.1621      0.5402
   1522.5000   -999.2500      1.3480      0.6500      2.1542   -999.2500      0.3500      0.1778      0.4398      0.5181      1.3480      1.3183      1.3880    -19.0648   -135.7826      1.3880    -60.5380    -54.4709      0.0897      0.1794      0.1794      0.5982
   1523.0000   -999.2500      1.3540      0.6560      2.1839   -999.2500      0.3440      0.1774      0.4383      0.5155      1.3540      1.3568      1.4020    -18.4130   -135.7859      1.4020    -59.8940    -52.6086      0.0944      0.1887      0.1887      0.6291
   1523.5000   -999.2500      1.3590      0.6671      2.2379   -999.2500      0.3329      0.1765      0.4357      0.5110      1.3590      1.4306      1.4060    -17.2262   -135.7891      1.4060    -58.7150    -49.2178      0.1028      0.2056      0.2056      0.6671
   1524.0000   -999.2500      1.3620      0.6782      2.2919   -999.2500      0.3218      0.1757      0.4330      0.5064      1.3620      1.5097      1.4040    -16.0394   -135.7923      1.4040    -57.5360    -45.8269      0.1112      0.2225      0.2225      0.6782
   1524.5000   -999.2500      1.3650      0.6837      2.3182   -999.2500      0.3163      0.1753      0.4317      0.5042      1.3650      1.5502      1.4020    -15.4606   -135.7956      1.4020    -56.9650    -44.1732      0.1153      0.2307      0.2307      0.6837
   1525.0000   -999.2500      1.3650      0.6847      2.3235   -999.2500      0.3153      0.1752      0.4314      0.5037      1.3650      1.5584      1.3990    -15.3458   -135.7988      1.3990    -56.8580    -43.8452      0.1162      0.2323      0.2323      0.6847
   1525.5000   -999.2500      1.3650      0.6801      2.3010   -999.2500      0.3199      0.1756      0.4325      0.5056      1.3650      1.5234      1.3970    -15.8400   -135.8021      1.3970    -57.3600    -45.2571      0.1127      0.2253      0.2253      0.6801
