~V
VERS. 2.00: Ver 2.00
WRAP.   NO:        
~W
 STRT.FT 30:
 STOP.FT 4840:
 STEP.FT 0.5:
 NULL. -999.250000:
 COMP. Standard (Chevron):Company
 WELL. KCL 44-23:Well
 FLD. Pioneer:Field
 LOC. S32 T11N R22W:Location
 STAT. CA:State
 SRVC. :Service Company
 SON. :Service Order #
 DATE. :Log Date
 UWI. 0940500:Unique Well ID
~C
 DEPT.FT :
 BVES. :
 BVTS. :
 FACE. :
 GR.RE/T :
 GRS.RE/T :
 ILD.OHMM :
 LTHE. :
 MM. :
 NEUT.CPS :
 PHES. :
 PHMX. :
 PHTS. :
 PHZC. :
 RD.OHMM :
 ROS. :
 RS.OHMM :
 SBL.MV :
 SCLN. :
 SN.OHMM :
 SP.MV :
 SPN.RE/T :
 STUS. :
 SWES. :
 SWTS. :
 VCDS. :
 VCLY. :
 VCWS. :
 VSHS. :
~P
~A
# ...
   1643.0000      0.3350      0.4236      2.0000   -999.2500   -999.2500      1.3890      0.6515      2.1471   -999.2500      0.3485      0.1775      0.4372      0.5160      1.3890      1.3004      1.5150    -18.5340    -70.6436      1.5150    -59.1630    -24.7120      0.9689      0.9610      0.9689      0.0886      0.1772      0.1772      0.5908
   1643.5000      0.3321      0.4317      3.0000   -999.2500   -999.2500      1.4070      0.6660      2.2178   -999.2500      0.3340      0.1764      0.4337      0.5100      1.4070      1.3932      1.5250    -16.6479    -70.6610      1.5250    -57.2660    -22.1972      0.9954      0.9940      0.9954      0.0997      0.1993      0.1993      0.6644
   1644.0000      0.3138      0.4288      3.0000   -999.2500   -999.2500      1.4190      0.6862      2.3165   -999.2500      0.3138      0.1749      0.4288      0.5017      1.4190      1.5373      1.5390    -14.0108    -70.6785      1.5390    -54.6180    -18.6810      1.0329      1.0000      1.0000      0.1151      0.2302      0.2302      0.6862
   1644.5000      0.2992      0.4253      3.0000   -999.2500   -999.2500      1.4320      0.7008      2.3871   -999.2500      0.2992      0.1738      0.4253      0.4957      1.4320      1.6521      1.5570    -12.1256    -70.6959      1.5570    -52.7220    -16.1675      1.0567      1.0000      1.0000      0.1261      0.2522      0.2522      0.7008
   1645.0000      0.3163      0.4294      3.0000   -999.2500   -999.2500      1.4390      0.6837      2.3039   -999.2500      0.3163      0.1750      0.4294      0.5027      1.4390      1.5177      1.6360    -14.3605    -70.7134      1.6360    -54.9460    -19.1473      1.0219      1.0000      1.0000      0.1131      0.2262      0.2262      0.6837
   1645.5000      0.3241      0.4313      3.0000   -999.2500   -999.2500      1.4490      0.6759      2.2661   -999.2500      0.3241      0.1756      0.4313      0.5059      1.4490      1.4614      1.6430    -15.3763    -70.7308      1.6430    -55.9510    -20.5018      1.0036      1.0000      1.0000      0.1072      0.2144      0.2144      0.6759
   1646.0000      0.3243      0.4300      3.0000   -999.2500   -999.2500      1.4600      0.6740      2.2565   -999.2500      0.3260      0.1758      0.4318      0.5067      1.4600      1.4474      1.6320    -15.6402    -70.7482      1.6320    -56.2040    -20.8536      0.9960      0.9947      0.9960      0.1057      0.2114      0.2114      0.6740
   1646.5000      0.3243      0.4310      3.0000   -999.2500   -999.2500      1.4600      0.6753      2.2629   -999.2500      0.3247      0.1757      0.4314      0.5062      1.4600      1.4565      1.6250    -15.4751    -70.7657      1.6250    -56.0280    -20.6334      0.9989      0.9985      0.9989      0.1067      0.2134      0.2134      0.6753
   1647.0000      0.3237      0.4312      3.0000   -999.2500   -999.2500      1.4600      0.6763      2.2679   -999.2500      0.3237      0.1756      0.4312      0.5057      1.4600      1.4638      1.6210    -15.3449    -70.7831      1.6210    -55.8870    -20.4599      1.0011      1.0000      1.0000      0.1075      0.2150      0.2150      0.6763
   1647.5000      0.3226      0.4309      3.0000   -999.2500   -999.2500      1.4490      0.6774      2.2730   -999.2500      0.3226      0.1755      0.4309      0.5053      1.4490      1.4712      1.6170    -15.2148    -70.8006      1.6170    -55.7460    -20.2864      1.0063      1.0000      1.0000      0.1083      0.2166      0.2166      0.6774
   1648.0000      0.3276      0.4262      3.0000   -999.2500   -999.2500      1.4380      0.6647      2.2112   -999.2500      0.3353      0.1765      0.4339      0.5105      1.4380      1.3838      1.6190    -16.8767    -70.8180      1.6190    -57.3970    -22.5022      0.9822      0.9769      0.9822      0.0986      0.1973      0.1973      0.6575
   1648.5000      0.3283      0.4208      3.0000   -999.2500   -999.2500      1.4340      0.6567      2.1722   -999.2500      0.3433      0.1770      0.4358      0.5138      1.4340      1.3320      1.6210    -17.9285    -70.8354      1.6210    -58.4380    -23.9047      0.9656      0.9563      0.9656      0.0925      0.1851      0.1851      0.6169
   1649.0000      0.3283      0.4137      2.0000   -999.2500   -999.2500      1.4340      0.6474      2.1265   -999.2500      0.3526      0.1777      0.4380      0.5176      1.4340      1.2745      1.6280    -19.1594    -70.8529      1.6280    -59.6580    -25.5459      0.9445      0.9311      0.9445      0.0854      0.1708      0.1708      0.5693
   1649.5000      0.3286      0.4054      2.0000   -999.2500   -999.2500      1.4310      0.6361      2.0715   -999.2500      0.3639      0.1786      0.4407      0.5222      1.4310      1.2093      1.6350    -20.6423    -70.8703      1.6350    -61.1300    -27.5230      0.9201      0.9032      0.9201      0.0768      0.1536      0.1536      0.5120
   1650.0000      0.3291      0.4025      2.0000   -999.2500   -999.2500      1.4270      0.6316      2.0496   -999.2500      0.3684      0.1789      0.4417      0.5241      1.4270      1.1844      1.6420    -21.6581    -70.8877      1.6420    -62.1350    -28.8775      0.9111      0.8934      0.9111      0.0734      0.1467      0.1467      0.4891
   1650.5000      0.3290      0.4010      2.0000   -999.2500   -999.2500      1.4270      0.6298      2.0404   -999.2500      0.3702      0.1791      0.4422      0.5248      1.4270      1.1742      1.6580    -22.2810    -70.9052      1.6580    -62.7470    -29.7080      0.9068      0.8887      0.9068      0.0719      0.1439      0.1439      0.4796
   1651.0000      0.3286      0.4003      2.0000   -999.2500   -999.2500      1.4300      0.6296      2.0392   -999.2500      0.3704      0.1791      0.4422      0.5249      1.4300      1.1729      1.6740    -22.3658    -70.9226      1.6740    -62.8210    -29.8211      0.9053      0.8870      0.9053      0.0718      0.1435      0.1435      0.4784
   1651.5000      0.3280      0.3992      2.0000   -999.2500   -999.2500      1.4340      0.6289      2.0359   -999.2500      0.3711      0.1791      0.4423      0.5252      1.4340      1.1693      1.6920    -22.5937    -70.9400      1.6920    -63.0380    -30.1249      0.9025      0.8838      0.9025      0.0712      0.1425      0.1425      0.4749
   1652.0000      0.3267      0.3971      2.0000   -999.2500   -999.2500      1.4430      0.6279      2.0310   -999.2500      0.3721      0.1792      0.4426      0.5256      1.4430      1.1639      1.7090    -22.9296    -70.9575      1.7090    -63.3630    -30.5728      0.8974      0.8779      0.8974      0.0705      0.1409      0.1409      0.4698
   1652.5000      0.3255      0.3952      2.0000   -999.2500   -999.2500      1.4510      0.6269      2.0261   -999.2500      0.3731      0.1793      0.4428      0.5260      1.4510      1.1585      1.7490    -23.2644    -70.9749      1.7490    -63.6870    -31.0192      0.8926      0.8725      0.8926      0.0697      0.1394      0.1394      0.4647
   1653.0000      0.3221      0.3891      2.0000   -999.2500   -999.2500      1.4730      0.6233      2.0084   -999.2500      0.3767      0.1795      0.4436      0.5275      1.4730      1.1395      1.7910    -24.4613    -70.9924      1.7910    -64.8730    -32.6151      0.8770      0.8552      0.8770      0.0669      0.1339      0.1339      0.4463
   1653.5000      0.3196      0.3841      2.0000   -999.2500   -999.2500      1.4940      0.6202      1.9929   -999.2500      0.3798      0.1798      0.4444      0.5288      1.4940      1.1231      1.8150    -25.5132    -71.0098      1.8150    -65.9140    -34.0176      0.8644      0.8414      0.8644      0.0645      0.1290      0.1290      0.4301
   1654.0000      0.3142      0.3769      2.0000   -999.2500   -999.2500      1.5330      0.6177      1.9811   -999.2500      0.3823      0.1800      0.4449      0.5298      1.5330      1.1109      1.8380    -26.3150    -71.0272      1.8380    -66.7050    -35.0867      0.8470      0.8220      0.8470      0.0627      0.1253      0.1253      0.4178
