~V
VERS. 2.00: Ver 2.00
WRAP.   NO:        
~W
 STRT.FT 35:
 STOP.FT 5500:
 STEP.FT 0.5:
 NULL. -999.250000:
 COMP. Standard (Chevron):Company
 WELL. KCL 45-56:Well
 FLD. :Field
 LOC. S30 T11N R22W:Location
 STAT. CA:State
 SRVC. :Service Company
 SON. :Service Order #
 DATE. :Log Date
 UWI. 0369100:Unique Well ID
~C
 DEPT.FT :
 BVES. :
 BVTS. :
 ILD.OHMM :
 LLD.OHMM :
 LTHE. :
 MM. :
 PHES. :
 PHMX. :
 PHTS. :
 PHZC. :
 RD.OHMM :
 ROS. :
 RS.OHMM :
 SBL.MV :
 SCLN. :
 SN.OHMM :
 SP.MV :
 SPN. :
 STUS. :
 SWES. :
 SWTS. :
 VCDS. :
 VCLY. :
 VCWS. :
 VSHS. :
~P
~A
# ...
   1192.0000      0.2358      0.4183   -999.2500      1.5070      0.7642      2.7069      0.2358      0.1700      0.4183      0.4752      1.5070      2.4187   -999.2500    -10.6713    -50.0000   -999.2500    -16.9630    -10.6713      1.1913      1.0000      1.0000      0.1825      0.3649      0.3649      0.7642
   1192.5000      0.2361      0.4184   -999.2500      1.5280      0.7639      2.7067      0.2361      0.1701      0.4184      0.4754      1.5280      2.4173   -999.2500    -10.7018    -50.0000   -999.2500    -16.9940    -10.7018      1.1849      1.0000      1.0000      0.1822      0.3645      0.3645      0.7639
   1193.0000      0.2361      0.4183   -999.2500      1.4990      0.7639      2.7067      0.2361      0.1701      0.4183      0.4753      1.4990      2.4175   -999.2500    -10.6953    -50.0000   -999.2500    -16.9880    -10.6953      1.1934      1.0000      1.0000      0.1823      0.3646      0.3646      0.7639
   1193.5000      0.2360      0.4183   -999.2500      1.4190      0.7640      2.7068      0.2360      0.1701      0.4183      0.4753      1.4190      2.4177   -999.2500    -10.6898    -50.0000   -999.2500    -16.9830    -10.6898      1.2180      1.0000      1.0000      0.1823      0.3647      0.3647      0.7640
   1194.0000      0.2356      0.4182   -999.2500      1.3610      0.7644      2.7071      0.2356      0.1700      0.4182      0.4751      1.3610      2.4194   -999.2500    -10.6473    -50.0000   -999.2500    -16.9410    -10.6473      1.2374      1.0000      1.0000      0.1826      0.3653      0.3653      0.7644
   1194.5000      0.2341      0.4178   -999.2500      1.7890      0.7659      2.7081      0.2341      0.1699      0.4178      0.4745      1.7890      2.4260   -999.2500    -10.4979    -50.0000   -999.2500    -16.7920    -10.4979      1.1190      1.0000      1.0000      0.1838      0.3675      0.3675      0.7659
   1195.0000      0.2325      0.4174   -999.2500      1.9930      0.7675      2.7091      0.2325      0.1698      0.4174      0.4739      1.9930      2.4326   -999.2500    -10.3474    -50.0000   -999.2500    -16.6420    -10.3474      1.0762      1.0000      1.0000      0.1849      0.3698      0.3698      0.7675
   1195.5000      0.2314      0.4171   -999.2500      2.1440      0.7686      2.7099      0.2314      0.1697      0.4171      0.4734      2.1440      2.4375   -999.2500    -10.2339    -50.0000   -999.2500    -16.5290    -10.2339      1.0483      1.0000      1.0000      0.1857      0.3715      0.3715      0.7686
   1196.0000      0.2356      0.4182   -999.2500      2.2160      0.7644      2.7070      0.2356      0.1700      0.4182      0.4751      2.2160      2.4185   -999.2500    -10.6604    -50.0000   -999.2500    -16.9560    -10.6604      1.0278      1.0000      1.0000      0.1825      0.3651      0.3651      0.7644
   1196.5000      0.2377      0.4187   -999.2500      2.2760      0.7623      2.7055      0.2377      0.1702      0.4187      0.4760      2.2760      2.4092   -999.2500    -10.8699    -50.0000   -999.2500    -17.1660    -10.8699      1.0180      1.0000      1.0000      0.1810      0.3620      0.3620      0.7623
   1197.0000      0.2391      0.4190   -999.2500      2.3440      0.7609      2.7046      0.2391      0.1703      0.4190      0.4765      2.3440      2.4031   -999.2500    -11.0084    -50.0000   -999.2500    -17.3050    -11.0084      1.0078      1.0000      1.0000      0.1799      0.3599      0.3599      0.7609
   1197.5000      0.2394      0.4191   -999.2500      2.2830      0.7606      2.7043      0.2394      0.1703      0.4191      0.4766      2.2830      2.4017   -999.2500    -11.0390    -50.0000   -999.2500    -17.3360    -11.0390      1.0160      1.0000      1.0000      0.1797      0.3594      0.3594      0.7606
   1198.0000      0.2411      0.4195   -999.2500      1.8710      0.7589      2.7031      0.2411      0.1704      0.4195      0.4773      1.8710      2.3940   -999.2500    -11.2135    -50.0000   -999.2500    -17.5110    -11.2135      1.0954      1.0000      1.0000      0.1784      0.3568      0.3568      0.7589
   1198.5000      0.2417      0.4196   -999.2500      1.7120      0.7583      2.7027      0.2417      0.1705      0.4196      0.4776      1.7120      2.3911   -999.2500    -11.2790    -50.0000   -999.2500    -17.5770    -11.2790      1.1316      1.0000      1.0000      0.1779      0.3558      0.3558      0.7583
   1199.0000      0.2424      0.4198   -999.2500      1.4420      0.7576      2.7022      0.2424      0.1705      0.4198      0.4778      1.4420      2.3881   -999.2500    -11.3455    -50.0000   -999.2500    -17.6440    -11.3455      1.2057      1.0000      1.0000      0.1774      0.3548      0.3548      0.7576
   1199.5000      0.2344      0.4178   -999.2500      1.3940      0.7656      2.7078      0.2344      0.1699      0.4178      0.4746      1.3940      2.4229   -999.2500    -10.5470    -50.0000   -999.2500    -16.8460    -10.5470      1.2270      1.0000      1.0000      0.1834      0.3668      0.3668      0.7656
   1200.0000      0.2300      0.4167   -999.2500      1.4440      0.7700      2.7108      0.2300      0.1696      0.4167      0.4728      1.4440      2.4423   -999.2500    -10.1085    -50.0000   -999.2500    -16.4080    -10.1085      1.2143      1.0000      1.0000      0.1867      0.3734      0.3734      0.7700
   1200.5000      0.2283      0.4163   -999.2500      1.4800      0.7717      2.7120      0.2283      0.1695      0.4163      0.4721      1.4800      2.4501   -999.2500     -9.9330    -50.0000   -999.2500    -16.2330     -9.9330      1.2046      1.0000      1.0000      0.1880      0.3760      0.3760      0.7717
   1201.0000      0.2265      0.4158   -999.2500      1.5090      0.7735      2.7132      0.2265      0.1693      0.4158      0.4714      1.5090      2.4579   -999.2500     -9.7586    -50.0000   -999.2500    -16.0590     -9.7586      1.1972      1.0000      1.0000      0.1893      0.3786      0.3786      0.7735
   1201.5000      0.2255      0.4156   -999.2500      1.5340      0.7745      2.7139      0.2255      0.1693      0.4156      0.4709      1.5340      2.4625   -999.2500     -9.6551    -50.0000   -999.2500    -15.9560     -9.6551      1.1907      1.0000      1.0000      0.1901      0.3802      0.3802      0.7745
   1202.0000      0.2241      0.4152   -999.2500      1.5340      0.7759      2.7149      0.2241      0.1692      0.4152      0.4703      1.5340      2.4687   -999.2500     -9.5156    -50.0000   -999.2500    -15.8170     -9.5156      1.1917      1.0000      1.0000      0.1911      0.3823      0.3823      0.7759
   1202.5000      0.2306      0.4168   -999.2500      1.4480      0.7694      2.7104      0.2306      0.1696      0.4168      0.4730      1.4480      2.4391   -999.2500    -10.1701    -50.0000   -999.2500    -16.4720    -10.1701      1.2125      1.0000      1.0000      0.1862      0.3724      0.3724      0.7694
   1203.0000      0.2342      0.4177   -999.2500      1.5700      0.7658      2.7078      0.2342      0.1699      0.4177      0.4744      1.5700      2.4228   -999.2500    -10.5346    -50.0000   -999.2500    -16.8370    -10.5346      1.1739      1.0000      1.0000      0.1835      0.3670      0.3670      0.7658
   1203.5000      0.2353      0.4180   -999.2500      1.7360      0.7647      2.7071      0.2353      0.1700      0.4180      0.4749      1.7360      2.4178   -999.2500    -10.6471    -50.0000   -999.2500    -16.9500    -10.6471      1.1301      1.0000      1.0000      0.1826      0.3653      0.3653      0.7647
   1204.0000      0.2336      0.4175   -999.2500      1.9450      0.7664      2.7083      0.2336      0.1699      0.4175      0.4742      1.9450      2.4254   -999.2500    -10.4727    -50.0000   -999.2500    -16.7760    -10.4727      1.0848      1.0000      1.0000      0.1840      0.3679      0.3679      0.7664
   1204.5000      0.2329      0.4173   -999.2500      2.0490      0.7671      2.7087      0.2329      0.1698      0.4173      0.4739      2.0490      2.4283   -999.2500    -10.4052    -50.0000   -999.2500    -16.7090    -10.4052      1.0645      1.0000      1.0000      0.1845      0.3689      0.3689      0.7671
