~V
VERS. 2.00: Ver 2.00
WRAP.   NO:        
~W
 STRT.FT 10:
 STOP.FT 5350:
 STEP.FT 0.5:
 NULL. -999.250000:
 COMP. Standard (Chevron):Company
 WELL. KCL 44-12:Well
 FLD. Pioneer:Field
 LOC. S32 T11N R22W:Location
 STAT. CA:State
 SRVC. :Service Company
 SON. :Service Order #
 DATE. :Log Date
 UWI. 0940400:Unique Well ID
~C
 DEPT.FT :
 GRS.RE/T :
 ILD.OHMM :
 LTHE. :
 MM. :
 NEUT.CPS :
 PHES. :
 PHMX. :
 PHTS. :
 PHZC. :
 RD.OHMM :
 ROS. :
 RS.OHMM :
 SBL.MV :
 SCLN. :
 SN.OHMM :
 SP.MV :
 SPN. :
 VCDS. :
 VCLY. :
 VCWS. :
 VSHS. :
~P
~A
# ...
   3051.5000   -999.2500      2.9890      0.8500   -999.2500   -999.2500      0.1500 49090916870222007100000000000.0000      0.5000 270000019174388625000000000000.0000      2.9890      0.5806      3.7780    -16.9525   -999.2500      3.7780    -53.4670    -48.4356      0.3500   -999.2500      0.7000      0.8500
   3052.0000   -999.2500      2.9860      0.8500   -999.2500   -999.2500      0.1500 49090916870222007100000000000.0000      0.5000 270000019174388625000000000000.0000      2.9860      0.5806      4.0010    -18.7112   -999.2500      4.0010    -55.2240    -53.4606      0.3500   -999.2500      0.7000      0.8500
   3052.5000   -999.2500      2.9790      0.8500   -999.2500   -999.2500      0.1500 49090916870222007100000000000.0000      0.5000 270000019174388625000000000000.0000      2.9790      0.5805      4.2030    -20.3260   -999.2500      4.2030    -56.8370    -58.0743      0.3500   -999.2500      0.7000      0.8500
   3053.0000   -999.2500      3.0440      0.8500   -999.2500   -999.2500      0.1500 49090916870222007100000000000.0000      0.5000 270000019174388625000000000000.0000      3.0440      0.5805      4.3330    -20.9377   -999.2500      4.3330    -57.4470    -59.8221      0.3500   -999.2500      0.7000      0.8500
   3053.5000   -999.2500      3.1090      0.8500   -999.2500   -999.2500      0.1500 49090916870222007100000000000.0000      0.5000 270000019174388625000000000000.0000      3.1090      0.5804      4.2400    -18.7205   -999.2500      4.2400    -55.2280    -53.4872      0.3500   -999.2500      0.7000      0.8500
   3054.0000   -999.2500      3.1850      0.8500   -999.2500   -999.2500      0.1500 49090916870222007100000000000.0000      0.5000 270000019174388625000000000000.0000      3.1850      0.5804      4.0380    -13.0283   -999.2500      4.0380    -49.5340    -37.2236      0.3500   -999.2500      0.7000      0.8500
   3054.5000   -999.2500      3.2170      0.8500   -999.2500   -999.2500      0.1500 49090916870222007100000000000.0000      0.5000 270000019174388625000000000000.0000      3.2170      0.5803      3.8330    -11.8130   -999.2500      3.8330    -48.3170    -33.7515      0.3500   -999.2500      0.7000      0.8500
   3055.0000   -999.2500      3.1920      0.8500   -999.2500   -999.2500      0.1500 49090916870222007100000000000.0000      0.5000 270000019174388625000000000000.0000      3.1920      0.5803      3.6960    -13.1058   -999.2500      3.6960    -49.6080    -37.4451      0.3500   -999.2500      0.7000      0.8500
   3055.5000   -999.2500      3.1740      0.8500 -1000000015047466220000000000000.0000   -999.2500      0.1500 49090916870222007100000000000.0000      0.5000 270000019174388625000000000000.0000      3.1740      0.5802      3.7360    -15.2946   -999.2500      3.7360    -51.7950    -43.6987      0.3500   -999.2500      0.7000      0.8500
   3056.0000   -999.2500      3.1710      0.8500 -1000000166163193670000000000000.0000   -999.2500      0.1500 49090916870222007100000000000.0000      0.5000 270000019174388625000000000000.0000      3.1710      0.5801      3.8010    -15.1893   -999.2500      3.8010    -51.6880    -43.3981      0.3500   -999.2500      0.7000      0.8500
   3056.5000   -999.2500      3.1930      0.8500   -999.2500   -999.2500      0.1500 49090916870222007100000000000.0000      0.5000 270000019174388625000000000000.0000      3.1930      0.5801      3.7580    -14.0471   -999.2500      3.7580    -50.5440    -40.1345      0.3500   -999.2500      0.7000      0.8500
   3057.0000   -999.2500      3.2720      0.8500   -999.2500   -999.2500      0.1500 49090916870222007100000000000.0000      0.5000 270000019174388625000000000000.0000      3.2720      0.5800      3.7370    -12.7248   -999.2500      3.7370    -49.2200    -36.3567      0.3500   -999.2500      0.7000      0.8500
   3057.5000   -999.2500      3.2980      0.8500 -1000000015047466220000000000000.0000   -999.2500      0.1500 49090916870222007100000000000.0000      0.5000 270000019174388625000000000000.0000      3.2980      0.5800      3.6790    -12.2266   -999.2500      3.6790    -48.7200    -34.9332      0.3500   -999.2500      0.7000      0.8500
   3058.0000   -999.2500      3.2550      0.8500 -1000000166163193670000000000000.0000   -999.2500      0.1500 49090916870222007100000000000.0000      0.5000 270000019174388625000000000000.0000      3.2550      0.5799      3.6620    -13.1254   -999.2500      3.6620    -49.6170    -37.5011      0.3500   -999.2500      0.7000      0.8500
   3058.5000   -999.2500      3.1180      0.8500   -999.2500   -999.2500      0.1500 49090916870222007100000000000.0000      0.5000 270000019174388625000000000000.0000      3.1180      0.5799      4.1840    -15.7431   -999.2500      4.1840    -52.2330    -44.9804      0.3500   -999.2500      0.7000      0.8500
   3059.0000   -999.2500      2.9960      0.8500   -999.2500   -999.2500      0.1500 49090916870222007100000000000.0000      0.5000 270000019174388625000000000000.0000      2.9960      0.5798      4.4720    -19.8299   -999.2500      4.4720    -56.3180    -56.6568      0.3500   -999.2500      0.7000      0.8500
   3059.5000   -999.2500      2.8410      0.8500   -999.2500   -999.2500      0.1500 49090916870222007100000000000.0000      0.5000 270000019174388625000000000000.0000      2.8410      0.5798      4.9400    -24.9197   -999.2500      4.9400    -61.4060    -71.1990      0.3500   -999.2500      0.7000      0.8500
   3060.0000   -999.2500      2.8230      0.8500   -999.2500   -999.2500      0.1500 49090916870222007100000000000.0000      0.5000 270000019174388625000000000000.0000      2.8230      0.5797      5.0770    -29.1854   -999.2500      5.0770    -65.6700    -83.3869      0.3500   -999.2500      0.7000      0.8500
   3060.5000   -999.2500      2.8050      0.8500   -999.2500   -999.2500      0.1500 49090916870222007100000000000.0000      0.5000 270000019174388625000000000000.0000      2.8050      0.5797      5.2140    -32.1262   -999.2500      5.2140    -68.6090    -91.7891      0.3500   -999.2500      0.7000      0.8500
   3061.0000   -999.2500      2.7840      0.8500   -999.2500   -999.2500      0.1500 49090916870222007100000000000.0000      0.5000 270000019174388625000000000000.0000      2.7840      0.5796      5.2900    -34.9239   -999.2500      5.2900    -71.4050    -99.7827      0.3500   -999.2500      0.7000      0.8500
   3061.5000   -999.2500      2.7770      0.8500   -999.2500   -999.2500      0.1500 49090916870222007100000000000.0000      0.5000 270000019174388625000000000000.0000      2.7770      0.5796      5.3480    -36.5387   -999.2500      5.3480    -73.0180   -104.3963      0.3500   -999.2500      0.7000      0.8500
   3062.0000   -999.2500      2.7700      0.8500   -999.2500   -999.2500      0.1500 49090916870222007100000000000.0000      0.5000 270000019174388625000000000000.0000      2.7700      0.5795      5.4020    -37.3655   -999.2500      5.4020    -73.8430   -106.7585      0.3500   -999.2500      0.7000      0.8500
   3062.5000   -999.2500      2.7700      0.8500   -999.2500   -999.2500      0.1500 49090916870222007100000000000.0000      0.5000 270000019174388625000000000000.0000      2.7700      0.5795      5.4350    -38.0142   -999.2500      5.4350    -74.4900   -108.6121      0.3500   -999.2500      0.7000      0.8500
   3063.0000   -999.2500      2.8030      0.8500 -1000000166163193670000000000000.0000   -999.2500      0.1500 49090916870222007100000000000.0000      0.5000 270000019174388625000000000000.0000      2.8030      0.5794      5.4460    -38.4470   -999.2500      5.4460    -74.9210   -109.8485      0.3500   -999.2500      0.7000      0.8500
   3063.5000   -999.2500      2.8320      0.8500   -999.2500   -999.2500      0.1500 49090916870222007100000000000.0000      0.5000 270000019174388625000000000000.0000      2.8320      0.5794      5.4570    -38.5578   -999.2500      5.4570    -75.0300   -110.1650      0.3500   -999.2500      0.7000      0.8500
   3064.0000   -999.2500      2.9040      0.8500   -999.2500   -999.2500      0.1500 49090916870222007100000000000.0000      0.5000 270000019174388625000000000000.0000      2.9040      0.5793      5.4430    -38.5605   -999.2500      5.4430    -75.0310   -110.1729      0.3500   -999.2500      0.7000      0.8500
