~V
VERS. 2.00: Ver 2.00
WRAP.   NO:        
~W
 STRT.FT 29:
 STOP.FT 4770:
 STEP.FT 0.5:
 NULL. -999.250000:
 COMP. Standard (Chevron):Company
 WELL. KCL 44-32:Well
 FLD. Pioneer:Field
 LOC. S32 T11N R22W:Location
 STAT. CA:State
 SRVC. :Service Company
 SON. :Service Order #
 DATE. :Log Date
 UWI. 0940700:Unique Well ID
~C
 DEPT.FT :
 BVES. :
 BVTS. :
 FACE. :
 GRS.RE/T :
 ILD.OHMM :
 LTHE. :
 MM. :
 NEUT.CPS :
 PHES. :
 PHMX. :
 PHTS. :
 PHZC. :
 RD.OHMM :
 ROS. :
 RS.OHMM :
 SBL.MV :
 SCLN. :
 SN.OHMM :
 SP.MV :
 SPN. :
 STUS. :
 SWES. :
 SWTS. :
 VCDS. :
 VCLY. :
 VCWS. :
 VSHS. :
~P
~A
# ...
   2645.0000      0.1573      0.2410      2.0000   -999.2500      3.6370      0.6693      2.1268   -999.2500      0.3307      0.1739      0.4144      0.4967      3.6370      1.2236      9.6380    -21.8836    -91.7515      9.6380    -59.0770    -43.7673      0.5815      0.4757      0.5815      0.0836      0.1672      0.1672      0.5575
   2645.5000      0.1567      0.2303      2.0000   -999.2500      3.6970      0.6561      2.0623   -999.2500      0.3439      0.1749      0.4175      0.5021      3.6970      1.1501      9.9070    -23.3859    -91.7582      9.9070    -60.5550    -46.7719      0.5516      0.4557      0.5516      0.0735      0.1471      0.1471      0.4903
   2646.0000      0.1513      0.2230      2.0000   -999.2500      3.8800      0.6537      2.0506   -999.2500      0.3463      0.1751      0.4180      0.5031      3.8800      1.1373      9.9570    -23.9503    -91.7649      9.9570    -61.0950    -47.9005      0.5334      0.4368      0.5334      0.0717      0.1434      0.1434      0.4780
   2646.5000      0.1467      0.2168      2.0000   -999.2500      4.0450      0.6516      2.0403   -999.2500      0.3484      0.1753      0.4185      0.5039      4.0450      1.1263     11.2540    -24.4426    -91.7716     11.2540    -61.5630    -48.8851      0.5181      0.4211      0.5181      0.0701      0.1402      0.1402      0.4673
   2647.0000      0.1451      0.2230      2.0000   -999.2500      4.0630      0.6619      2.0905   -999.2500      0.3381      0.1745      0.4161      0.4997      4.0630      1.1814     10.6130    -22.5869    -91.7782     10.6130    -59.6830    -45.1737      0.5360      0.4291      0.5360      0.0779      0.1558      0.1558      0.5195
   2647.5000      0.1440      0.2318      2.0000   -999.2500      4.0450      0.6748      2.1536   -999.2500      0.3252      0.1735      0.4130      0.4943      4.0450      1.2560      9.9710    -21.3812    -91.7849      9.9710    -58.4530    -42.7624      0.5612      0.4427      0.5612      0.0878      0.1756      0.1756      0.5853
   2648.0000      0.1466      0.2389      3.0000   -999.2500      3.9300      0.6808      2.1828   -999.2500      0.3192      0.1731      0.4116      0.4919      3.9300      1.2924      4.7020    -20.8265    -91.7916      4.7020    -57.8740    -41.6530      0.5805      0.4591      0.5805      0.0923      0.1847      0.1847      0.6156
   2648.5000      0.1678      0.2650      3.0000   -999.2500      3.2900      0.6871      2.2138   -999.2500      0.3129      0.1726      0.4100      0.4893      3.2900      1.3327      4.4150    -20.2348    -91.7983      4.4150    -57.2580    -40.4696      0.6464      0.5365      0.6464      0.0972      0.1944      0.1944      0.6479
   2649.0000      0.1838      0.2729      2.0000   -999.2500      2.9420      0.6765      2.1618   -999.2500      0.3235      0.1734      0.4126      0.4936      2.9420      1.2659      4.4430    -21.2331    -91.8049      4.4430    -58.2320    -42.4662      0.6614      0.5682      0.6614      0.0890      0.1781      0.1781      0.5936
   2649.5000      0.1914      0.2703      2.0000   -999.2500      2.8050      0.6631      2.0966   -999.2500      0.3369      0.1744      0.4157      0.4991      2.8050      1.1883      4.5260    -22.4824    -91.8116      4.5260    -59.4570    -44.9648      0.6502      0.5683      0.6502      0.0788      0.1577      0.1577      0.5256
   2650.0000      0.1951      0.2686      2.0000   -999.2500      2.7400      0.6562      2.0625   -999.2500      0.3438      0.1749      0.4174      0.5020      2.7400      1.1502      4.4430    -23.4077    -91.8183      4.4430    -60.3580    -46.8155      0.6437      0.5675      0.6437      0.0735      0.1470      0.1470      0.4901
   2650.5000      0.1899      0.2672      2.0000   -999.2500      2.8390      0.6611      2.0865   -999.2500      0.3389      0.1745      0.4162      0.5000      2.8390      1.1768      4.2140    -22.6790    -91.8250      4.2140    -59.6050    -45.3581      0.6420      0.5604      0.6420      0.0773      0.1545      0.1545      0.5151
   2651.0000      0.1841      0.2656      2.0000   -999.2500      2.9550      0.6666      2.1134   -999.2500      0.3334      0.1741      0.4149      0.4977      2.9550      1.2077      4.6820    -22.1673    -91.8316      4.6820    -59.0690    -44.3347      0.6401      0.5522      0.6401      0.0815      0.1629      0.1629      0.5430
   2651.5000      0.1793      0.2611      2.0000   -999.2500      3.0640      0.6671      2.1157   -999.2500      0.3329      0.1741      0.4148      0.4975      3.0640      1.2103      4.9570    -22.1257    -91.8383      4.9570    -59.0030    -44.2513      0.6295      0.5384      0.6295      0.0818      0.1636      0.1636      0.5454
   2652.0000      0.1771      0.2519      2.0000   -999.2500      3.1330      0.6579      2.0709   -999.2500      0.3421      0.1748      0.4169      0.5013      3.1330      1.1593      5.2780    -23.0220    -91.8450      5.2780    -59.8750    -46.0439      0.6042      0.5177      0.6042      0.0748      0.1496      0.1496      0.4987
   2652.5000      0.1735      0.2440      2.0000   -999.2500      3.2320      0.6522      2.0432   -999.2500      0.3478      0.1752      0.4182      0.5036      3.2320      1.1291      5.6380    -24.3513    -91.8517      5.6380    -61.1800    -48.7025      0.5834      0.4990      0.5834      0.0705      0.1409      0.1409      0.4698
   2653.0000      0.1673      0.2357      2.0000   -999.2500      3.4020      0.6495      2.0298   -999.2500      0.3505      0.1754      0.4189      0.5047      3.4020      1.1149      5.7720    -24.9946    -91.8584      5.7720    -61.7990    -49.9892      0.5627      0.4774      0.5627      0.0684      0.1367      0.1367      0.4558
   2653.5000      0.1639      0.2359      2.0000   -999.2500      3.4890      0.6543      2.0534   -999.2500      0.3457      0.1750      0.4177      0.5027      3.4890      1.1401      5.6510    -23.8689    -91.8650      5.6510    -60.6490    -47.7378      0.5647      0.4740      0.5647      0.0721      0.1441      0.1441      0.4803
   2654.0000      0.1625      0.2363      2.0000   -999.2500      3.5230      0.6567      2.0649   -999.2500      0.3433      0.1749      0.4172      0.5017      3.5230      1.1527      5.3150    -23.3212    -91.8717      5.3150    -60.0770    -46.6424      0.5665      0.4732      0.5665      0.0738      0.1477      0.1477      0.4923
   2654.5000      0.1627      0.2396      2.0000   -999.2500      3.5060      0.6607      2.0845   -999.2500      0.3393      0.1746      0.4162      0.5001      3.5060      1.1744      4.2460    -22.7365    -91.8784      4.2460    -59.4680    -45.4730      0.5756      0.4795      0.5756      0.0769      0.1538      0.1538      0.5127
   2655.0000      0.1648      0.2495      2.0000   -999.2500      3.4170      0.6708      2.1340   -999.2500      0.3292      0.1738      0.4138      0.4959      3.4170      1.2319      3.9450    -21.7918    -91.8851      3.9450    -58.4990    -43.5836      0.6029      0.5008      0.6029      0.0846      0.1693      0.1693      0.5642
   2655.5000      0.1738      0.2620      2.0000   -999.2500      3.1740      0.6756      2.1571   -999.2500      0.3244      0.1734      0.4127      0.4939      3.1740      1.2599      3.7990    -21.3521    -91.8917      3.7990    -58.0350    -42.7043      0.6350      0.5357      0.6350      0.0882      0.1765      0.1765      0.5882
   2656.0000      0.1795      0.2723      3.0000   -999.2500      3.0250      0.6815      2.1859   -999.2500      0.3185      0.1730      0.4112      0.4915      3.0250      1.2960      3.7040    -20.8034    -91.8984      3.7040    -57.4620    -41.6069      0.6620      0.5637      0.6620      0.0927      0.1854      0.1854      0.6181
   2656.5000      0.1901      0.2767      2.0000   -999.2500      2.8140      0.6734      2.1467   -999.2500      0.3266      0.1736      0.4131      0.4948      2.8140      1.2471      3.6400    -21.5557    -91.9051      3.6400    -58.1900    -43.1115      0.6698      0.5823      0.6698      0.0866      0.1732      0.1732      0.5773
