~V
VERS. 2.00: Ver 2.00
WRAP.   NO:        
~W
 STRT.FT 20:
 STOP.FT 4330:
 STEP.FT 0.5:
 NULL. -999.250000:
 COMP. Standard (Chevron):Company
 WELL. KCL 44-25:Well
 FLD. Pioneer:Field
 LOC. S32 T11N R22W:Location
 STAT. CA:State
 SRVC. :Service Company
 SON. :Service Order #
 DATE. :Log Date
 UWI. 0940600:Unique Well ID
~C
 DEPT.FT :
 BVES. :
 BVTS. :
 FACE. :
 GR.RE/T :
 GRS.RE/T :
 ILD.OHMM :
 LTHE. :
 MM. :
 NEUS.CPS :
 NEUT.CPS :
 PHES. :
 PHMX. :
 PHTS. :
 PHZC. :
 RD.OHMM :
 ROS. :
 RS.OHMM :
 SBL.MV :
 SCLN. :
 SN.OHMM :
 SP.MV :
 SPN. :
 STUS. :
 SWES. :
 SWTS. :
 VCDS. :
 VCLY. :
 VCWS. :
 VSHS. :
~P
~A
# ...
   2369.0000      0.2459      0.2738      1.0000   -999.2500   -999.2500      2.2500      0.5898      1.8558   -999.2500   -999.2500      0.4102      0.1805      0.4381      0.5328      2.2500      0.9540      4.2610    -50.0117    -80.2445      4.2610    -71.5500    -62.5147      0.6249      0.5994      0.6249      0.0279      0.0558      0.0558      0.1862
   2369.5000      0.2403      0.2703      1.0000   -999.2500   -999.2500      2.3090      0.5925      1.8599   -999.2500   -999.2500      0.4075      0.1803      0.4375      0.5317      2.3090      0.9579      4.4600    -48.9728    -80.2485      4.4600    -70.4990    -61.2160      0.6178      0.5897      0.6178      0.0300      0.0599      0.0599      0.1998
   2370.0000      0.2351      0.2670      1.0000   -999.2500   -999.2500      2.3670      0.5950      1.8638   -999.2500   -999.2500      0.4050      0.1801      0.4369      0.5306      2.3670      0.9617      4.6120    -48.0058    -80.2525      4.6120    -69.5200    -60.0072      0.6111      0.5804      0.6111      0.0319      0.0638      0.0638      0.2125
   2370.5000      0.2316      0.2655      1.0000   -999.2500   -999.2500      2.3960      0.5977      1.8678   -999.2500   -999.2500      0.4023      0.1799      0.4362      0.5295      2.3960      0.9656      4.6620    -46.9828    -80.2565      4.6620    -68.4850    -58.7285      0.6087      0.5757      0.6087      0.0339      0.0678      0.0678      0.2260
   2371.0000      0.2255      0.2629      1.0000   -999.2500   -999.2500      2.4500      0.6023      1.8750   -999.2500   -999.2500      0.3977      0.1796      0.4352      0.5276      2.4500      0.9728      4.6190    -45.1688    -80.2606      4.6190    -66.6590    -56.4610      0.6043      0.5670      0.6043      0.0375      0.0750      0.0750      0.2498
   2371.5000      0.2193      0.2612      1.0000   -999.2500   -999.2500      2.4940      0.6081      1.8838   -999.2500   -999.2500      0.3919      0.1791      0.4338      0.5252      2.4940      0.9817      4.4080    -42.9218    -80.2646      4.4080    -64.4000    -53.6523      0.6021      0.5596      0.6021      0.0419      0.0838      0.0838      0.2794
   2372.0000      0.2226      0.2702      1.0000   -999.2500   -999.2500      2.3610      0.6156      1.8952   -999.2500   -999.2500      0.3844      0.1786      0.4321      0.5221      2.3610      0.9935      2.9330    -40.0269    -80.2686      2.9330    -61.4930    -50.0336      0.6254      0.5790      0.6254      0.0476      0.0952      0.0952      0.3174
   2372.5000      0.2422      0.2947      2.0000   -999.2500   -999.2500      2.0520      0.6219      1.9157   -999.2500   -999.2500      0.3781      0.1781      0.4306      0.5195      2.0520      1.0129      2.7970    -37.5649    -80.2726      2.7970    -59.0190    -46.9561      0.6844      0.6406      0.6844      0.0525      0.1049      0.1049      0.3497
   2373.0000      0.2544      0.3102      2.0000   -999.2500   -999.2500      1.9050      0.6263      1.9372   -999.2500   -999.2500      0.3737      0.1778      0.4295      0.5177      1.9050      1.0330      2.6680    -35.8579    -80.2766      2.6680    -57.3000    -44.8224      0.7223      0.6808      0.7223      0.0558      0.1116      0.1116      0.3721
   2373.5000      0.2758      0.3342      2.0000   -999.2500   -999.2500      1.6820      0.6296      1.9533   -999.2500   -999.2500      0.3704      0.1775      0.4287      0.5163      1.6820      1.0484      2.5850    -34.5839    -80.2807      2.5850    -56.0140    -43.2299      0.7794      0.7447      0.7794      0.0583      0.1167      0.1167      0.3889
   2374.0000      0.2793      0.3399      2.0000   -999.2500   -999.2500      1.6500      0.6326      1.9680   -999.2500   -999.2500      0.3674      0.1773      0.4280      0.5150      1.6500      1.0627      2.4810    -33.4169    -80.2847      2.4810    -54.8350    -41.7712      0.7942      0.7603      0.7942      0.0606      0.1213      0.1213      0.4042
   2374.5000      0.2763      0.3391      2.0000   -999.2500   -999.2500      1.6790      0.6355      1.9823   -999.2500   -999.2500      0.3645      0.1771      0.4273      0.5138      1.6790      1.0769      2.5640    -32.2859    -80.2887      2.5640    -53.6920    -40.3574      0.7936      0.7580      0.7936      0.0629      0.1257      0.1257      0.4191
   2375.0000      0.2743      0.3378      2.0000   -999.2500   -999.2500      1.6980      0.6364      1.9866   -999.2500   -999.2500      0.3636      0.1770      0.4271      0.5134      1.6980      1.0812      2.6650    -31.9470    -80.2927      2.6650    -53.3410    -39.9337      0.7909      0.7544      0.7909      0.0635      0.1271      0.1271      0.4235
   2375.5000      0.2728      0.3370      2.0000   -999.2500   -999.2500      1.7160      0.6373      1.9909   -999.2500   -999.2500      0.3627      0.1769      0.4269      0.5131      1.7160      1.0855      2.5940    -31.6090    -80.2967      2.5940    -52.9910    -39.5112      0.7894      0.7521      0.7894      0.0642      0.1284      0.1284      0.4280
   2376.0000      0.2702      0.3358      2.0000   -999.2500   -999.2500      1.7380      0.6391      1.9997   -999.2500   -999.2500      0.3609      0.1768      0.4264      0.5123      1.7380      1.0944      2.4860    -30.9090    -80.3008      2.4860    -52.2790    -38.6362      0.7874      0.7488      0.7874      0.0656      0.1312      0.1312      0.4372
   2376.5000      0.2677      0.3345      2.0000   -999.2500   -999.2500      1.7600      0.6407      2.0072   -999.2500   -999.2500      0.3593      0.1767      0.4261      0.5117      1.7600      1.1021      2.4040    -30.3190    -80.3048      2.4040    -51.6770    -37.8988      0.7850      0.7451      0.7850      0.0667      0.1335      0.1335      0.4450
   2377.0000      0.2648      0.3326      2.0000   -999.2500   -999.2500      1.7930      0.6420      2.0137   -999.2500   -999.2500      0.3580      0.1766      0.4258      0.5111      1.7930      1.1088      2.5520    -29.8000    -80.3088      2.5520    -51.1460    -37.2500      0.7812      0.7398      0.7812      0.0678      0.1355      0.1355      0.4518
   2377.5000      0.2642      0.3330      2.0000   -999.2500   -999.2500      1.8000      0.6435      2.0207   -999.2500   -999.2500      0.3565      0.1765      0.4254      0.5105      1.8000      1.1161      2.6210    -29.2450    -80.3128      2.6210    -50.5790    -36.5563      0.7828      0.7409      0.7828      0.0689      0.1377      0.1377      0.4591
   2378.0000      0.2640      0.3339      2.0000   -999.2500   -999.2500      1.8010      0.6447      2.0268   -999.2500   -999.2500      0.3553      0.1764      0.4251      0.5100      1.8010      1.1225      2.5350    -28.7621    -80.3168      2.5350    -50.0840    -35.9526      0.7854      0.7432      0.7854      0.0698      0.1396      0.1396      0.4654
   2378.5000      0.2647      0.3356      2.0000   -999.2500   -999.2500      1.7940      0.6462      2.0338   -999.2500   -999.2500      0.3538      0.1763      0.4247      0.5094      1.7940      1.1300      2.4050    -28.2071    -80.3208      2.4050    -49.5170    -35.2589      0.7901      0.7481      0.7901      0.0709      0.1418      0.1418      0.4727
   2379.0000      0.2675      0.3394      2.0000   -999.2500   -999.2500      1.7650      0.6475      2.0404   -999.2500   -999.2500      0.3525      0.1761      0.4244      0.5088      1.7650      1.1369      2.3770    -27.6881    -80.3249      2.3770    -48.9860    -34.6101      0.7998      0.7589      0.7998      0.0719      0.1439      0.1439      0.4796
   2379.5000      0.2703      0.3424      2.0000   -999.2500   -999.2500      1.7370      0.6478      2.0415   -999.2500   -999.2500      0.3522      0.1761      0.4244      0.5087      1.7370      1.1381      2.4350    -27.6011    -80.3289      2.4350    -48.8870    -34.5014      0.8068      0.7673      0.8068      0.0721      0.1442      0.1442      0.4807
   2380.0000      0.2780      0.3467      2.0000   -999.2500   -999.2500      1.6620      0.6433      2.0195   -999.2500   -999.2500      0.3567      0.1765      0.4254      0.5106      1.6620      1.1148      2.2660    -29.3501    -80.3329      2.2660    -50.6240    -36.6877      0.8150      0.7794      0.8150      0.0687      0.1373      0.1373      0.4578
