~V
VERS. 2.00: Ver 2.00
WRAP.   NO:        
~W
 STRT.FT 10:
 STOP.FT 5350:
 STEP.FT 0.5:
 NULL. -999.250000:
 COMP. Standard (Chevron):Company
 WELL. KCL 44-12:Well
 FLD. Pioneer:Field
 LOC. S32 T11N R22W:Location
 STAT. CA:State
 SRVC. :Service Company
 SON. :Service Order #
 DATE. :Log Date
 UWI. 0940400:Unique Well ID
~C
 DEPT.FT :
 GRS.RE/T :
 ILD.OHMM :
 LTHE. :
 MM. :
 NEUT.CPS :
 PHES. :
 PHMX. :
 PHTS. :
 PHZC. :
 RD.OHMM :
 ROS. :
 RS.OHMM :
 SBL.MV :
 SCLN. :
 SN.OHMM :
 SP.MV :
 SPN. :
 VCDS. :
 VCLY. :
 VCWS. :
 VSHS. :
~P
~A
# ...
   2673.0000   -999.2500      2.6660      0.6484      2.0236   -999.2500      0.3516      0.1754      0.4188      0.5049      2.6660      1.1076      2.9900    -25.3435   -143.2443      2.9900    -63.1920    -72.4101      0.0671      0.1343      0.1343      0.4476
   2673.5000   -999.2500      2.6150      0.6568      2.0649   -999.2500      0.3432      0.1748      0.4168      0.5014      2.6150      1.1519      2.9030    -22.9593   -143.2475      2.9030    -60.8060    -65.5980      0.0736      0.1472      0.1472      0.4907
   2674.0000   -999.2500      2.5640      0.6677      2.1179   -999.2500      0.3323      0.1740      0.4142      0.4970      2.5640      1.2120      2.8270    -21.4291   -143.2508      2.8270    -59.2740    -61.2259      0.0819      0.1637      0.1637      0.5458
   2674.5000   -999.2500      2.5570      0.6854      2.2043   -999.2500      0.3146      0.1727      0.4100      0.4897      2.5570      1.3190      2.7620    -19.4368   -143.2540      2.7620    -57.2800    -55.5338      0.0954      0.1907      0.1907      0.6358
   2675.0000   -999.2500      2.5640      0.6958      2.2552   -999.2500      0.3042      0.1719      0.4075      0.4854      2.5640      1.3877      2.8090    -18.2636   -143.2573      2.8090    -56.1050    -52.1817      0.1033      0.2066      0.2066      0.6887
   2675.5000   -999.2500      2.6170      0.6999      2.2751   -999.2500      0.3001      0.1716      0.4065      0.4837      2.6170      1.4158      2.8730    -17.8054   -143.2605      2.8730    -55.6450    -50.8724      0.1064      0.2128      0.2128      0.6999
   2676.0000   -999.2500      2.6750      0.7002      2.2765   -999.2500      0.2998      0.1716      0.4064      0.4836      2.6750      1.4178      2.8510    -17.7751   -143.2637      2.8510    -55.6130    -50.7860      0.1066      0.2132      0.2132      0.7002
   2676.5000   -999.2500      2.6600      0.6999      2.2748   -999.2500      0.3001      0.1716      0.4065      0.4837      2.6600      1.4153      2.8370    -17.8159   -143.2670      2.8370    -55.6520    -50.9025      0.1063      0.2127      0.2127      0.6999
   2677.0000   -999.2500      2.6600      0.7001      2.2761   -999.2500      0.2999      0.1716      0.4064      0.4836      2.6600      1.4172      2.9590    -17.7866   -143.2702      2.9590    -55.6210    -50.8190      0.1066      0.2131      0.2131      0.7001
   2677.5000   -999.2500      2.6670      0.7008      2.2791   -999.2500      0.2992      0.1715      0.4062      0.4833      2.6670      1.4214      3.0450    -17.7194   -143.2735      3.0450    -55.5520    -50.6269      0.1070      0.2140      0.2140      0.7008
   2678.0000   -999.2500      2.7310      0.7001      2.2758   -999.2500      0.2999      0.1716      0.4064      0.4836      2.7310      1.4167      3.1170    -17.7962   -143.2767      3.1170    -55.6270    -50.8462      0.1065      0.2130      0.2130      0.7001
   2678.5000   -999.2500      2.8500      0.6940      2.2462   -999.2500      0.3060      0.1720      0.4078      0.4861      2.8500      1.3751      3.1490    -18.4799   -143.2800      3.1490    -56.3090    -52.7998      0.1019      0.2037      0.2037      0.6791
   2679.0000   -999.2500      2.9150      0.6867      2.2105   -999.2500      0.3133      0.1726      0.4096      0.4891      2.9150      1.3270      3.1600    -19.3057   -143.2832      3.1600    -57.1330    -55.1591      0.0963      0.1926      0.1926      0.6419
   2679.5000   -999.2500      2.9110      0.6832      2.1933   -999.2500      0.3168      0.1728      0.4104      0.4905      2.9110      1.3046      3.1560    -19.7034   -143.2864      3.1560    -57.5290    -56.2956      0.0936      0.1872      0.1872      0.6239
   2680.0000   -999.2500      2.8960      0.6857      2.2055   -999.2500      0.3143      0.1726      0.4098      0.4895      2.8960      1.3203      3.1590    -19.4242   -143.2897      3.1590    -57.2480    -55.4978      0.0955      0.1910      0.1910      0.6366
   2680.5000   -999.2500      2.8780      0.6917      2.2347   -999.2500      0.3083      0.1722      0.4084      0.4870      2.8780      1.3593      3.1620    -18.7510   -143.2929      3.1620    -56.5730    -53.5742      0.1000      0.2001      0.2001      0.6670
   2681.0000   -999.2500      2.8270      0.7066      2.3072   -999.2500      0.2934      0.1711      0.4048      0.4809      2.8270      1.4626      3.1240    -17.0787   -143.2962      3.1240    -54.8990    -48.7964      0.1114      0.2227      0.2227      0.7066
   2681.5000   -999.2500      2.7910      0.7097      2.3225   -999.2500      0.2903      0.1708      0.4040      0.4796      2.7910      1.4856      3.0860    -16.7275   -143.2994      3.0860    -54.5460    -47.7929      0.1137      0.2275      0.2275      0.7097
   2682.0000   -999.2500      2.7430      0.6935      2.2435   -999.2500      0.3065      0.1720      0.4079      0.4862      2.7430      1.3712      3.0450    -18.5533   -143.3026      3.0450    -56.3700    -53.0093      0.1014      0.2028      0.2028      0.6760
   2682.5000   -999.2500      2.6960      0.6862      2.2078   -999.2500      0.3138      0.1726      0.4096      0.4892      2.6960      1.3232      3.0030    -19.3790   -143.3059      3.0030    -57.1940    -55.3686      0.0958      0.1916      0.1916      0.6387
   2683.0000   -999.2500      2.6440      0.6788      2.1721   -999.2500      0.3212      0.1731      0.4114      0.4923      2.6440      1.2774      2.9570    -20.2048   -143.3091      2.9570    -58.0180    -57.7280      0.0902      0.1804      0.1804      0.6015
   2683.5000   -999.2500      2.5910      0.6722      2.1395   -999.2500      0.3278      0.1736      0.4130      0.4950      2.5910      1.2373      2.9120    -20.9585   -143.3124      2.9120    -58.7700    -59.8816      0.0851      0.1703      0.1703      0.5675
   2684.0000   -999.2500      2.4750      0.6668      2.1130   -999.2500      0.3332      0.1740      0.4142      0.4972      2.4750      1.2059      2.6520    -21.5703   -143.3156      2.6520    -59.3800    -61.6295      0.0810      0.1620      0.1620      0.5399
   2684.5000   -999.2500      2.4210      0.6648      2.1036   -999.2500      0.3352      0.1742      0.4147      0.4980      2.4210      1.1950      2.6370    -21.7901   -143.3189      2.6370    -59.5980    -62.2573      0.0795      0.1590      0.1590      0.5300
   2685.0000   -999.2500      2.3850      0.6692      2.1251   -999.2500      0.3308      0.1739      0.4136      0.4962      2.3850      1.2200      2.6370    -21.2958   -143.3221      2.6370    -59.1020    -60.8452      0.0829      0.1657      0.1657      0.5524
   2685.5000   -999.2500      2.3930      0.6743      2.1496   -999.2500      0.3257      0.1735      0.4124      0.4941      2.3930      1.2495      2.6370    -20.7306   -143.3253      2.6370    -58.5350    -59.2303      0.0867      0.1734      0.1734      0.5779
   2686.0000   -999.2500      2.4020      0.6837      2.1958   -999.2500      0.3163      0.1728      0.4102      0.4902      2.4020      1.3074      2.6360    -19.6664   -143.3286      2.6360    -57.4690    -56.1896      0.0939      0.1878      0.1878      0.6259
   2686.5000   -999.2500      2.4630      0.6847      2.2003   -999.2500      0.3153      0.1727      0.4099      0.4898      2.4630      1.3132      2.6470    -19.5641   -143.3318      2.6470    -57.3650    -55.8975      0.0946      0.1892      0.1892      0.6306
   2687.0000   -999.2500      2.5060      0.6818      2.1862   -999.2500      0.3182      0.1729      0.4106      0.4910      2.5060      1.2951      2.7580    -19.8899   -143.3351      2.7580    -57.6890    -56.8282      0.0924      0.1848      0.1848      0.6159
   2687.5000   -999.2500      2.5380      0.6703      2.1304   -999.2500      0.3297      0.1738      0.4133      0.4957      2.5380      1.2262      2.8700    -21.1806   -143.3383      2.8700    -58.9780    -60.5161      0.0837      0.1673      0.1673      0.5577
   2688.0000   -999.2500      2.6210      0.6608      2.0838   -999.2500      0.3392      0.1745      0.4156      0.4996      2.6210      1.1724      2.9530    -22.2564   -143.3416      2.9530    -60.0520    -63.5897      0.0764      0.1528      0.1528      0.5092
