~V
VERS. 2.00: Ver 2.00
WRAP.   NO:        
~W
 STRT.FT 35:
 STOP.FT 5500:
 STEP.FT 0.5:
 NULL. -999.250000:
 COMP. Standard (Chevron):Company
 WELL. KCL 45-56:Well
 FLD. :Field
 LOC. S30 T11N R22W:Location
 STAT. CA:State
 SRVC. :Service Company
 SON. :Service Order #
 DATE. :Log Date
 UWI. 0369100:Unique Well ID
~C
 DEPT.FT :
 BVES. :
 BVTS. :
 ILD.OHMM :
 LLD.OHMM :
 LTHE. :
 MM. :
 PHES. :
 PHMX. :
 PHTS. :
 PHZC. :
 RD.OHMM :
 ROS. :
 RS.OHMM :
 SBL.MV :
 SCLN. :
 SN.OHMM :
 SP.MV :
 SPN. :
 STUS. :
 SWES. :
 SWTS. :
 VCDS. :
 VCLY. :
 VCWS. :
 VSHS. :
~P
~A
# ...
   1855.0000      0.1842      0.3933   -999.2500      2.1650      0.8158      2.7315      0.1842      0.1648      0.3933      0.4463      2.1650      2.4754   -999.2500     -7.1158    -50.0000   -999.2500    -14.0490     -7.1158      1.0498      1.0000      1.0000      0.2091      0.4183      0.4183      0.8158
   1855.5000      0.1849      0.3935   -999.2500      2.0420      0.8151      2.7310      0.1849      0.1648      0.3935      0.4466      2.0420      2.4720   -999.2500     -7.1923    -50.0000   -999.2500    -14.1260     -7.1923      1.0720      1.0000      1.0000      0.2086      0.4171      0.4171      0.8151
   1856.0000      0.1886      0.3944   -999.2500      1.7360      0.8114      2.7284      0.1886      0.1651      0.3944      0.4480      1.7360      2.4561   -999.2500     -7.5578    -50.0000   -999.2500    -14.4920     -7.5578      1.1412      1.0000      1.0000      0.2058      0.4116      0.4116      0.8114
   1856.5000      0.1922      0.3953   -999.2500      1.6100      0.8078      2.7259      0.1922      0.1654      0.3953      0.4495      1.6100      2.4404   -999.2500     -7.9223    -50.0000   -999.2500    -14.8570     -7.9223      1.1717      1.0000      1.0000      0.2031      0.4062      0.4062      0.8078
   1857.0000      0.1998      0.3971   -999.2500      1.4550      0.8002      2.7207      0.1998      0.1659      0.3971      0.4526      1.4550      2.4083   -999.2500     -8.6838    -50.0000   -999.2500    -15.6190     -8.6838      1.2119      1.0000      1.0000      0.1974      0.3947      0.3947      0.8002
   1857.5000      0.2027      0.3978   -999.2500      1.4620      0.7973      2.7186      0.2027      0.1661      0.3978      0.4537      1.4620      2.3960   -999.2500     -8.9783    -50.0000   -999.2500    -15.9140     -8.9783      1.2074      1.0000      1.0000      0.1952      0.3903      0.3903      0.7973
   1858.0000      0.1984      0.3968   -999.2500      1.4840      0.8016      2.7216      0.1984      0.1658      0.3968      0.4520      1.4840      2.4137   -999.2500     -8.5509    -50.0000   -999.2500    -15.4870     -8.5509      1.2038      1.0000      1.0000      0.1984      0.3967      0.3967      0.8016
   1858.5000      0.1952      0.3960   -999.2500      1.5020      0.8048      2.7238      0.1952      0.1656      0.3960      0.4507      1.5020      2.4271   -999.2500     -8.2304    -50.0000   -999.2500    -15.1670     -8.2304      1.2007      1.0000      1.0000      0.2008      0.4015      0.4015      0.8048
   1859.0000      0.1938      0.3956   -999.2500      1.5230      0.8062      2.7248      0.1938      0.1655      0.3956      0.4501      1.5230      2.4330   -999.2500     -8.0909    -50.0000   -999.2500    -15.0280     -8.0909      1.1954      1.0000      1.0000      0.2018      0.4036      0.4036      0.8062
   1859.5000      0.1967      0.3963   -999.2500      1.4590      0.8033      2.7227      0.1967      0.1657      0.3963      0.4513      1.4590      2.4205   -999.2500     -8.3844    -50.0000   -999.2500    -15.3220     -8.3844      1.2129      1.0000      1.0000      0.1996      0.3992      0.3992      0.8033
   1860.0000      0.1996      0.3970   -999.2500      1.4620      0.8004      2.7207      0.1996      0.1659      0.3970      0.4525      1.4620      2.4082   -999.2500     -8.6779    -50.0000   -999.2500    -15.6160     -8.6779      1.2097      1.0000      1.0000      0.1974      0.3948      0.3948      0.8004
   1860.5000      0.2006      0.3973   -999.2500      1.4760      0.7994      2.7200      0.2006      0.1660      0.3973      0.4529      1.4760      2.4038   -999.2500     -8.7814    -50.0000   -999.2500    -15.7200     -8.7814      1.2045      1.0000      1.0000      0.1966      0.3933      0.3933      0.7994
   1861.0000      0.1974      0.3965   -999.2500      1.4800      0.8026      2.7222      0.1974      0.1657      0.3965      0.4515      1.4800      2.4175   -999.2500     -8.4540    -50.0000   -999.2500    -15.3930     -8.4540      1.2057      1.0000      1.0000      0.1991      0.3982      0.3982      0.8026
   1861.5000      0.2002      0.3971   -999.2500      1.4430      0.7998      2.7203      0.2002      0.1659      0.3971      0.4527      1.4430      2.4056   -999.2500     -8.7375    -50.0000   -999.2500    -15.6770     -8.7375      1.2152      1.0000      1.0000      0.1970      0.3939      0.3939      0.7998
   1862.0000      0.1987      0.3968   -999.2500      1.4070      0.8013      2.7213      0.1987      0.1658      0.3968      0.4521      1.4070      2.4116   -999.2500     -8.5900    -50.0000   -999.2500    -15.5300     -8.5900      1.2281      1.0000      1.0000      0.1981      0.3962      0.3962      0.8013
   1862.5000      0.1965      0.3962   -999.2500      1.3060      0.8035      2.7228      0.1965      0.1657      0.3962      0.4512      1.3060      2.4209   -999.2500     -8.3685    -50.0000   -999.2500    -15.3090     -8.3685      1.2652      1.0000      1.0000      0.1997      0.3995      0.3995      0.8035
   1863.0000      0.1925      0.3952   -999.2500      1.2620      0.8075      2.7256      0.1925      0.1654      0.3952      0.4495      1.2620      2.4377   -999.2500     -7.9690    -50.0000   -999.2500    -14.9100     -7.9690      1.2851      1.0000      1.0000      0.2027      0.4055      0.4055      0.8075
   1863.5000      0.1913      0.3949   -999.2500      1.2010      0.8087      2.7264      0.1913      0.1653      0.3949      0.4491      1.2010      2.4424   -999.2500     -7.8565    -50.0000   -999.2500    -14.7980     -7.8565      1.3104      1.0000      1.0000      0.2036      0.4072      0.4072      0.8087
   1864.0000      0.1884      0.3942   -999.2500      1.2600      0.8116      2.7284      0.1884      0.1651      0.3942      0.4479      1.2600      2.4548   -999.2500     -7.5651    -50.0000   -999.2500    -14.5070     -7.5651      1.2891      1.0000      1.0000      0.2058      0.4115      0.4115      0.8116
   1864.5000      0.1869      0.3938   -999.2500      1.3190      0.8131      2.7294      0.1869      0.1650      0.3938      0.4473      1.3190      2.4612   -999.2500     -7.4156    -50.0000   -999.2500    -14.3580     -7.4156      1.2680      1.0000      1.0000      0.2069      0.4138      0.4138      0.8131
   1865.0000      0.1847      0.3933   -999.2500      1.3830      0.8153      2.7309      0.1847      0.1648      0.3933      0.4464      1.3830      2.4706   -999.2500     -7.1971    -50.0000   -999.2500    -14.1400     -7.1971      1.2471      1.0000      1.0000      0.2085      0.4170      0.4170      0.8153
   1865.5000      0.1839      0.3931   -999.2500      1.4400      0.8161      2.7315      0.1839      0.1647      0.3931      0.4460      1.4400      2.4740   -999.2500     -7.1196    -50.0000   -999.2500    -14.0630     -7.1196      1.2286      1.0000      1.0000      0.2091      0.4182      0.4182      0.8161
   1866.0000      0.1832      0.3929   -999.2500      1.5660      0.8168      2.7320      0.1832      0.1647      0.3929      0.4457      1.5660      2.4772   -999.2500     -7.0441    -50.0000   -999.2500    -13.9880     -7.0441      1.1906      1.0000      1.0000      0.2097      0.4193      0.4193      0.8168
   1866.5000      0.1828      0.3927   -999.2500      1.7750      0.8172      2.7323      0.1828      0.1646      0.3927      0.4456      1.7750      2.4789   -999.2500     -7.0036    -50.0000   -999.2500    -13.9480     -7.0036      1.1355      1.0000      1.0000      0.2100      0.4199      0.4199      0.8172
   1867.0000      0.1823      0.3926   -999.2500      2.0050      0.8177      2.7326      0.1823      0.1646      0.3926      0.4454      2.0050      2.4806   -999.2500     -6.9622    -50.0000   -999.2500    -13.9070     -6.9622      1.0805      1.0000      1.0000      0.2103      0.4206      0.4206      0.8177
   1867.5000      0.1827      0.3927   -999.2500      2.2200      0.8173      2.7323      0.1827      0.1646      0.3927      0.4455      2.2200      2.4791   -999.2500     -6.9957    -50.0000   -999.2500    -13.9410     -6.9957      1.0408      1.0000      1.0000      0.2100      0.4201      0.4201      0.8173
