~V
VERS. 2.00: Ver 2.00
WRAP.   NO:        
~W
 STRT.FT 30:
 STOP.FT 4840:
 STEP.FT 0.5:
 NULL. -999.250000:
 COMP. Standard (Chevron):Company
 WELL. KCL 44-23:Well
 FLD. Pioneer:Field
 LOC. S32 T11N R22W:Location
 STAT. CA:State
 SRVC. :Service Company
 SON. :Service Order #
 DATE. :Log Date
 UWI. 0940500:Unique Well ID
~C
 DEPT.FT :
 BVES. :
 BVTS. :
 FACE. :
 GR.RE/T :
 GRS.RE/T :
 ILD.OHMM :
 LTHE. :
 MM. :
 NEUT.CPS :
 PHES. :
 PHMX. :
 PHTS. :
 PHZC. :
 RD.OHMM :
 ROS. :
 RS.OHMM :
 SBL.MV :
 SCLN. :
 SN.OHMM :
 SP.MV :
 SPN.RE/T :
 STUS. :
 SWES. :
 SWTS. :
 VCDS. :
 VCLY. :
 VCWS. :
 VSHS. :
~P
~A
# ...
    649.5000      0.0100      0.3600      4.0000   -999.2500   -999.2500      5.4240      0.8500   -999.2500   -999.2500      0.1500 49090916870222007100000000000.0000      0.5000 270000019174388625000000000000.0000      5.4240      1.0239      6.3620     -6.3450   -999.2500      6.3620    -12.3450     -8.4600      0.4206      0.0667      0.7200      0.3500   -999.2500      0.7000      0.8500
    650.0000      0.0100      0.3600      4.0000   -999.2500   -999.2500      5.5920      0.8500   -999.2500   -999.2500      0.1500 49090916870222007100000000000.0000      0.5000 270000019174388625000000000000.0000      5.5920      1.0238      6.3620     -4.4350   -999.2500      6.3620    -10.4350     -5.9133      0.4138      0.0667      0.7200      0.3500   -999.2500      0.7000      0.8500
    650.5000      0.0100      0.3600      4.0000   -999.2500   -999.2500      5.7240      0.8500   -999.2500   -999.2500      0.1500 49090916870222007100000000000.0000      0.5000 270000019174388625000000000000.0000      5.7240      1.0236      6.4400     -2.8870   -999.2500      6.4400     -8.8870     -3.8493      0.4087      0.0667      0.7200      0.3500   -999.2500      0.7000      0.8500
    651.0000      0.0100      0.3600      4.0000   -999.2500   -999.2500      5.9680      0.8500   -999.2500   -999.2500      0.1500 49090916870222007100000000000.0000      0.5000 270000019174388625000000000000.0000      5.9680      1.0234      6.5580     -3.7900   -999.2500      6.5580     -9.7900     -5.0533      0.3997      0.0667      0.7200      0.3500   -999.2500      0.7000      0.8500
    651.5000      0.0100      0.3600      4.0000   -999.2500   -999.2500      6.0390      0.8500   -999.2500   -999.2500      0.1500 49090916870222007100000000000.0000      0.5000 270000019174388625000000000000.0000      6.0390      1.0233      6.8270     -4.5840   -999.2500      6.8270    -10.5840     -6.1120      0.3971      0.0667      0.7200      0.3500   -999.2500      0.7000      0.8500
    652.0000      0.0100      0.3600      4.0000   -999.2500   -999.2500      6.1230      0.8500   -999.2500   -999.2500      0.1500 49090916870222007100000000000.0000      0.5000 270000019174388625000000000000.0000      6.1230      1.0231      7.0380     -5.5590   -999.2500      7.0380    -11.5590     -7.4120      0.3942      0.0667      0.7200      0.3500   -999.2500      0.7000      0.8500
    652.5000      0.0100      0.3600      4.0000   -999.2500   -999.2500      6.2070      0.8500   -999.2500   -999.2500      0.1500 49090916870222007100000000000.0000      0.5000 270000019174388625000000000000.0000      6.2070      1.0230      7.3990     -5.4880   -999.2500      7.3990    -11.4880     -7.3173      0.3913      0.0667      0.7200      0.3500   -999.2500      0.7000      0.8500
    653.0000      0.0100      0.3600      4.0000   -999.2500   -999.2500      6.2950      0.8500   -999.2500   -999.2500      0.1500 49090916870222007100000000000.0000      0.5000 270000019174388625000000000000.0000      6.2950      1.0228      7.4830     -5.4170   -999.2500      7.4830    -11.4170     -7.2227      0.3883      0.0667      0.7200      0.3500   -999.2500      0.7000      0.8500
    653.5000      0.0100      0.3600      4.0000   -999.2500   -999.2500      6.3820      0.8500   -999.2500   -999.2500      0.1500 49090916870222007100000000000.0000      0.5000 270000019174388625000000000000.0000      6.3820      1.0226      7.5670     -5.4200   -999.2500      7.5670    -11.4200     -7.2267      0.3854      0.0667      0.7200      0.3500   -999.2500      0.7000      0.8500
    654.0000      0.0100      0.3600      4.0000   -999.2500   -999.2500      6.5400      0.8500   -999.2500   -999.2500      0.1500 49090916870222007100000000000.0000      0.5000 270000019174388625000000000000.0000      6.5400      1.0225      7.4270     -6.7560   -999.2500      7.4270    -12.7560     -9.0080      0.3804      0.0667      0.7200      0.3500   -999.2500      0.7000      0.8500
    654.5000      0.0100      0.3600      4.0000   -999.2500   -999.2500      6.5650      0.8500   -999.2500   -999.2500      0.1500 49090916870222007100000000000.0000      0.5000 270000019174388625000000000000.0000      6.5650      1.0223      7.2160     -7.9820   -999.2500      7.2160    -13.9820    -10.6427      0.3796      0.0667      0.7200      0.3500   -999.2500      0.7000      0.8500
    655.0000      0.0100      0.3600      4.0000   -999.2500   -999.2500      6.5390      0.8500   -999.2500   -999.2500      0.1500 49090916870222007100000000000.0000      0.5000 270000019174388625000000000000.0000      6.5390      1.0221      7.1950     -9.2090   -999.2500      7.1950    -15.2090    -12.2787      0.3803      0.0667      0.7200      0.3500   -999.2500      0.7000      0.8500
    655.5000      0.0100      0.3600      4.0000   -999.2500   -999.2500      6.4600      0.8500   -999.2500   -999.2500      0.1500 49090916870222007100000000000.0000      0.5000 270000019174388625000000000000.0000      6.4600      1.0220      7.1730    -11.3740   -999.2500      7.1730    -17.3740    -15.1653      0.3827      0.0667      0.7200      0.3500   -999.2500      0.7000      0.8500
    656.0000      0.0100      0.3600      4.0000   -999.2500   -999.2500      6.2740      0.8500   -999.2500   -999.2500      0.1500 49090916870222007100000000000.0000      0.5000 270000019174388625000000000000.0000      6.2740      1.0218      7.0800    -12.8900   -999.2500      7.0800    -18.8900    -17.1867      0.3887      0.0667      0.7200      0.3500   -999.2500      0.7000      0.8500
    656.5000      0.0100      0.3600      4.0000   -999.2500   -999.2500      6.0480      0.8500   -999.2500   -999.2500      0.1500 49090916870222007100000000000.0000      0.5000 270000019174388625000000000000.0000      6.0480      1.0217      6.8860    -14.5860   -999.2500      6.8860    -20.5860    -19.4480      0.3963      0.0667      0.7200      0.3500   -999.2500      0.7000      0.8500
    657.0000      0.0100      0.3600      4.0000   -999.2500   -999.2500      5.6720      0.8500   -999.2500   -999.2500      0.1500 49090916870222007100000000000.0000      0.5000 270000019174388625000000000000.0000      5.6720      1.0215      6.6710    -12.9300   -999.2500      6.6710    -18.9300    -17.2400      0.4099      0.0667      0.7200      0.3500   -999.2500      0.7000      0.8500
    657.5000      0.0100      0.3600      4.0000   -999.2500   -999.2500      5.1070      0.8500   -999.2500   -999.2500      0.1500 49090916870222007100000000000.0000      0.5000 270000019174388625000000000000.0000      5.1070      1.0213      6.2160    -10.7690   -999.2500      6.2160    -16.7690    -14.3587      0.4333      0.0667      0.7200      0.3500   -999.2500      0.7000      0.8500
    658.0000      0.0100      0.3600      4.0000   -999.2500   -999.2500      4.8450      0.8500   -999.2500   -999.2500      0.1500 49090916870222007100000000000.0000      0.5000 270000019174388625000000000000.0000      4.8450      1.0212      5.8050     -9.2930   -999.2500      5.8050    -15.2930    -12.3907      0.4454      0.0667      0.7200      0.3500   -999.2500      0.7000      0.8500
    658.5000      0.0100      0.3600      4.0000   -999.2500   -999.2500      4.7520      0.8500   -999.2500   -999.2500      0.1500 49090916870222007100000000000.0000      0.5000 270000019174388625000000000000.0000      4.7520      1.0210      5.7180     -8.5380   -999.2500      5.7180    -14.5380    -11.3840      0.4500      0.0667      0.7200      0.3500   -999.2500      0.7000      0.8500
    659.0000      0.0100      0.3600      4.0000   -999.2500   -999.2500      4.7340      0.8500   -999.2500   -999.2500      0.1500 49090916870222007100000000000.0000      0.5000 270000019174388625000000000000.0000      4.7340      1.0208      5.7220     -7.8190   -999.2500      5.7220    -13.8190    -10.4253      0.4508      0.0667      0.7200      0.3500   -999.2500      0.7000      0.8500
    659.5000      0.0100      0.3600      4.0000   -999.2500   -999.2500      4.7690      0.8500   -999.2500   -999.2500      0.1500 49090916870222007100000000000.0000      0.5000 270000019174388625000000000000.0000      4.7690      1.0207      5.7400     -7.6040   -999.2500      5.7400    -13.6040    -10.1387      0.4490      0.0667      0.7200      0.3500   -999.2500      0.7000      0.8500
