~V
VERS. 2.00: Ver 2.00
WRAP.   NO:        
~W
 STRT.FT 10:
 STOP.FT 5350:
 STEP.FT 0.5:
 NULL. -999.250000:
 COMP. Standard (Chevron):Company
 WELL. KCL 44-12:Well
 FLD. Pioneer:Field
 LOC. S32 T11N R22W:Location
 STAT. CA:State
 SRVC. :Service Company
 SON. :Service Order #
 DATE. :Log Date
 UWI. 0940400:Unique Well ID
~C
 DEPT.FT :
 GRS.RE/T :
 ILD.OHMM :
 LTHE. :
 MM. :
 NEUT.CPS :
 PHES. :
 PHMX. :
 PHTS. :
 PHZC. :
 RD.OHMM :
 ROS. :
 RS.OHMM :
 SBL.MV :
 SCLN. :
 SN.OHMM :
 SP.MV :
 SPN. :
 VCDS. :
 VCLY. :
 VCWS. :
 VSHS. :
~P
~A
# ...
   4689.5000      4.1510      2.7110      0.8500   -999.2500    221.5570      0.1500 49090916870222007100000000000.0000      0.5000 270000019174388625000000000000.0000      2.7110      0.4483      6.0990    -31.3430   -999.2500      6.0990    -79.3430    -89.5514      0.3500   -999.2500      0.7000      0.8500
   4690.0000      4.1270      2.6960      0.8500   -999.2500    221.0570      0.1500 49090916870222007100000000000.0000      0.5000 270000019174388625000000000000.0000      2.6960      0.4482      6.1360    -30.6240   -999.2500      6.1360    -78.6240    -87.4971      0.3500   -999.2500      0.7000      0.8500
   4690.5000      4.1000      2.6970      0.8500   -999.2500    219.8010      0.1500 49090916870222007100000000000.0000      0.5000 270000019174388625000000000000.0000      2.6970      0.4482      6.2190    -30.2640   -999.2500      6.2190    -78.2640    -86.4686      0.3500   -999.2500      0.7000      0.8500
   4691.0000      4.0740      2.7180      0.8500   -999.2500    218.3310      0.1500 49090916870222007100000000000.0000      0.5000 270000019174388625000000000000.0000      2.7180      0.4482      6.4550    -30.4060   -999.2500      6.4550    -78.4060    -86.8743      0.3500   -999.2500      0.7000      0.8500
   4691.5000      4.0220      2.7440      0.8500   -999.2500    216.8060      0.1500 49090916870222007100000000000.0000      0.5000 270000019174388625000000000000.0000      2.7440      0.4481      6.6730    -30.5480   -999.2500      6.6730    -78.5480    -87.2800      0.3500   -999.2500      0.7000      0.8500
   4692.0000      3.9920      2.7840      0.8500   -999.2500    215.4450      0.1500 49090916870222007100000000000.0000      0.5000 270000019174388625000000000000.0000      2.7840      0.4481      6.9520    -30.7620   -999.2500      6.9520    -78.7620    -87.8914      0.3500   -999.2500      0.7000      0.8500
   4692.5000      3.9630      2.8350      0.8500   -999.2500    214.1380      0.1500 49090916870222007100000000000.0000      0.5000 270000019174388625000000000000.0000      2.8350      0.4481      7.4160    -30.7600   -999.2500      7.4160    -78.7600    -87.8857      0.3500   -999.2500      0.7000      0.8500
   4693.0000      3.9310      2.8640      0.8500   -999.2500    216.3310      0.1500 49090916870222007100000000000.0000      0.5000 270000019174388625000000000000.0000      2.8640      0.4481      7.6630    -30.4000   -999.2500      7.6630    -78.4000    -86.8571      0.3500   -999.2500      0.7000      0.8500
   4693.5000      3.8980      2.9010      0.8500   -999.2500    218.1470      0.1500 49090916870222007100000000000.0000      0.5000 270000019174388625000000000000.0000      2.9010      0.4480      7.9200    -30.1840   -999.2500      7.9200    -78.1840    -86.2400      0.3500   -999.2500      0.7000      0.8500
   4694.0000      3.8470      2.9210      0.8500   -999.2500    218.2140      0.1500 49090916870222007100000000000.0000      0.5000 270000019174388625000000000000.0000      2.9210      0.4480      7.9860    -29.8590   -999.2500      7.9860    -77.8590    -85.3114      0.3500   -999.2500      0.7000      0.8500
   4694.5000      3.8750      2.9410      0.8500   -999.2500    218.2810      0.1500 49090916870222007100000000000.0000      0.5000 270000019174388625000000000000.0000      2.9410      0.4480      7.8950    -29.4280   -999.2500      7.8950    -77.4280    -84.0800      0.3500   -999.2500      0.7000      0.8500
   4695.0000      3.9090      2.9810      0.8500   -999.2500    217.7450      0.1500 49090916870222007100000000000.0000      0.5000 270000019174388625000000000000.0000      2.9810      0.4479      7.7140    -29.1570   -999.2500      7.7140    -77.1570    -83.3057      0.3500   -999.2500      0.7000      0.8500
   4695.5000      3.9430      3.0210      0.8500   -999.2500    217.2090      0.1500 49090916870222007100000000000.0000      0.5000 270000019174388625000000000000.0000      3.0210      0.4479      7.1890    -28.8870   -999.2500      7.1890    -76.8870    -82.5343      0.3500   -999.2500      0.7000      0.8500
   4696.0000      3.9670      3.0140      0.8500   -999.2500    216.6730      0.1500 49090916870222007100000000000.0000      0.5000 270000019174388625000000000000.0000      3.0140      0.4479      6.9500    -28.2400   -999.2500      6.9500    -76.2400    -80.6857      0.3500   -999.2500      0.7000      0.8500
   4696.5000      3.9630      2.9580      0.8500   -999.2500    215.9840      0.1500 49090916870222007100000000000.0000      0.5000 270000019174388625000000000000.0000      2.9580      0.4478      6.5510    -27.5930   -999.2500      6.5510    -75.5930    -78.8372      0.3500   -999.2500      0.7000      0.8500
   4697.0000      3.8410      2.9020      0.8500   -999.2500    215.2950      0.1500 49090916870222007100000000000.0000      0.5000 270000019174388625000000000000.0000      2.9020      0.4478      6.3960    -26.5870   -999.2500      6.3960    -74.5870    -75.9629      0.3500   -999.2500      0.7000      0.8500
   4697.5000      3.7880      2.6950      0.8500   -999.2500    214.5790      0.1500 49090916870222007100000000000.0000      0.5000 270000019174388625000000000000.0000      2.6950      0.4478      6.1750    -26.2270   -999.2500      6.1750    -74.2270    -74.9343      0.3500   -999.2500      0.7000      0.8500
   4698.0000      3.7360      2.5870      0.8500   -999.2500    214.5650      0.1500 49090916870222007100000000000.0000      0.5000 270000019174388625000000000000.0000      2.5870      0.4477      6.1350    -26.0820   -999.2500      6.1350    -74.0820    -74.5200      0.3500   -999.2500      0.7000      0.8500
   4698.5000      3.6940      2.4970      0.8500   -999.2500    214.5520      0.1500 49090916870222007100000000000.0000      0.5000 270000019174388625000000000000.0000      2.4970      0.4477      6.1820    -26.1530   -999.2500      6.1820    -74.1530    -74.7229      0.3500   -999.2500      0.7000      0.8500
   4699.0000      3.6510      2.4020      0.8500   -999.2500    214.8040      0.1500 49090916870222007100000000000.0000      0.5000 270000019174388625000000000000.0000      2.4020      0.4477      6.2300    -26.2230   -999.2500      6.2300    -74.2230    -74.9229      0.3500   -999.2500      0.7000      0.8500
   4699.5000      3.6130      2.3520      0.8500   -999.2500    214.8840      0.1500 49090916870222007100000000000.0000      0.5000 270000019174388625000000000000.0000      2.3520      0.4476      6.3390    -26.4360   -999.2500      6.3390    -74.4360    -75.5314      0.3500   -999.2500      0.7000      0.8500
   4700.0000      3.5870      2.3270      0.8500   -999.2500    214.9650      0.1500 49090916870222007100000000000.0000      0.5000 270000019174388625000000000000.0000      2.3270      0.4476      6.3800    -26.5080   -999.2500      6.3800    -74.5080    -75.7372      0.3500   -999.2500      0.7000      0.8500
   4700.5000      3.5600      2.3050      0.8500   -999.2500    215.0460      0.1500 49090916870222007100000000000.0000      0.5000 270000019174388625000000000000.0000      2.3050      0.4476      6.4220    -26.5800   -999.2500      6.4220    -74.5800    -75.9429      0.3500   -999.2500      0.7000      0.8500
   4701.0000      3.5510      2.2980      0.8500   -999.2500    215.1830      0.1500 49090916870222007100000000000.0000      0.5000 270000019174388625000000000000.0000      2.2980      0.4476      6.5400    -26.8680   -999.2500      6.5400    -74.8680    -76.7657      0.3500   -999.2500      0.7000      0.8500
   4701.5000      3.5410      2.2900      0.8500   -999.2500    215.3210      0.1500 49090916870222007100000000000.0000      0.5000 270000019174388625000000000000.0000      2.2900      0.4475      6.6570    -27.8730   -999.2500      6.6570    -75.8730    -79.6371      0.3500   -999.2500      0.7000      0.8500
   4702.0000      3.5230      2.3150      0.8500   -999.2500    215.1040      0.1500 49090916870222007100000000000.0000      0.5000 270000019174388625000000000000.0000      2.3150      0.4475      6.9110    -28.8420   -999.2500      6.9110    -76.8420    -82.4057      0.3500   -999.2500      0.7000      0.8500
