~V
VERS. 2.00: Ver 2.00
WRAP.   NO:        
~W
 STRT.FT 35:
 STOP.FT 5500:
 STEP.FT 0.5:
 NULL. -999.250000:
 COMP. Standard (Chevron):Company
 WELL. KCL 45-56:Well
 FLD. :Field
 LOC. S30 T11N R22W:Location
 STAT. CA:State
 SRVC. :Service Company
 SON. :Service Order #
 DATE. :Log Date
 UWI. 0369100:Unique Well ID
~C
 DEPT.FT :
 BVES. :
 BVTS. :
 ILD.OHMM :
 LLD.OHMM :
 LTHE. :
 MM. :
 PHES. :
 PHMX. :
 PHTS. :
 PHZC. :
 RD.OHMM :
 ROS. :
 RS.OHMM :
 SBL.MV :
 SCLN. :
 SN.OHMM :
 SP.MV :
 SPN. :
 STUS. :
 SWES. :
 SWTS. :
 VCDS. :
 VCLY. :
 VCWS. :
 VSHS. :
~P
~A
# ...
   1985.0000      0.1763      0.3890   -999.2500      1.7950      0.8237      2.7348      0.1763      0.1639      0.3890      0.4415      1.7950      2.4808   -999.2500     -6.6470    -50.0000   -999.2500    -13.7060     -6.6470      1.1312      1.0000      1.0000      0.2126      0.4253      0.4253      0.8237
   1985.5000      0.1745      0.3885   -999.2500      1.7370      0.8255      2.7360      0.1745      0.1638      0.3885      0.4407      1.7370      2.4887   -999.2500     -6.4635    -50.0000   -999.2500    -13.5230     -6.4635      1.1468      1.0000      1.0000      0.2140      0.4280      0.4280      0.8255
   1986.0000      0.1723      0.3879   -999.2500      1.7260      0.8277      2.7375      0.1723      0.1636      0.3879      0.4398      1.7260      2.4983   -999.2500     -6.2430    -50.0000   -999.2500    -13.3030     -6.2430      1.1512      1.0000      1.0000      0.2157      0.4314      0.4314      0.8277
   1986.5000      0.1711      0.3876   -999.2500      1.7830      0.8289      2.7383      0.1711      0.1635      0.3876      0.4394      1.7830      2.5032   -999.2500     -6.1315    -50.0000   -999.2500    -13.1920     -6.1315      1.1378      1.0000      1.0000      0.2165      0.4330      0.4330      0.8289
   1987.0000      0.1711      0.3876   -999.2500      1.7970      0.8289      2.7384      0.1711      0.1635      0.3876      0.4394      1.7970      2.5033   -999.2500     -6.1270    -50.0000   -999.2500    -13.1880     -6.1270      1.1345      1.0000      1.0000      0.2165      0.4331      0.4331      0.8289
   1987.5000      0.1726      0.3880   -999.2500      1.6780      0.8274      2.7373      0.1726      0.1636      0.3880      0.4400      1.6780      2.4963   -999.2500     -6.2846    -50.0000   -999.2500    -13.3460     -6.2846      1.1633      1.0000      1.0000      0.2154      0.4307      0.4307      0.8274
   1988.0000      0.1742      0.3884   -999.2500      1.5910      0.8258      2.7362      0.1742      0.1637      0.3884      0.4406      1.5910      2.4894   -999.2500     -6.4421    -50.0000   -999.2500    -13.5040     -6.4421      1.1859      1.0000      1.0000      0.2142      0.4284      0.4284      0.8258
   1988.5000      0.1788      0.3895   -999.2500      1.5110      0.8212      2.7329      0.1788      0.1641      0.3895      0.4425      1.5110      2.4691   -999.2500     -6.9076    -50.0000   -999.2500    -13.9700     -6.9076      1.2059      1.0000      1.0000      0.2107      0.4214      0.4214      0.8212
   1989.0000      0.1809      0.3900   -999.2500      1.4490      0.8191      2.7315      0.1809      0.1642      0.3900      0.4433      1.4490      2.4600   -999.2500     -7.1191    -50.0000   -999.2500    -14.1820     -7.1191      1.2236      1.0000      1.0000      0.2091      0.4182      0.4182      0.8191
   1989.5000      0.1827      0.3905   -999.2500      1.3910      0.8173      2.7303      0.1827      0.1644      0.3905      0.4440      1.3910      2.4524   -999.2500     -7.2956    -50.0000   -999.2500    -14.3590     -7.2956      1.2414      1.0000      1.0000      0.2078      0.4156      0.4156      0.8173
   1990.0000      0.1848      0.3910   -999.2500      1.3260      0.8152      2.7288      0.1848      0.1645      0.3910      0.4449      1.3260      2.4433   -999.2500     -7.5071    -50.0000   -999.2500    -14.5710     -7.5071      1.2626      1.0000      1.0000      0.2062      0.4124      0.4124      0.8152
   1990.5000      0.1825      0.3904   -999.2500      1.4840      0.8175      2.7304      0.1825      0.1644      0.3904      0.4439      1.4840      2.4531   -999.2500     -7.2767    -50.0000   -999.2500    -14.3410     -7.2767      1.2113      1.0000      1.0000      0.2079      0.4159      0.4159      0.8175
   1991.0000      0.1784      0.3894   -999.2500      1.5580      0.8216      2.7332      0.1784      0.1640      0.3894      0.4423      1.5580      2.4706   -999.2500     -6.8672    -50.0000   -999.2500    -13.9320     -6.8672      1.1921      1.0000      1.0000      0.2110      0.4220      0.4220      0.8216
   1991.5000      0.1753      0.3886   -999.2500      1.6430      0.8247      2.7353      0.1753      0.1638      0.3886      0.4410      1.6430      2.4836   -999.2500     -6.5647    -50.0000   -999.2500    -13.6300     -6.5647      1.1705      1.0000      1.0000      0.2133      0.4265      0.4265      0.8247
   1992.0000      0.1716      0.3877   -999.2500      1.6990      0.8284      2.7379      0.1716      0.1635      0.3877      0.4395      1.6990      2.5000   -999.2500     -6.1902    -50.0000   -999.2500    -13.2560     -6.1902      1.1584      1.0000      1.0000      0.2161      0.4321      0.4321      0.8284
   1992.5000      0.1721      0.3878   -999.2500      1.7090      0.8279      2.7375      0.1721      0.1636      0.3878      0.4397      1.7090      2.4974   -999.2500     -6.2477    -50.0000   -999.2500    -13.3140     -6.2477      1.1554      1.0000      1.0000      0.2156      0.4313      0.4313      0.8279
   1993.0000      0.1727      0.3879   -999.2500      1.6820      0.8273      2.7371      0.1727      0.1636      0.3879      0.4399      1.6820      2.4948   -999.2500     -6.3052    -50.0000   -999.2500    -13.3720     -6.3052      1.1620      1.0000      1.0000      0.2152      0.4304      0.4304      0.8273
   1993.5000      0.1740      0.3882   -999.2500      1.6160      0.8260      2.7362      0.1740      0.1637      0.3882      0.4405      1.6160      2.4890   -999.2500     -6.4368    -50.0000   -999.2500    -13.5040     -6.4368      1.1788      1.0000      1.0000      0.2142      0.4284      0.4284      0.8260
   1994.0000      0.1764      0.3888   -999.2500      1.4850      0.8236      2.7346      0.1764      0.1639      0.3888      0.4414      1.4850      2.4786   -999.2500     -6.6753    -50.0000   -999.2500    -13.7430     -6.6753      1.2156      1.0000      1.0000      0.2124      0.4249      0.4249      0.8236
   1994.5000      0.1780      0.3892   -999.2500      1.3940      0.8220      2.7334      0.1780      0.1640      0.3892      0.4421      1.3940      2.4713   -999.2500     -6.8408    -50.0000   -999.2500    -13.9090     -6.8408      1.2439      1.0000      1.0000      0.2112      0.4224      0.4224      0.8220
   1995.0000      0.1718      0.3876   -999.2500      1.4790      0.8282      2.7377      0.1718      0.1636      0.3876      0.4395      1.4790      2.4986   -999.2500     -6.2153    -50.0000   -999.2500    -13.2840     -6.2153      1.2210      1.0000      1.0000      0.2159      0.4318      0.4318      0.8282
   1995.5000      0.1662      0.3862   -999.2500      1.6220      0.8338      2.7416      0.1662      0.1631      0.3862      0.4373      1.6220      2.5231   -999.2500     -5.6608    -50.0000   -999.2500    -12.7300     -5.6608      1.1830      1.0000      1.0000      0.2200      0.4401      0.4401      0.8338
   1996.0000      0.1628      0.3854   -999.2500      1.8940      0.8372      2.7439      0.1628      0.1629      0.3854      0.4359      1.8940      2.5383   -999.2500     -5.3223    -50.0000   -999.2500    -12.3920     -5.3223      1.1177      1.0000      1.0000      0.2226      0.4452      0.4452      0.8372
   1996.5000      0.1592      0.3845   -999.2500      1.9970      0.8408      2.7464      0.1592      0.1626      0.3845      0.4344      1.9970      2.5544   -999.2500     -4.9479    -50.0000   -999.2500    -12.0180     -4.9479      1.0930      1.0000      1.0000      0.2253      0.4505      0.4505      0.8408
   1997.0000      0.1594      0.3845   -999.2500      2.0720      0.8406      2.7463      0.1594      0.1626      0.3845      0.4345      2.0720      2.5537   -999.2500     -4.9694    -50.0000   -999.2500    -12.0400     -4.9694      1.0783      1.0000      1.0000      0.2252      0.4503      0.4503      0.8406
   1997.5000      0.1620      0.3852   -999.2500      2.0920      0.8380      2.7445      0.1620      0.1628      0.3852      0.4355      2.0920      2.5416   -999.2500     -5.2439    -50.0000   -999.2500    -12.3150     -5.2439      1.0728      1.0000      1.0000      0.2232      0.4463      0.4463      0.8380
