~V
VERS. 2.00: Ver 2.00
WRAP.   NO:        
~W
 STRT.FT 29:
 STOP.FT 4770:
 STEP.FT 0.5:
 NULL. -999.250000:
 COMP. Standard (Chevron):Company
 WELL. KCL 44-32:Well
 FLD. Pioneer:Field
 LOC. S32 T11N R22W:Location
 STAT. CA:State
 SRVC. :Service Company
 SON. :Service Order #
 DATE. :Log Date
 UWI. 0940700:Unique Well ID
~C
 DEPT.FT :
 BVES. :
 BVTS. :
 FACE. :
 GRS.RE/T :
 ILD.OHMM :
 LTHE. :
 MM. :
 NEUT.CPS :
 PHES. :
 PHMX. :
 PHTS. :
 PHZC. :
 RD.OHMM :
 ROS. :
 RS.OHMM :
 SBL.MV :
 SCLN. :
 SN.OHMM :
 SP.MV :
 SPN. :
 STUS. :
 SWES. :
 SWTS. :
 VCDS. :
 VCLY. :
 VCWS. :
 VSHS. :
~P
~A
# ...
    353.0000      0.1484      0.1484      1.0000   -999.2500      8.7550      0.5042      1.8000   -999.2500      0.4958      0.1913      0.4958      0.5922      8.7550      0.9984      8.7880    -17.7610   -999.2500      8.7880    -31.7610    -35.5220      0.2993      0.2993      0.2993      0.0000      0.0000      0.0000      0.0000
    353.5000      0.1474      0.1474      1.0000   -999.2500      8.8560      0.5042      1.8000   -999.2500      0.4958      0.1913      0.4958      0.5922      8.8560      0.9984      8.8270    -18.1860   -999.2500      8.8270    -32.1860    -36.3720      0.2974      0.2974      0.2974      0.0000      0.0000      0.0000      0.0000
    354.0000      0.1457      0.1457      1.0000   -999.2500      9.0500      0.5043      1.8000   -999.2500      0.4957      0.1913      0.4957      0.5922      9.0500      0.9984      8.8850    -18.6480   -999.2500      8.8850    -32.6480    -37.2960      0.2939      0.2939      0.2939      0.0000      0.0000      0.0000      0.0000
    354.5000      0.1454      0.1454      1.0000   -999.2500      9.0850      0.5043      1.8000   -999.2500      0.4957      0.1913      0.4957      0.5922      9.0850      0.9983      8.9560    -19.0370   -999.2500      8.9560    -33.0370    -38.0740      0.2932      0.2932      0.2932      0.0000      0.0000      0.0000      0.0000
    355.0000      0.1453      0.1453      1.0000   -999.2500      9.0930      0.5043      1.8000   -999.2500      0.4957      0.1913      0.4957      0.5922      9.0930      0.9983      9.0100    -19.4980   -999.2500      9.0100    -33.4980    -38.9960      0.2931      0.2931      0.2931      0.0000      0.0000      0.0000      0.0000
    355.5000      0.1471      0.1471      1.0000   -999.2500      8.8950      0.5043      1.8000   -999.2500      0.4957      0.1913      0.4957      0.5922      8.8950      0.9983      9.0060    -19.7810   -999.2500      9.0060    -33.7810    -39.5620      0.2967      0.2967      0.2967      0.0000      0.0000      0.0000      0.0000
    356.0000      0.1494      0.1494      1.0000   -999.2500      8.6410      0.5043      1.8000   -999.2500      0.4957      0.1913      0.4957      0.5922      8.6410      0.9982      8.6330    -20.0280   -999.2500      8.6330    -34.0280    -40.0560      0.3015      0.3015      0.3015      0.0000      0.0000      0.0000      0.0000
    356.5000      0.1511      0.1511      1.0000   -999.2500      8.4720      0.5043      1.8000   -999.2500      0.4957      0.1913      0.4957      0.5922      8.4720      0.9982      8.5940    -19.3090   -999.2500      8.5940    -33.3090    -38.6180      0.3048      0.3048      0.3048      0.0000      0.0000      0.0000      0.0000
    357.0000      0.1514      0.1514      1.0000   -999.2500      8.4360      0.5043      1.8000   -999.2500      0.4957      0.1913      0.4957      0.5921      8.4360      0.9981      8.6120    -17.9830   -999.2500      8.6120    -31.9830    -35.9660      0.3055      0.3055      0.3055      0.0000      0.0000      0.0000      0.0000
    357.5000      0.1487      0.1501      1.0000   -999.2500      8.6120      0.5062      1.8028   -999.2500      0.4938      0.1912      0.4952      0.5914      8.6120      1.0016      8.8160    -17.3360   -999.2500      8.8160    -31.3360    -34.6720      0.3032      0.3012      0.3032      0.0014      0.0028      0.0028      0.0094
    358.0000      0.1431      0.1491      1.0000   -999.2500      8.8700      0.5122      1.8121   -999.2500      0.4878      0.1907      0.4939      0.5889      8.8700      1.0132      9.1100    -16.7960   -999.2500      9.1100    -30.7960    -33.5920      0.3020      0.2934      0.3020      0.0060      0.0121      0.0121      0.0402
    358.5000      0.1349      0.1477      1.0000   -999.2500      9.2650      0.5210      1.8256   -999.2500      0.4790      0.1900      0.4918      0.5852      9.2650      1.0305      9.2970    -16.0060   -999.2500      9.2970    -30.0060    -32.0120      0.3003      0.2816      0.3003      0.0128      0.0256      0.0256      0.0854
    359.0000      0.1264      0.1448      1.0000   -999.2500      9.8130      0.5282      1.8367   -999.2500      0.4718      0.1895      0.4902      0.5822      9.8130      1.0451      9.5910    -15.3590   -999.2500      9.5910    -29.3590    -30.7180      0.2954      0.2680      0.2954      0.0184      0.0367      0.0367      0.1223
    359.5000      0.1241      0.1437      1.0000   -999.2500      9.9960      0.5298      1.8392   -999.2500      0.4702      0.1894      0.4898      0.5815      9.9960      1.0484      9.9860    -15.2120   -999.2500      9.9860    -29.2120    -30.4240      0.2934      0.2640      0.2934      0.0196      0.0392      0.0392      0.1307
    360.0000      0.1224      0.1375      1.0000   -999.2500     10.6530      0.5239      1.8301   -999.2500      0.4761      0.1898      0.4911      0.5840     10.6530      1.0362      9.9870    -15.7450   -999.2500      9.9870    -29.7450    -31.4900      0.2799      0.2571      0.2799      0.0150      0.0301      0.0301      0.1003
    360.5000      0.1223      0.1340      1.0000   -999.2500     11.0130      0.5195      1.8233   -999.2500      0.4805      0.1901      0.4921      0.5858     11.0130      1.0273      9.9880    -16.1430   -999.2500      9.9880    -30.1430    -32.2860      0.2722      0.2546      0.2722      0.0116      0.0233      0.0233      0.0775
    361.0000      0.1225      0.1322      1.0000   -999.2500     11.1940      0.5171      1.8195   -999.2500      0.4829      0.1903      0.4927      0.5868     11.1940      1.0224      9.9880    -16.3630   -999.2500      9.9880    -30.3630    -32.7260      0.2684      0.2536      0.2684      0.0097      0.0195      0.0195      0.0650
    361.5000      0.1234      0.1302      1.0000   -999.2500     11.3750      0.5132      1.8136   -999.2500      0.4868      0.1906      0.4935      0.5884     11.3750      1.0148      9.9890    -16.7080   -999.2500      9.9890    -30.7080    -33.4160      0.2638      0.2535      0.2638      0.0068      0.0136      0.0136      0.0453
    362.0000      0.1228      0.1267      1.0000   -999.2500     11.8080      0.5094      1.8077   -999.2500      0.4906      0.1909      0.4944      0.5900     11.8080      1.0073      9.9900    -17.0530   -999.2500      9.9900    -31.0530    -34.1060      0.2562      0.2504      0.2562      0.0038      0.0077      0.0077      0.0255
    362.5000      0.1244      0.1245      1.0000   -999.2500     11.9890      0.5046      1.8002   -999.2500      0.4954      0.1913      0.4955      0.5920     11.9890      0.9980      9.9910    -17.4870   -999.2500      9.9910    -31.4870    -34.9740      0.2513      0.2512      0.2513      0.0001      0.0002      0.0002      0.0007
    363.0000      0.1245      0.1245      1.0000   -999.2500     11.9910      0.5045      1.8000   -999.2500      0.4955      0.1913      0.4955      0.5920     11.9910      0.9977      9.9920    -17.5640   -999.2500      9.9920    -31.5640    -35.1280      0.2512      0.2512      0.2512      0.0000      0.0000      0.0000      0.0000
    363.5000      0.1264      0.1264      1.0000   -999.2500     11.6700      0.5045      1.8000   -999.2500      0.4955      0.1913      0.4955      0.5920     11.6700      0.9977      9.9930    -17.4980   -999.2500      9.9930    -31.4980    -34.9960      0.2551      0.2550      0.2551      0.0000      0.0000      0.0000      0.0001
    364.0000      0.1269      0.1293      1.0000   -999.2500     11.3130      0.5076      1.8048   -999.2500      0.4924      0.1910      0.4948      0.5907     11.3130      1.0036      9.9940    -17.2180   -999.2500      9.9940    -31.2180    -34.4360      0.2613      0.2577      0.2613      0.0024      0.0048      0.0048      0.0161
    364.5000      0.1291      0.1327      1.0000   -999.2500     10.8480      0.5092      1.8072   -999.2500      0.4908      0.1909      0.4944      0.5900     10.8480      1.0065      9.9950    -17.0800   -999.2500      9.9950    -31.0800    -34.1600      0.2683      0.2630      0.2683      0.0036      0.0072      0.0072      0.0240
