~V
VERS. 2.00: Ver 2.00
WRAP.   NO:        
~W
 STRT.FT 20:
 STOP.FT 4330:
 STEP.FT 0.5:
 NULL. -999.250000:
 COMP. Standard (Chevron):Company
 WELL. KCL 44-25:Well
 FLD. Pioneer:Field
 LOC. S32 T11N R22W:Location
 STAT. CA:State
 SRVC. :Service Company
 SON. :Service Order #
 DATE. :Log Date
 UWI. 0940600:Unique Well ID
~C
 DEPT.FT :
 BVES. :
 BVTS. :
 FACE. :
 GR.RE/T :
 GRS.RE/T :
 ILD.OHMM :
 LTHE. :
 MM. :
 NEUS.CPS :
 NEUT.CPS :
 PHES. :
 PHMX. :
 PHTS. :
 PHZC. :
 RD.OHMM :
 ROS. :
 RS.OHMM :
 SBL.MV :
 SCLN. :
 SN.OHMM :
 SP.MV :
 SPN. :
 STUS. :
 SWES. :
 SWTS. :
 VCDS. :
 VCLY. :
 VCWS. :
 VSHS. :
~P
~A
# ...
   1748.0000      0.2557      0.4129      3.0000   -999.2500   -999.2500      1.4910      0.7443      2.5861   -999.2500   -999.2500      0.2557      0.1703      0.4129      0.4767      1.4910      2.0286      1.8370     -8.2732    -75.2536      1.8370    -39.2790    -10.3415      1.1278      1.0000      1.0000      0.1572      0.3144      0.3144      0.7443
   1748.5000      0.2601      0.4139      3.0000   -999.2500   -999.2500      1.4770      0.7399      2.5646   -999.2500   -999.2500      0.2601      0.1706      0.4139      0.4785      1.4770      1.9817      1.8370     -8.9228    -75.2577      1.8370    -39.9550    -11.1534      1.1229      1.0000      1.0000      0.1538      0.3077      0.3077      0.7399
   1749.0000      0.2581      0.4135      3.0000   -999.2500   -999.2500      1.4630      0.7419      2.5741   -999.2500   -999.2500      0.2581      0.1705      0.4135      0.4776      1.4630      2.0022      1.8410     -8.6373    -75.2617      1.8410    -39.6960    -10.7966      1.1311      1.0000      1.0000      0.1553      0.3107      0.3107      0.7419
   1749.5000      0.2502      0.4115      3.0000   -999.2500   -999.2500      1.4490      0.7498      2.6123   -999.2500   -999.2500      0.2502      0.1699      0.4115      0.4744      1.4490      2.0872      1.8920     -7.4879    -75.2657      1.8920    -38.5730     -9.3598      1.1513      1.0000      1.0000      0.1613      0.3226      0.3226      0.7498
   1750.0000      0.2710      0.4166      3.0000   -999.2500   -999.2500      1.4390      0.7290      2.5118   -999.2500   -999.2500      0.2710      0.1714      0.4166      0.4829      1.4390      1.8724      1.9710    -10.5144    -75.2697      1.9710    -41.6260    -13.1430      1.1122      1.0000      1.0000      0.1456      0.2912      0.2912      0.7290
   1750.5000      0.2868      0.4204      3.0000   -999.2500   -999.2500      1.5720      0.7132      2.4347   -999.2500   -999.2500      0.2868      0.1726      0.4204      0.4894      1.5720      1.7262      2.0900    -12.8340    -75.2737      2.0900    -43.9720    -16.0425      1.0353      1.0000      1.0000      0.1335      0.2671      0.2671      0.7132
   1751.0000      0.2882      0.4142      3.0000   -999.2500   -999.2500      1.7190      0.7032      2.3863   -999.2500   -999.2500      0.2968      0.1734      0.4228      0.4934      1.7190      1.6418      2.3010    -14.2905    -75.2777      2.3010    -45.4550    -17.8632      0.9798      0.9712      0.9798      0.1260      0.2520      0.2520      0.7032
   1751.5000      0.2814      0.4040      3.0000   -999.2500   -999.2500      1.7870      0.6987      2.3643   -999.2500   -999.2500      0.3013      0.1737      0.4239      0.4953      1.7870      1.6050      2.8190    -14.9551    -75.2818      2.8190    -46.1460    -18.6939      0.9530      0.9339      0.9530      0.1225      0.2451      0.2451      0.6987
   1752.0000      0.2701      0.3982      3.0000   -999.2500   -999.2500      1.8980      0.7060      2.3996   -999.2500   -999.2500      0.2940      0.1731      0.4221      0.4923      1.8980      1.6644      3.3400    -13.8926    -75.2858      3.3400    -45.1100    -17.3658      0.9434      0.9187      0.9434      0.1281      0.2561      0.2561      0.7060
   1752.5000      0.2599      0.3970      3.0000   -999.2500   -999.2500      2.0020      0.7180      2.4577   -999.2500   -999.2500      0.2820      0.1723      0.4192      0.4874      2.0020      1.7682      3.7500    -12.1452    -75.2898      3.7500    -43.3890    -15.1815      0.9471      0.9214      0.9471      0.1371      0.2743      0.2743      0.7180
   1753.0000      0.2532      0.3990      3.0000   -999.2500   -999.2500      2.0700      0.7294      2.5134   -999.2500   -999.2500      0.2706      0.1714      0.4164      0.4827      2.0700      1.8754      4.0730    -10.4708    -75.2938      4.0730    -41.7410    -13.0884      0.9583      0.9358      0.9583      0.1458      0.2917      0.2917      0.7294
   1753.5000      0.2466      0.4045      3.0000   -999.2500   -999.2500      2.1340      0.7454      2.5906   -999.2500   -999.2500      0.2546      0.1702      0.4125      0.4762      2.1340      2.0380      4.2600     -8.1473    -75.2978      4.2600    -39.4440    -10.1841      0.9806      0.9686      0.9806      0.1579      0.3158      0.3158      0.7454
   1754.0000      0.2403      0.4086      3.0000   -999.2500   -999.2500      2.1990      0.7592      2.6571   -999.2500   -999.2500      0.2408      0.1692      0.4091      0.4705      2.1990      2.1922      4.3280     -6.1489    -75.3018      4.3280    -37.4720     -7.6861      0.9987      0.9978      0.9987      0.1683      0.3366      0.3366      0.7592
   1754.5000      0.2288      0.4062      3.0000   -999.2500   -999.2500      2.2270      0.7712      2.7022   -999.2500   -999.2500      0.2288      0.1683      0.4062      0.4656      2.2270      2.3118      4.2950     -4.4024    -75.3059      4.2950    -35.7520     -5.5030      1.0113      1.0000      1.0000      0.1774      0.3547      0.3547      0.7712
   1755.0000      0.2160      0.4030      3.0000   -999.2500   -999.2500      2.2450      0.7840      2.7111   -999.2500   -999.2500      0.2160      0.1673      0.4030      0.4604      2.2450      2.3629      3.4030     -2.5470    -75.3099      3.4030    -33.9230     -3.1837      1.0154      1.0000      1.0000      0.1870      0.3740      0.3740      0.7840
   1755.5000      0.2047      0.4002      3.0000   -999.2500   -999.2500      1.9600      0.7953      2.7189   -999.2500   -999.2500      0.2047      0.1665      0.4002      0.4558      1.9600      2.4097      2.2330     -0.9085    -75.3139      2.2330    -32.3110     -1.1357      1.0786      1.0000      1.0000      0.1955      0.3910      0.3910      0.7953
   1756.0000      0.1984      0.3986      4.0000   -999.2500   -999.2500      1.7290      0.8016      2.7233   -999.2500   -999.2500      0.1984      0.1660      0.3986      0.4532      1.7290      2.4366      2.0320      0.0109    -75.3179      2.0320    -31.4180      0.0136      1.1340      1.0000      1.0000      0.2003      0.4006      0.4006      0.8016
   1756.5000      0.2094      0.4014      3.0000   -999.2500   -999.2500      1.5740      0.7906      2.7157   -999.2500   -999.2500      0.2094      0.1669      0.4014      0.4577      1.5740      2.3900      1.9310     -1.5896    -75.3219      1.9310    -33.0450     -1.9871      1.1726      1.0000      1.0000      0.1920      0.3839      0.3839      0.7906
   1757.0000      0.2130      0.4022      3.0000   -999.2500   -999.2500      1.4370      0.7870      2.7132   -999.2500   -999.2500      0.2130      0.1671      0.4022      0.4591      1.4370      2.3751      1.8550     -2.1102    -75.3260      1.8550    -33.5920     -2.6378      1.2112      1.0000      1.0000      0.1893      0.3785      0.3785      0.7870
   1757.5000      0.2210      0.4042      3.0000   -999.2500   -999.2500      1.4050      0.7790      2.7076   -999.2500   -999.2500      0.2210      0.1677      0.4042      0.4624      1.4050      2.3423      1.8150     -3.2788    -75.3300      1.8150    -34.7870     -4.0984      1.2155      1.0000      1.0000      0.1832      0.3664      0.3664      0.7790
   1758.0000      0.2250      0.4052      3.0000   -999.2500   -999.2500      1.3900      0.7750      2.7047   -999.2500   -999.2500      0.2250      0.1680      0.4052      0.4640      1.3900      2.3260      1.7780     -3.8713    -75.3340      1.7780    -35.4060     -4.8391      1.2174      1.0000      1.0000      0.1801      0.3603      0.3603      0.7750
   1758.5000      0.2296      0.4063      3.0000   -999.2500   -999.2500      1.3860      0.7704      2.7016   -999.2500   -999.2500      0.2296      0.1683      0.4063      0.4659      1.3860      2.3079      1.7490     -4.5359    -75.3380      1.7490    -36.0970     -5.6698      1.2153      1.0000      1.0000      0.1767      0.3534      0.3534      0.7704
   1759.0000      0.2285      0.4060      3.0000   -999.2500   -999.2500      1.3960      0.7715      2.7024   -999.2500   -999.2500      0.2285      0.1683      0.4060      0.4654      1.3960      2.3123      1.7350     -4.3724    -75.3420      1.7350    -35.9600     -5.4655      1.2128      1.0000      1.0000      0.1775      0.3551      0.3551      0.7715
