~V
VERS. 2.00: Ver 2.00
WRAP.   NO:        
~W
 STRT.FT 29:
 STOP.FT 4770:
 STEP.FT 0.5:
 NULL. -999.250000:
 COMP. Standard (Chevron):Company
 WELL. KCL 44-32:Well
 FLD. Pioneer:Field
 LOC. S32 T11N R22W:Location
 STAT. CA:State
 SRVC. :Service Company
 SON. :Service Order #
 DATE. :Log Date
 UWI. 0940700:Unique Well ID
~C
 DEPT.FT :
 BVES. :
 BVTS. :
 FACE. :
 GRS.RE/T :
 ILD.OHMM :
 LTHE. :
 MM. :
 NEUT.CPS :
 PHES. :
 PHMX. :
 PHTS. :
 PHZC. :
 RD.OHMM :
 ROS. :
 RS.OHMM :
 SBL.MV :
 SCLN. :
 SN.OHMM :
 SP.MV :
 SPN. :
 STUS. :
 SWES. :
 SWTS. :
 VCDS. :
 VCLY. :
 VCWS. :
 VSHS. :
~P
~A
     29.0000      0.0347      0.1628      3.0000   -999.2500     23.0970      0.6636      2.4000   -999.2500      0.3364      0.1800      0.4645      0.5302     23.0970      1.9282      0.1660     -6.2710   -999.2500      0.1660    -20.2710    -12.5420      0.3504      0.1031      0.3504      0.1281      0.2562      0.2562      0.6636
     29.5000      0.0423      0.1422      3.0000   -999.2500     23.3110      0.6265      2.2192   -999.2500      0.3735      0.1828      0.4734      0.5454     23.3110      1.5997      0.1690     -7.5890   -999.2500      0.1690    -21.5890    -15.1780      0.3003      0.1132      0.3003      0.0999      0.1998      0.1998      0.6265
     30.0000      0.0429      0.1383      3.0000   -999.2500     23.5220      0.6206      2.1907   -999.2500      0.3794      0.1832      0.4748      0.5478     23.5220      1.5544      0.1690     -7.7970   -999.2500      0.1690    -21.7970    -15.5940      0.2913      0.1130      0.2913      0.0954      0.1908      0.1908      0.6206
     30.5000      0.0100      0.2600      4.0000   -999.2500     23.7040      0.8253      2.7692   -999.2500      0.1747      0.1681      0.4247      0.4643     23.7040      3.3788      0.1690     13.9080   -999.2500      0.1690     -0.0920     27.8160      0.4931      0.0573      0.6123      0.2500      0.5000      0.5000      0.8253
     31.0000      0.0100      0.2600      4.0000   -999.2500     24.1730      0.8254      2.7692   -999.2500      0.1746      0.1681      0.4246      0.4643     24.1730      3.3784      0.1690     13.9300   -999.2500      0.1690     -0.0700     27.8600      0.4895      0.0573      0.6123      0.2500      0.5000      0.5000      0.8254
     31.5000      0.0100      0.2600      4.0000   -999.2500     25.4310      0.8254      2.7692   -999.2500      0.1746      0.1681      0.4246      0.4643     25.4310      3.3781      0.1690     13.9520   -999.2500      0.1690     -0.0480     27.9040      0.4886      0.0573      0.6123      0.2500      0.5000      0.5000      0.8254
     32.0000      0.0100      0.2600      4.0000   -999.2500     26.7980      0.8254      2.7692   -999.2500      0.1746      0.1681      0.4246      0.4643     26.7980      3.3778      0.1690     13.9740   -999.2500      0.1690     -0.0260     27.9480      0.4796      0.0573      0.6123      0.2500      0.5000      0.5000      0.8254
     32.5000      0.0100      0.2600      4.0000   -999.2500     27.8770      0.8254      2.7692   -999.2500      0.1746      0.1681      0.4246      0.4643     27.8770      3.3775      0.1710     13.9950   -999.2500      0.1710     -0.0050     27.9900      0.4729      0.0573      0.6123      0.2500      0.5000      0.5000      0.8254
     33.0000      0.0100      0.2600      4.0000   -999.2500     29.1360      0.8254      2.7692   -999.2500      0.1746      0.1680      0.4246      0.4643     29.1360      3.3771      0.1730     13.9170   -999.2500      0.1730     -0.0830     27.8340      0.4655      0.0573      0.6124      0.2500      0.5000      0.5000      0.8254
     33.5000      0.0100      0.2600      4.0000   -999.2500     27.5580      0.8254      2.7692   -999.2500      0.1746      0.1680      0.4246      0.4643     27.5580      3.3768      0.1740     13.9390   -999.2500      0.1740     -0.0610     27.8780      0.4748      0.0573      0.6124      0.2500      0.5000      0.5000      0.8254
     34.0000      0.0100      0.2600      4.0000   -999.2500     28.2060      0.8254      2.7692   -999.2500      0.1746      0.1680      0.4246      0.4643     28.2060      3.3765      0.1740     13.9610   -999.2500      0.1740     -0.0390     27.9220      0.4709      0.0573      0.6124      0.2500      0.5000      0.5000      0.8254
     34.5000      0.0100      0.2600      4.0000   -999.2500     36.0000      0.8254      2.7692   -999.2500      0.1746      0.1680      0.4246      0.4642     36.0000      3.3762      0.1740     14.0180   -999.2500      0.1740      0.0180     28.0360      0.4317      0.0573      0.6124      0.2500      0.5000      0.5000      0.8254
     35.0000      0.0100      0.2600      4.0000   -999.2500     37.6550      0.8255      2.7692   -999.2500      0.1745      0.1680      0.4245      0.4642     37.6550      3.3758      0.1740     13.9040   -999.2500      0.1740     -0.0960     27.8080      0.4249      0.0573      0.6124      0.2500      0.5000      0.5000      0.8255
     35.5000      0.0100      0.2600      4.0000   -999.2500     39.4150      0.8255      2.7692   -999.2500      0.1745      0.1680      0.4245      0.4642     39.4150      3.3755      0.1730     13.9260   -999.2500      0.1730     -0.0740     27.8520      0.4180      0.0573      0.6124      0.2500      0.5000      0.5000      0.8255
     36.0000      0.0100      0.2600      4.0000   -999.2500     40.3870      0.8255      2.7692   -999.2500      0.1745      0.1680      0.4245      0.4642     40.3870      3.3752      0.1710     13.9480   -999.2500      0.1710     -0.0520     27.8960      0.4144      0.0573      0.6125      0.2500      0.5000      0.5000      0.8255
     36.5000      0.0100      0.2600      4.0000   -999.2500     40.8200      0.8255      2.7692   -999.2500      0.1745      0.1680      0.4245      0.4642     40.8200      3.3749      0.1710     13.9690   -999.2500      0.1710     -0.0310     27.9380      0.4128      0.0573      0.6125      0.2500      0.5000      0.5000      0.8255
     37.0000      0.0100      0.2600      4.0000   -999.2500     37.2660      0.8255      2.7692   -999.2500      0.1745      0.1680      0.4245      0.4642     37.2660      3.3745      0.1710     13.9910   -999.2500      0.1710     -0.0090     27.9820      0.4264      0.0573      0.6125      0.2500      0.5000      0.5000      0.8255
     37.5000      0.0100      0.2600      4.0000   -999.2500     30.2650      0.8255      2.7692   -999.2500      0.1745      0.1680      0.4245      0.4642     30.2650      3.3742      0.1710     13.9130   -999.2500      0.1710     -0.0870     27.8260      0.4591      0.0573      0.6125      0.2500      0.5000      0.5000      0.8255
     38.0000      0.0100      0.2600      4.0000   -999.2500     30.4830      0.8255      2.7692   -999.2500      0.1745      0.1680      0.4245      0.4642     30.4830      3.3739      0.1720     13.9350   -999.2500      0.1720     -0.0650     27.8700      0.4579      0.0573      0.6125      0.2500      0.5000      0.5000      0.8255
     38.5000      0.0100      0.2600      4.0000   -999.2500     33.3940      0.8255      2.7692   -999.2500      0.1745      0.1680      0.4245      0.4642     33.3940      3.3736      0.1720     13.9560   -999.2500      0.1720     -0.0440     27.9120      0.4433      0.0573      0.6126      0.2500      0.5000      0.5000      0.8255
     39.0000      0.0100      0.2600      4.0000   -999.2500     36.8430      0.8256      2.7692   -999.2500      0.1744      0.1680      0.4244      0.4641     36.8430      3.3732      0.1720     13.9780   -999.2500      0.1720     -0.0220     27.9560      0.4280      0.0573      0.6126      0.2500      0.5000      0.5000      0.8256
     39.5000      0.0100      0.2600      4.0000   -999.2500     38.5690      0.8256      2.7692   -999.2500      0.1744      0.1680      0.4244      0.4641     38.5690      3.3729      0.1720     14.0000   -999.2500      0.1720      0.0000     28.0000      0.4211      0.0573      0.6126      0.2500      0.5000      0.5000      0.8256
     40.0000      0.0100      0.2600      4.0000   -999.2500     40.4350      0.8256      2.7692   -999.2500      0.1744      0.1680      0.4244      0.4641     40.4350      3.3726      0.1730     13.9210   -999.2500      0.1730     -0.0790     27.8420      0.4141      0.0573      0.6126      0.2500      0.5000      0.5000      0.8256
     40.5000      0.0100      0.2600      4.0000   -999.2500     40.9670      0.8256      2.7692   -999.2500      0.1744      0.1680      0.4244      0.4641     40.9670      3.3723      0.1720     13.9430   -999.2500      0.1720     -0.0570     27.8860      0.4121      0.0573      0.6126      0.2500      0.5000      0.5000      0.8256
