~V
VERS. 2.00: Ver 2.00
WRAP.   NO:        
~W
 STRT.FT 20:
 STOP.FT 4330:
 STEP.FT 0.5:
 NULL. -999.250000:
 COMP. Standard (Chevron):Company
 WELL. KCL 44-25:Well
 FLD. Pioneer:Field
 LOC. S32 T11N R22W:Location
 STAT. CA:State
 SRVC. :Service Company
 SON. :Service Order #
 DATE. :Log Date
 UWI. 0940600:Unique Well ID
~C
 DEPT.FT :
 BVES. :
 BVTS. :
 FACE. :
 GR.RE/T :
 GRS.RE/T :
 ILD.OHMM :
 LTHE. :
 MM. :
 NEUS.CPS :
 NEUT.CPS :
 PHES. :
 PHMX. :
 PHTS. :
 PHZC. :
 RD.OHMM :
 ROS. :
 RS.OHMM :
 SBL.MV :
 SCLN. :
 SN.OHMM :
 SP.MV :
 SPN. :
 STUS. :
 SWES. :
 SWTS. :
 VCDS. :
 VCLY. :
 VCWS. :
 VSHS. :
~P
~A
# ...
   2679.5000      0.1430      0.2468      3.0000   -999.2500   -999.2500      4.0360      0.6966      2.2587   -999.2500   -999.2500      0.3034      0.1718      0.4072      0.4850      4.0360      1.3925      5.0760    -19.5955    -78.3273      5.0760    -28.5830    -24.4944      0.6061      0.4714      0.6061      0.1038      0.2076      0.2076      0.6920
   2680.0000      0.1417      0.2453      3.0000   -999.2500   -999.2500      4.0830      0.6964      2.2576   -999.2500   -999.2500      0.3036      0.1718      0.4073      0.4851      4.0830      1.3909      5.1120    -19.6303    -78.3234      5.1120    -28.5960    -24.5379      0.6023      0.4666      0.6023      0.1036      0.2073      0.2073      0.6908
   2680.5000      0.1412      0.2457      3.0000   -999.2500   -999.2500      4.0940      0.6975      2.2630   -999.2500   -999.2500      0.3025      0.1717      0.4070      0.4846      4.0940      1.3985      5.1010    -19.4612    -78.3195      5.1010    -28.4050    -24.3265      0.6037      0.4669      0.6037      0.1045      0.2089      0.2089      0.6965
   2681.0000      0.1419      0.2474      3.0000   -999.2500   -999.2500      4.0660      0.6988      2.2696   -999.2500   -999.2500      0.3012      0.1716      0.4066      0.4841      4.0660      1.4078      5.0410    -19.2570    -78.3156      5.0410    -28.1790    -24.0712      0.6083      0.4711      0.6083      0.1055      0.2110      0.2110      0.6988
   2681.5000      0.1426      0.2515      3.0000   -999.2500   -999.2500      4.0240      0.7033      2.2912   -999.2500   -999.2500      0.2967      0.1713      0.4056      0.4822      4.0240      1.4389      4.7220    -18.5838    -78.3117      4.7220    -27.4840    -23.2298      0.6200      0.4806      0.6200      0.1089      0.2177      0.2177      0.7033
   2682.0000      0.1450      0.2603      3.0000   -999.2500   -999.2500      3.9130      0.7118      2.3326   -999.2500   -999.2500      0.2882      0.1707      0.4035      0.4787      3.9130      1.5010      4.6500    -17.2986    -78.3078      4.6500    -26.1770    -21.6233      0.6450      0.5030      0.6450      0.1153      0.2306      0.2306      0.7118
   2682.5000      0.1519      0.2661      3.0000   -999.2500   -999.2500      3.7010      0.7103      2.3252   -999.2500   -999.2500      0.2897      0.1708      0.4039      0.4793      3.7010      1.4897      4.4140    -17.5265    -78.3040      4.4140    -26.3830    -21.9081      0.6589      0.5245      0.6589      0.1142      0.2283      0.2283      0.7103
   2683.0000      0.1580      0.2634      3.0000   -999.2500   -999.2500      3.5040      0.6988      2.2694   -999.2500   -999.2500      0.3012      0.1716      0.4066      0.4840      3.5040      1.4073      4.2560    -19.2643    -78.3001      4.2560    -28.0990    -24.0803      0.6478      0.5246      0.6478      0.1054      0.2108      0.2108      0.6988
   2683.5000      0.1627      0.2646      3.0000   -999.2500   -999.2500      3.3940      0.6942      2.2470   -999.2500   -999.2500      0.3058      0.1720      0.4077      0.4859      3.3940      1.3760      4.2750    -19.9591    -78.2962      4.2750    -28.7720    -24.9489      0.6491      0.5322      0.6491      0.1019      0.2039      0.2039      0.6795
   2684.0000      0.1655      0.2580      3.0000   -999.2500   -999.2500      3.3620      0.6818      2.1865   -999.2500   -999.2500      0.3182      0.1729      0.4107      0.4910      3.3620      1.2955      4.4370    -21.8419    -78.2923      4.4370    -30.6330    -27.3024      0.6282      0.5202      0.6282      0.0925      0.1849      0.1849      0.6164
   2684.5000      0.1623      0.2415      2.0000   -999.2500   -999.2500      3.5030      0.6644      2.1016   -999.2500   -999.2500      0.3356      0.1742      0.4148      0.4982      3.5030      1.1927      5.0780    -24.4807    -78.2884      5.0780    -33.2500    -30.6009      0.5822      0.4837      0.5822      0.0792      0.1584      0.1584      0.5280
   2685.0000      0.1582      0.2310      2.0000   -999.2500   -999.2500      3.6470      0.6560      2.0604   -999.2500   -999.2500      0.3440      0.1748      0.4168      0.5016      3.6470      1.1465      5.7090    -26.4356    -78.2845      5.7090    -35.1830    -33.0444      0.5543      0.4600      0.5543      0.0727      0.1455      0.1455      0.4850
   2685.5000      0.1517      0.2194      2.0000   -999.2500   -999.2500      3.8780      0.6494      2.0283   -999.2500   -999.2500      0.3506      0.1753      0.4183      0.5043      3.8780      1.1121      6.0330    -28.9304    -78.2806      6.0330    -37.6560    -36.1630      0.5245      0.4326      0.5245      0.0677      0.1355      0.1355      0.4515
   2686.0000      0.1419      0.2042      2.0000   -999.2500   -999.2500      4.2750      0.6424      1.9939   -999.2500   -999.2500      0.3576      0.1759      0.4199      0.5072      4.2750      1.0768      8.3220    -31.6042    -78.2767      8.3220    -40.3080    -39.5052      0.4863      0.3968      0.4863      0.0623      0.1247      0.1247      0.4157
   2686.5000      0.1351      0.1892      2.0000   -999.2500   -999.2500      4.5850      0.6317      1.9415   -999.2500   -999.2500      0.3683      0.1767      0.4224      0.5117      4.5850      1.0256     10.0000    -35.6830    -78.2729     10.0000    -44.3650    -44.6038      0.4479      0.3667      0.4479      0.0541      0.1083      0.1083      0.3610
   2687.0000      0.1333      0.1769      1.0000   -999.2500   -999.2500      4.9600      0.6179      1.9021   -999.2500   -999.2500      0.3821      0.1777      0.4257      0.5174      4.9600      0.9878     10.0000    -40.9488    -78.2690     10.0000    -49.6090    -51.1861      0.4155      0.3489      0.4155      0.0436      0.0871      0.0871      0.2904
   2687.5000      0.1357      0.1721      1.0000   -999.2500   -999.2500      5.1650      0.6085      1.8877   -999.2500   -999.2500      0.3915      0.1784      0.4278      0.5212      5.1650      0.9735     10.0000    -44.5227    -78.2651     10.0000    -53.1610    -55.6533      0.4023      0.3467      0.4023      0.0364      0.0727      0.0727      0.2424
   2688.0000      0.1396      0.1692      1.0000   -999.2500   -999.2500      5.2810      0.5997      1.8743   -999.2500   -999.2500      0.4003      0.1791      0.4299      0.5249      5.2810      0.9604     11.3380    -47.8815    -78.2612     11.3380    -56.4980    -59.8519      0.3937      0.3488      0.3937      0.0296      0.0592      0.0592      0.1974
   2688.5000      0.1435      0.1670      1.0000   -999.2500   -999.2500      5.3720      0.5918      1.8621   -999.2500   -999.2500      0.4082      0.1797      0.4317      0.5282      5.3720      0.9489     11.3090    -50.9163    -78.2573     11.3090    -59.5110    -63.6454      0.3867      0.3514      0.3867      0.0235      0.0470      0.0470      0.1567
   2689.0000      0.1449      0.1658      1.0000   -999.2500   -999.2500      5.4230      0.5884      1.8569   -999.2500   -999.2500      0.4116      0.1799      0.4325      0.5296      5.4230      0.9441     10.8130    -52.2221    -78.2534     10.8130    -60.7950    -65.2776      0.3834      0.3521      0.3834      0.0209      0.0417      0.0417      0.1391
   2689.5000      0.1457      0.1658      1.0000   -999.2500   -999.2500      5.4200      0.5873      1.8553   -999.2500   -999.2500      0.4127      0.1800      0.4327      0.5300      5.4200      0.9426      9.7330    -52.6299    -78.2495      9.7330    -61.1810    -65.7874      0.3831      0.3531      0.3831      0.0200      0.0401      0.0401      0.1336
   2690.0000      0.1439      0.1676      1.0000   -999.2500   -999.2500      5.3350      0.5921      1.8626   -999.2500   -999.2500      0.4079      0.1796      0.4316      0.5280      5.3350      0.9494      8.9860    -50.8048    -78.2457      8.9860    -59.3340    -63.5060      0.3884      0.3528      0.3884      0.0237      0.0474      0.0474      0.1581
   2690.5000      0.1550      0.1836      1.0000   -999.2500   -999.2500      4.5530      0.5985      1.8724   -999.2500   -999.2500      0.4015      0.1792      0.4301      0.5254      4.5530      0.9586      8.2510    -48.3686    -78.2418      8.2510    -56.8760    -60.4607      0.4268      0.3859      0.4268      0.0286      0.0572      0.0572      0.1907
