~V
VERS. 2.00: Ver 2.00
WRAP.   NO:        
~W
 STRT.FT 29:
 STOP.FT 4770:
 STEP.FT 0.5:
 NULL. -999.250000:
 COMP. Standard (Chevron):Company
 WELL. KCL 44-32:Well
 FLD. Pioneer:Field
 LOC. S32 T11N R22W:Location
 STAT. CA:State
 SRVC. :Service Company
 SON. :Service Order #
 DATE. :Log Date
 UWI. 0940700:Unique Well ID
~C
 DEPT.FT :
 BVES. :
 BVTS. :
 FACE. :
 GRS.RE/T :
 ILD.OHMM :
 LTHE. :
 MM. :
 NEUT.CPS :
 PHES. :
 PHMX. :
 PHTS. :
 PHZC. :
 RD.OHMM :
 ROS. :
 RS.OHMM :
 SBL.MV :
 SCLN. :
 SN.OHMM :
 SP.MV :
 SPN. :
 STUS. :
 SWES. :
 SWTS. :
 VCDS. :
 VCLY. :
 VCWS. :
 VSHS. :
~P
~A
# ...
   3896.5000      0.0100      0.3600      4.0000      6.0110      2.9470      0.8500 -1000000166163193670000000000000.0000    184.3370      0.1500 49090916870222007100000000000.0000      0.5000 270000019174388625000000000000.0000      2.9470      0.5039   -999.2500   -999.2500   -999.2500   -999.2500   -999.2500   -999.2500      0.3271      0.0667      0.7200      0.3500   -999.2500      0.7000      0.8500
   3897.0000      0.0100      0.3600      4.0000      6.0383      2.9350      0.8500   -999.2500    184.1150      0.1500 49090916870222007100000000000.0000      0.5000 270000019174388625000000000000.0000      2.9350      0.5038   -999.2500   -999.2500   -999.2500   -999.2500   -999.2500   -999.2500      0.3280      0.0667      0.7200      0.3500   -999.2500      0.7000      0.8500
   3897.5000      0.0100      0.3600      4.0000      6.0670      2.8810      0.8500   -999.2500    184.1320      0.1500 49090916870222007100000000000.0000      0.5000 270000019174388625000000000000.0000      2.8810      0.5038   -999.2500   -999.2500   -999.2500   -999.2500   -999.2500   -999.2500      0.3322      0.0667      0.7200      0.3500   -999.2500      0.7000      0.8500
   3898.0000      0.0100      0.3600      4.0000      6.0964      2.8200      0.8500 -1000000015047466220000000000000.0000    184.1500      0.1500 49090916870222007100000000000.0000      0.5000 270000019174388625000000000000.0000      2.8200      0.5038   -999.2500   -999.2500   -999.2500   -999.2500   -999.2500   -999.2500      0.3371      0.0667      0.7200      0.3500   -999.2500      0.7000      0.8500
   3898.5000      0.0100      0.3600      4.0000      6.1132      2.7980      0.8500   -999.2500    184.2220      0.1500 49090916870222007100000000000.0000      0.5000 270000019174388625000000000000.0000      2.7980      0.5037   -999.2500   -999.2500   -999.2500   -999.2500   -999.2500   -999.2500      0.3389      0.0667      0.7200      0.3500   -999.2500      0.7000      0.8500
   3899.0000      0.0100      0.3600      4.0000      6.1307      2.7940      0.8500   -999.2500    184.2940      0.1500 49090916870222007100000000000.0000      0.5000 270000019174388625000000000000.0000      2.7940      0.5037   -999.2500   -999.2500   -999.2500   -999.2500   -999.2500   -999.2500      0.3392      0.0667      0.7200      0.3500   -999.2500      0.7000      0.8500
   3899.5000      0.0100      0.3600      4.0000      6.1468      2.7430      0.8500   -999.2500    184.4510      0.1500 49090916870222007100000000000.0000      0.5000 270000019174388625000000000000.0000      2.7430      0.5036   -999.2500   -999.2500   -999.2500   -999.2500   -999.2500   -999.2500      0.3435      0.0667      0.7200      0.3500   -999.2500      0.7000      0.8500
   3900.0000      0.0100      0.3600      4.0000      6.1615      2.6810      0.8500   -999.2500    184.6560      0.1500 49090916870222007100000000000.0000      0.5000 270000019174388625000000000000.0000      2.6810      0.5036   -999.2500   -999.2500   -999.2500   -999.2500   -999.2500   -999.2500      0.3489      0.0667      0.7200      0.3500   -999.2500      0.7000      0.8500
   3900.5000      0.0100      0.3600      4.0000      6.1454      2.6210      0.8500   -999.2500    185.4170      0.1500 49090916870222007100000000000.0000      0.5000 270000019174388625000000000000.0000      2.6210      0.5036   -999.2500   -999.2500   -999.2500   -999.2500   -999.2500   -999.2500      0.3543      0.0667      0.7200      0.3500   -999.2500      0.7000      0.8500
   3901.0000      0.0100      0.3600      4.0000      6.1279      2.5430      0.8500   -999.2500    186.3370      0.1500 49090916870222007100000000000.0000      0.5000 270000019174388625000000000000.0000      2.5430      0.5035   -999.2500   -999.2500   -999.2500   -999.2500   -999.2500   -999.2500      0.3617      0.0667      0.7200      0.3500   -999.2500      0.7000      0.8500
   3901.5000      0.0100      0.3600      4.0000      6.1174      2.4360      0.8500   -999.2500    187.1500      0.1500 49090916870222007100000000000.0000      0.5000 270000019174388625000000000000.0000      2.4360      0.5035   -999.2500   -999.2500   -999.2500   -999.2500   -999.2500   -999.2500      0.3724      0.0667      0.7200      0.3500   -999.2500      0.7000      0.8500
   3902.0000      0.0100      0.3600      4.0000      6.1461      2.3540      0.8500 -1000000015047466220000000000000.0000    186.3790      0.1500 49090916870222007100000000000.0000      0.5000 270000019174388625000000000000.0000      2.3540      0.5034   -999.2500   -999.2500   -999.2500   -999.2500   -999.2500   -999.2500      0.3811      0.0667      0.7200      0.3500   -999.2500      0.7000      0.8500
   3902.5000      0.0100      0.3600      4.0000      6.2378      2.3330      0.8500   -999.2500    185.6070      0.1500 49090916870222007100000000000.0000      0.5000 270000019174388625000000000000.0000      2.3330      0.5034   -999.2500   -999.2500   -999.2500   -999.2500   -999.2500   -999.2500      0.3834      0.0667      0.7200      0.3500   -999.2500      0.7000      0.8500
   3903.0000      0.0100      0.3600      4.0000      6.3918      2.3770      0.8500   -999.2500    184.2230      0.1500 49090916870222007100000000000.0000      0.5000 270000019174388625000000000000.0000      2.3770      0.5034   -999.2500   -999.2500   -999.2500   -999.2500   -999.2500   -999.2500      0.3786      0.0667      0.7200      0.3500   -999.2500      0.7000      0.8500
   3903.5000      0.0100      0.3600      4.0000      6.4884      2.4200      0.8500   -999.2500    184.2840      0.1500 49090916870222007100000000000.0000      0.5000 270000019174388625000000000000.0000      2.4200      0.5033   -999.2500   -999.2500   -999.2500   -999.2500   -999.2500   -999.2500      0.3740      0.0667      0.7200      0.3500   -999.2500      0.7000      0.8500
   3904.0000      0.0100      0.3600      4.0000      6.5619      2.5280      0.8500   -999.2500    184.1830      0.1500 49090916870222007100000000000.0000      0.5000 270000019174388625000000000000.0000      2.5280      0.5033   -999.2500   -999.2500   -999.2500   -999.2500   -999.2500   -999.2500      0.3630      0.0667      0.7200      0.3500   -999.2500      0.7000      0.8500
   3904.5000      0.0100      0.3600      4.0000      6.6368      2.6180      0.8500   -999.2500    183.3860      0.1500 49090916870222007100000000000.0000      0.5000 270000019174388625000000000000.0000      2.6180      0.5032   -999.2500   -999.2500   -999.2500   -999.2500   -999.2500   -999.2500      0.3544      0.0667      0.7200      0.3500   -999.2500      0.7000      0.8500
   3905.0000      0.0100      0.3600      4.0000      6.6781      2.7080      0.8500   -999.2500    182.8570      0.1500 49090916870222007100000000000.0000      0.5000 270000019174388625000000000000.0000      2.7080      0.5032   -999.2500   -999.2500   -999.2500   -999.2500   -999.2500   -999.2500      0.3463      0.0667      0.7200      0.3500   -999.2500      0.7000      0.8500
   3905.5000      0.0100      0.3600      4.0000      6.7194      2.7910      0.8500   -999.2500    182.3270      0.1500 49090916870222007100000000000.0000      0.5000 270000019174388625000000000000.0000      2.7910      0.5032   -999.2500   -999.2500   -999.2500   -999.2500   -999.2500   -999.2500      0.3392      0.0667      0.7200      0.3500   -999.2500      0.7000      0.8500
   3906.0000      0.0100      0.3600      4.0000      6.7502      2.8880      0.8500   -999.2500    181.5310      0.1500 49090916870222007100000000000.0000      0.5000 270000019174388625000000000000.0000      2.8880      0.5031   -999.2500   -999.2500   -999.2500   -999.2500   -999.2500   -999.2500      0.3312      0.0667      0.7200      0.3500   -999.2500      0.7000      0.8500
   3906.5000      0.0100      0.3600      4.0000      6.7754      2.9710      0.8500   -999.2500    181.0570      0.1500 49090916870222007100000000000.0000      0.5000 270000019174388625000000000000.0000      2.9710      0.5031   -999.2500   -999.2500   -999.2500   -999.2500   -999.2500   -999.2500      0.3248      0.0667      0.7200      0.3500   -999.2500      0.7000      0.8500
