~V
VERS. 2.00: Ver 2.00
WRAP.   NO:        
~W
 STRT.FT 30:
 STOP.FT 4840:
 STEP.FT 0.5:
 NULL. -999.250000:
 COMP. Standard (Chevron):Company
 WELL. KCL 44-23:Well
 FLD. Pioneer:Field
 LOC. S32 T11N R22W:Location
 STAT. CA:State
 SRVC. :Service Company
 SON. :Service Order #
 DATE. :Log Date
 UWI. 0940500:Unique Well ID
~C
 DEPT.FT :
 BVES. :
 BVTS. :
 FACE. :
 GR.RE/T :
 GRS.RE/T :
 ILD.OHMM :
 LTHE. :
 MM. :
 NEUT.CPS :
 PHES. :
 PHMX. :
 PHTS. :
 PHZC. :
 RD.OHMM :
 ROS. :
 RS.OHMM :
 SBL.MV :
 SCLN. :
 SN.OHMM :
 SP.MV :
 SPN.RE/T :
 STUS. :
 SWES. :
 SWTS. :
 VCDS. :
 VCLY. :
 VCWS. :
 VSHS. :
~P
~A
# ...
   3308.0000      0.0100      0.3600      4.0000      4.1430      3.8820      3.3090      0.8500   -999.2500    194.8750      0.1500 49090916870222007100000000000.0000      0.5000 270000019174388625000000000000.0000      3.3090      0.5550   -999.2500   -999.2500   -999.2500   -999.2500   -999.2500    -32.3601      0.3297      0.0667      0.7200      0.3500   -999.2500      0.7000      0.8500
   3308.5000      0.0100      0.3600      4.0000      4.1590      3.9540      3.2660      0.8500   -999.2500    194.0100      0.1500 49090916870222007100000000000.0000      0.5000 270000019174388625000000000000.0000      3.2660      0.5549   -999.2500   -999.2500   -999.2500   -999.2500   -999.2500    -30.9191      0.3326      0.0667      0.7200      0.3500   -999.2500      0.7000      0.8500
   3309.0000      0.0100      0.3600      4.0000      4.1750      4.0185      3.2280      0.8500 -1000000015047466220000000000000.0000    192.0700      0.1500 49090916870222007100000000000.0000      0.5000 270000019174388625000000000000.0000      3.2280      0.5549   -999.2500   -999.2500   -999.2500   -999.2500   -999.2500    -29.6306      0.3352      0.0667      0.7200      0.3500   -999.2500      0.7000      0.8500
   3309.5000      0.0100      0.3600      4.0000      4.2160      4.0689      3.1900      0.8500 -1000000166163193670000000000000.0000    190.9370      0.1500 49090916870222007100000000000.0000      0.5000 270000019174388625000000000000.0000      3.1900      0.5548   -999.2500   -999.2500   -999.2500   -999.2500   -999.2500    -28.6216      0.3379      0.0667      0.7200      0.3500   -999.2500      0.7000      0.8500
   3310.0000      0.0100      0.3600      4.0000      4.2690      4.1044      3.1480      0.8500   -999.2500    189.4280      0.1500 49090916870222007100000000000.0000      0.5000 270000019174388625000000000000.0000      3.1480      0.5548   -999.2500   -999.2500   -999.2500   -999.2500   -999.2500    -27.9113      0.3409      0.0667      0.7200      0.3500   -999.2500      0.7000      0.8500
   3310.5000      0.0100      0.3600      4.0000      4.3140      4.1332      3.1070      0.8500   -999.2500    187.8120      0.1500 49090916870222007100000000000.0000      0.5000 270000019174388625000000000000.0000      3.1070      0.5547   -999.2500   -999.2500   -999.2500   -999.2500   -999.2500    -27.3365      0.3439      0.0667      0.7200      0.3500   -999.2500      0.7000      0.8500
   3311.0000      0.0100      0.3600      4.0000      4.4150      4.1531      2.9990      0.8500   -999.2500    185.7670      0.1500 49090916870222007100000000000.0000      0.5000 270000019174388625000000000000.0000      2.9990      0.5547   -999.2500   -999.2500   -999.2500   -999.2500   -999.2500    -26.9372      0.3521      0.0667      0.7200      0.3500   -999.2500      0.7000      0.8500
   3311.5000      0.0100      0.3600      4.0000      4.5190      4.1691      2.9200      0.8500   -999.2500    183.3450      0.1500 49090916870222007100000000000.0000      0.5000 270000019174388625000000000000.0000      2.9200      0.5546   -999.2500   -999.2500   -999.2500   -999.2500   -999.2500    -26.6180      0.3585      0.0667      0.7200      0.3500   -999.2500      0.7000      0.8500
   3312.0000      0.0100      0.3600      4.0000      4.6500      4.2008      2.8980      0.8500   -999.2500    183.0710      0.1500 49090916870222007100000000000.0000      0.5000 270000019174388625000000000000.0000      2.8980      0.5546   -999.2500   -999.2500   -999.2500   -999.2500   -999.2500    -25.9844      0.3603      0.0667      0.7200      0.3500   -999.2500      0.7000      0.8500
   3312.5000      0.0100      0.3600      4.0000      4.6950      4.2492      2.9190      0.8500   -999.2500    183.2270      0.1500 49090916870222007100000000000.0000      0.5000 270000019174388625000000000000.0000      2.9190      0.5545   -999.2500   -999.2500   -999.2500   -999.2500   -999.2500    -25.0160      0.3585      0.0667      0.7200      0.3500   -999.2500      0.7000      0.8500
   3313.0000      0.0100      0.3600      4.0000      4.7820      4.2971      2.9550      0.8500   -999.2500    184.1890      0.1500 49090916870222007100000000000.0000      0.5000 270000019174388625000000000000.0000      2.9550      0.5545   -999.2500   -999.2500   -999.2500   -999.2500   -999.2500    -24.0584      0.3555      0.0667      0.7200      0.3500   -999.2500      0.7000      0.8500
   3313.5000      0.0100      0.3600      4.0000      4.8480      4.3768      3.0400      0.8500   -999.2500    185.1500      0.1500 49090916870222007100000000000.0000      0.5000 270000019174388625000000000000.0000      3.0400      0.5544   -999.2500   -999.2500   -999.2500   -999.2500   -999.2500    -22.4645      0.3488      0.0667      0.7200      0.3500   -999.2500      0.7000      0.8500
   3314.0000      0.0100      0.3600      4.0000      4.8590      4.4794      3.1470      0.8500   -999.2500    187.1310      0.1500 49090916870222007100000000000.0000      0.5000 270000019174388625000000000000.0000      3.1470      0.5544   -999.2500   -999.2500   -999.2500   -999.2500   -999.2500    -20.4123      0.3408      0.0667      0.7200      0.3500   -999.2500      0.7000      0.8500
   3314.5000      0.0100      0.3600      4.0000      4.8370      4.5998      3.2580      0.8500   -999.2500    188.0120      0.1500 49090916870222007100000000000.0000      0.5000 270000019174388625000000000000.0000      3.2580      0.5543   -999.2500   -999.2500   -999.2500   -999.2500   -999.2500    -18.0044      0.3329      0.0667      0.7200      0.3500   -999.2500      0.7000      0.8500
   3315.0000      0.0100      0.3600      4.0000      4.8010      4.6776      3.3760      0.8500   -999.2500    188.8930      0.1500 49090916870222007100000000000.0000      0.5000 270000019174388625000000000000.0000      3.3760      0.5543   -999.2500   -999.2500   -999.2500   -999.2500   -999.2500    -16.4472      0.3249      0.0667      0.7200      0.3500   -999.2500      0.7000      0.8500
   3315.5000      0.0100      0.3600      4.0000      4.7600      4.7482      3.4930      0.8500   -999.2500    189.1550      0.1500 49090916870222007100000000000.0000      0.5000 270000019174388625000000000000.0000      3.4930      0.5542   -999.2500   -999.2500   -999.2500   -999.2500   -999.2500    -15.0355      0.3174      0.0667      0.7200      0.3500   -999.2500      0.7000      0.8500
   3316.0000      0.0100      0.3600      4.0000      4.7350      4.8222      3.5830      0.8500   -999.2500    188.5870      0.1500 49090916870222007100000000000.0000      0.5000 270000019174388625000000000000.0000      3.5830      0.5542   -999.2500   -999.2500   -999.2500   -999.2500   -999.2500    -13.5557      0.3119      0.0667      0.7200      0.3500   -999.2500      0.7000      0.8500
   3316.5000      0.0100      0.3600      4.0000      4.6210      4.8547      3.6430      0.8500   -999.2500    188.0190      0.1500 49090916870222007100000000000.0000      0.5000 270000019174388625000000000000.0000      3.6430      0.5542   -999.2500   -999.2500   -999.2500   -999.2500   -999.2500    -12.9065      0.3084      0.0667      0.7200      0.3500   -999.2500      0.7000      0.8500
   3317.0000      0.0100      0.3600      4.0000      4.5280      4.8457      3.6360      0.8500   -999.2500    185.2710      0.1500 49090916870222007100000000000.0000      0.5000 270000019174388625000000000000.0000      3.6360      0.5541   -999.2500   -999.2500   -999.2500   -999.2500   -999.2500    -13.0860      0.3087      0.0667      0.7200      0.3500   -999.2500      0.7000      0.8500
   3317.5000      0.0100      0.3600      4.0000      4.4690      4.8153      3.5890      0.8500   -999.2500    184.4350      0.1500 49090916870222007100000000000.0000      0.5000 270000019174388625000000000000.0000      3.5890      0.5541   -999.2500   -999.2500   -999.2500   -999.2500   -999.2500    -13.6935      0.3115      0.0667      0.7200      0.3500   -999.2500      0.7000      0.8500
   3318.0000      0.0100      0.3600      4.0000      4.4400      4.7764      3.5490      0.8500   -999.2500    183.5990      0.1500 49090916870222007100000000000.0000      0.5000 270000019174388625000000000000.0000      3.5490      0.5540   -999.2500   -999.2500   -999.2500   -999.2500   -999.2500    -14.4717      0.3139      0.0667      0.7200      0.3500   -999.2500      0.7000      0.8500
