~V
VERS. 2.00: Ver 2.00
WRAP.   NO:        
~W
 STRT.FT 35:
 STOP.FT 5500:
 STEP.FT 0.5:
 NULL. -999.250000:
 COMP. Standard (Chevron):Company
 WELL. KCL 45-56:Well
 FLD. :Field
 LOC. S30 T11N R22W:Location
 STAT. CA:State
 SRVC. :Service Company
 SON. :Service Order #
 DATE. :Log Date
 UWI. 0369100:Unique Well ID
~C
 DEPT.FT :
 BVES. :
 BVTS. :
 ILD.OHMM :
 LLD.OHMM :
 LTHE. :
 MM. :
 PHES. :
 PHMX. :
 PHTS. :
 PHZC. :
 RD.OHMM :
 ROS. :
 RS.OHMM :
 SBL.MV :
 SCLN. :
 SN.OHMM :
 SP.MV :
 SPN. :
 STUS. :
 SWES. :
 SWTS. :
 VCDS. :
 VCLY. :
 VCWS. :
 VSHS. :
~P
~A
# ...
   1062.0000      0.2437      0.4227   -999.2500      1.3930      0.7563      2.7036      0.2437      0.1709      0.4227      0.4800      1.3930      2.4217   -999.2500    -11.1431    -50.0000   -999.2500    -17.3090    -11.1431      1.2275      1.0000      1.0000      0.1789      0.3579      0.3579      0.7563
   1062.5000      0.2442      0.4228   -999.2500      1.2750      0.7558      2.7033      0.2442      0.1709      0.4228      0.4802      1.2750      2.4196   -999.2500    -11.1876    -50.0000   -999.2500    -17.3540    -11.1876      1.2682      1.0000      1.0000      0.1786      0.3572      0.3572      0.7558
   1063.0000      0.2439      0.4227   -999.2500      1.2830      0.7561      2.7035      0.2439      0.1709      0.4227      0.4801      1.2830      2.4207   -999.2500    -11.1601    -50.0000   -999.2500    -17.3270    -11.1601      1.2655      1.0000      1.0000      0.1788      0.3576      0.3576      0.7561
   1063.5000      0.2436      0.4226   -999.2500      1.3810      0.7564      2.7037      0.2436      0.1709      0.4226      0.4799      1.3810      2.4218   -999.2500    -11.1326    -50.0000   -999.2500    -17.3000    -11.1326      1.2315      1.0000      1.0000      0.1790      0.3580      0.3580      0.7564
   1064.0000      0.2426      0.4223   -999.2500      1.5220      0.7574      2.7044      0.2426      0.1708      0.4223      0.4795      1.5220      2.4262   -999.2500    -11.0331    -50.0000   -999.2500    -17.2010    -11.0331      1.1884      1.0000      1.0000      0.1798      0.3595      0.3595      0.7574
   1064.5000      0.2401      0.4217   -999.2500      1.6520      0.7599      2.7061      0.2401      0.1706      0.4217      0.4785      1.6520      2.4371   -999.2500    -10.7886    -50.0000   -999.2500    -16.9570    -10.7886      1.1546      1.0000      1.0000      0.1816      0.3632      0.3632      0.7599
   1065.0000      0.2356      0.4206   -999.2500      1.8080      0.7644      2.7093      0.2356      0.1703      0.4206      0.4767      1.8080      2.4579   -999.2500    -10.3292    -50.0000   -999.2500    -16.4980    -10.3292      1.1199      1.0000      1.0000      0.1850      0.3701      0.3701      0.7644
   1065.5000      0.2324      0.4198   -999.2500      1.9740      0.7676      2.7114      0.2324      0.1701      0.4198      0.4754      1.9740      2.4723   -999.2500    -10.0137    -50.0000   -999.2500    -16.1830    -10.0137      1.0864      1.0000      1.0000      0.1874      0.3748      0.3748      0.7676
   1066.0000      0.2310      0.4195   -999.2500      2.1050      0.7690      2.7124      0.2310      0.1700      0.4195      0.4748      2.1050      2.4784   -999.2500     -9.8782    -50.0000   -999.2500    -16.0480     -9.8782      1.0619      1.0000      1.0000      0.1884      0.3768      0.3768      0.7690
   1066.5000      0.2365      0.4208   -999.2500      2.2710      0.7635      2.7086      0.2365      0.1704      0.4208      0.4770      2.2710      2.4532   -999.2500    -10.4257    -50.0000   -999.2500    -16.5960    -10.4257      1.0247      1.0000      1.0000      0.1843      0.3686      0.3686      0.7635
   1067.0000      0.2398      0.4216   -999.2500      2.4050      0.7602      2.7063      0.2398      0.1706      0.4216      0.4784      2.4050      2.4379   -999.2500    -10.7602    -50.0000   -999.2500    -16.9310    -10.7602      1.0043      1.0000      1.0000      0.1818      0.3636      0.3636      0.7602
   1067.5000      0.2381      0.4182   -999.2500      2.4850      0.7580      2.7047      0.2420      0.1708      0.4221      0.4793      2.4850      2.4277   -999.2500    -10.9847    -50.0000   -999.2500    -17.1560    -10.9847      0.9907      0.9837      0.9907      0.1801      0.3602      0.3602      0.7580
   1068.0000      0.2366      0.4156   -999.2500      2.5220      0.7565      2.7037      0.2435      0.1709      0.4225      0.4799      2.5220      2.4208   -999.2500    -11.1373    -50.0000   -999.2500    -17.3090    -11.1373      0.9837      0.9716      0.9837      0.1790      0.3579      0.3579      0.7565
   1068.5000      0.2400      0.4216   -999.2500      2.4000      0.7600      2.7061      0.2400      0.1706      0.4216      0.4784      2.4000      2.4365   -999.2500    -10.7858    -50.0000   -999.2500    -16.9580    -10.7858      1.0048      1.0000      1.0000      0.1816      0.3632      0.3632      0.7600
   1069.0000      0.2379      0.4211   -999.2500      2.1630      0.7621      2.7075      0.2379      0.1705      0.4211      0.4776      2.1630      2.4458   -999.2500    -10.5773    -50.0000   -999.2500    -16.7500    -10.5773      1.0397      1.0000      1.0000      0.1832      0.3663      0.3663      0.7621
   1069.5000      0.2362      0.4207   -999.2500      1.9330      0.7638      2.7087      0.2362      0.1703      0.4207      0.4769      1.9330      2.4534   -999.2500    -10.4068    -50.0000   -999.2500    -16.5800    -10.4068      1.0919      1.0000      1.0000      0.1844      0.3689      0.3689      0.7638
   1070.0000      0.2345      0.4202   -999.2500      1.7470      0.7655      2.7099      0.2345      0.1702      0.4202      0.4762      1.7470      2.4612   -999.2500    -10.2343    -50.0000   -999.2500    -16.4080    -10.2343      1.1348      1.0000      1.0000      0.1857      0.3715      0.3715      0.7655
   1070.5000      0.2334      0.4200   -999.2500      1.6020      0.7666      2.7107      0.2334      0.1701      0.4200      0.4757      1.6020      2.4661   -999.2500    -10.1268    -50.0000   -999.2500    -16.3010    -10.1268      1.1726      1.0000      1.0000      0.1865      0.3731      0.3731      0.7666
   1071.0000      0.2323      0.4197   -999.2500      1.6020      0.7677      2.7114      0.2323      0.1700      0.4197      0.4753      1.6020      2.4709   -999.2500    -10.0194    -50.0000   -999.2500    -16.1940    -10.0194      1.1734      1.0000      1.0000      0.1874      0.3747      0.3747      0.7677
   1071.5000      0.2298      0.4191   -999.2500      1.5790      0.7702      2.7131      0.2298      0.1699      0.4191      0.4742      1.5790      2.4824   -999.2500     -9.7699    -50.0000   -999.2500    -15.9450     -9.7699      1.1816      1.0000      1.0000      0.1892      0.3785      0.3785      0.7702
   1072.0000      0.2277      0.4185   -999.2500      1.5320      0.7723      2.7146      0.2277      0.1697      0.4185      0.4734      1.5320      2.4923   -999.2500     -9.5554    -50.0000   -999.2500    -15.7310     -9.5554      1.1965      1.0000      1.0000      0.1908      0.3817      0.3817      0.7723
   1072.5000      0.2266      0.4182   -999.2500      1.6070      0.7734      2.7154      0.2266      0.1696      0.4182      0.4729      1.6070      2.4971   -999.2500     -9.4489    -50.0000   -999.2500    -15.6250     -9.4489      1.1763      1.0000      1.0000      0.1916      0.3833      0.3833      0.7734
   1073.0000      0.2281      0.4186   -999.2500      1.6790      0.7719      2.7143      0.2281      0.1697      0.4186      0.4735      1.6790      2.4902   -999.2500     -9.5944    -50.0000   -999.2500    -15.7710     -9.5944      1.1563      1.0000      1.0000      0.1905      0.3811      0.3811      0.7719
   1073.5000      0.2298      0.4190   -999.2500      1.7110      0.7702      2.7131      0.2298      0.1699      0.4190      0.4742      1.7110      2.4817   -999.2500     -9.7749    -50.0000   -999.2500    -15.9520     -9.7749      1.1469      1.0000      1.0000      0.1892      0.3784      0.3784      0.7702
   1074.0000      0.2331      0.4198   -999.2500      1.7680      0.7669      2.7108      0.2331      0.1701      0.4198      0.4755      1.7680      2.4666   -999.2500    -10.1004    -50.0000   -999.2500    -16.2780    -10.1004      1.1306      1.0000      1.0000      0.1867      0.3735      0.3735      0.7669
   1074.5000      0.2363      0.4206   -999.2500      1.8540      0.7637      2.7086      0.2363      0.1703      0.4206      0.4768      1.8540      2.4516   -999.2500    -10.4270    -50.0000   -999.2500    -16.6050    -10.4270      1.1086      1.0000      1.0000      0.1843      0.3686      0.3686      0.7637
