~V
VERS. 2.00: Ver 2.00
WRAP.   NO:        
~W
 STRT.FT 20:
 STOP.FT 4330:
 STEP.FT 0.5:
 NULL. -999.250000:
 COMP. Standard (Chevron):Company
 WELL. KCL 44-25:Well
 FLD. Pioneer:Field
 LOC. S32 T11N R22W:Location
 STAT. CA:State
 SRVC. :Service Company
 SON. :Service Order #
 DATE. :Log Date
 UWI. 0940600:Unique Well ID
~C
 DEPT.FT :
 BVES. :
 BVTS. :
 FACE. :
 GR.RE/T :
 GRS.RE/T :
 ILD.OHMM :
 LTHE. :
 MM. :
 NEUS.CPS :
 NEUT.CPS :
 PHES. :
 PHMX. :
 PHTS. :
 PHZC. :
 RD.OHMM :
 ROS. :
 RS.OHMM :
 SBL.MV :
 SCLN. :
 SN.OHMM :
 SP.MV :
 SPN. :
 STUS. :
 SWES. :
 SWTS. :
 VCDS. :
 VCLY. :
 VCWS. :
 VSHS. :
~P
~A
# ...
    290.0000      0.0100      0.3600      4.0000   -999.2500   -999.2500     14.8790      0.8500   -999.2500   -999.2500   -999.2500      0.1500 49090916870222007100000000000.0000      0.5000 270000019174388625000000000000.0000     14.8790      1.1560     18.2570    -31.7380   -999.2500     18.2570    -43.7380    -39.6725      0.2834      0.0667      0.7200      0.3500   -999.2500      0.7000      0.8500
    290.5000      0.0100      0.3600      4.0000   -999.2500   -999.2500     15.2810      0.8500   -999.2500   -999.2500   -999.2500      0.1500 49090916870222007100000000000.0000      0.5000 270000019174388625000000000000.0000     15.2810      1.1558     19.3780    -32.4930   -999.2500     19.3780    -44.4930    -40.6162      0.2796      0.0667      0.7200      0.3500   -999.2500      0.7000      0.8500
    291.0000      0.0100      0.3600      4.0000   -999.2500   -999.2500     15.7200      0.8500   -999.2500   -999.2500   -999.2500      0.1500 49090916870222007100000000000.0000      0.5000 270000019174388625000000000000.0000     15.7200      1.1556     20.0680    -33.3920   -999.2500     20.0680    -45.3920    -41.7400      0.2757      0.0667      0.7200      0.3500   -999.2500      0.7000      0.8500
    291.5000      0.0100      0.3600      4.0000   -999.2500   -999.2500     15.9420      0.8500   -999.2500   -999.2500   -999.2500      0.1500 49090916870222007100000000000.0000      0.5000 270000019174388625000000000000.0000     15.9420      1.1554     20.6500    -33.5030   -999.2500     20.6500    -45.5030    -41.8787      0.2738      0.0667      0.7200      0.3500   -999.2500      0.7000      0.8500
    292.0000      0.0100      0.3600      4.0000   -999.2500   -999.2500     16.2370      0.8500   -999.2500   -999.2500   -999.2500      0.1500 49090916870222007100000000000.0000      0.5000 270000019174388625000000000000.0000     16.2370      1.1552     20.6940    -33.0050   -999.2500     20.6940    -45.0050    -41.2563      0.2713      0.0667      0.7200      0.3500   -999.2500      0.7000      0.8500
    292.5000      0.0100      0.3600      4.0000   -999.2500   -999.2500     16.4600      0.8500   -999.2500   -999.2500   -999.2500      0.1500 49090916870222007100000000000.0000      0.5000 270000019174388625000000000000.0000     16.4600      1.1550     20.0900    -32.5430   -999.2500     20.0900    -44.5430    -40.6787      0.2694      0.0667      0.7200      0.3500   -999.2500      0.7000      0.8500
    293.0000      0.0100      0.3600      4.0000   -999.2500   -999.2500     16.6470      0.8500   -999.2500   -999.2500   -999.2500      0.1500 49090916870222007100000000000.0000      0.5000 270000019174388625000000000000.0000     16.6470      1.1548     19.8100    -32.1530   -999.2500     19.8100    -44.1530    -40.1913      0.2679      0.0667      0.7200      0.3500   -999.2500      0.7000      0.8500
    293.5000      0.0100      0.3600      4.0000   -999.2500   -999.2500     16.7620      0.8500   -999.2500   -999.2500   -999.2500      0.1500 49090916870222007100000000000.0000      0.5000 270000019174388625000000000000.0000     16.7620      1.1546     20.6790    -32.0140   -999.2500     20.6790    -44.0140    -40.0175      0.2669      0.0667      0.7200      0.3500   -999.2500      0.7000      0.8500
    294.0000      0.0100      0.3600      4.0000   -999.2500   -999.2500     16.9130      0.8500   -999.2500   -999.2500   -999.2500      0.1500 49090916870222007100000000000.0000      0.5000 270000019174388625000000000000.0000     16.9130      1.1544     21.5850    -32.1250   -999.2500     21.5850    -44.1250    -40.1562      0.2657      0.0667      0.7200      0.3500   -999.2500      0.7000      0.8500
    294.5000      0.0100      0.3600      4.0000   -999.2500   -999.2500     17.0280      0.8500   -999.2500   -999.2500   -999.2500      0.1500 49090916870222007100000000000.0000      0.5000 270000019174388625000000000000.0000     17.0280      1.1542     22.0950    -32.2710   -999.2500     22.0950    -44.2710    -40.3388      0.2648      0.0667      0.7200      0.3500   -999.2500      0.7000      0.8500
    295.0000      0.0100      0.3600      4.0000   -999.2500   -999.2500     17.1790      0.8500   -999.2500   -999.2500   -999.2500      0.1500 49090916870222007100000000000.0000      0.5000 270000019174388625000000000000.0000     17.1790      1.1540     22.3900    -32.4900   -999.2500     22.3900    -44.4900    -40.6125      0.2636      0.0667      0.7200      0.3500   -999.2500      0.7000      0.8500
    295.5000      0.0100      0.3600      4.0000   -999.2500   -999.2500     17.2580      0.8500   -999.2500   -999.2500   -999.2500      0.1500 49090916870222007100000000000.0000      0.5000 270000019174388625000000000000.0000     17.2580      1.1538     23.0080    -32.7440   -999.2500     23.0080    -44.7440    -40.9300      0.2629      0.0667      0.7200      0.3500   -999.2500      0.7000      0.8500
    296.0000      0.0100      0.3600      4.0000   -999.2500   -999.2500     17.4090      0.8500   -999.2500   -999.2500   -999.2500      0.1500 49090916870222007100000000000.0000      0.5000 270000019174388625000000000000.0000     17.4090      1.1535     23.2670    -32.7480   -999.2500     23.2670    -44.7480    -40.9350      0.2617      0.0667      0.7200      0.3500   -999.2500      0.7000      0.8500
    296.5000      0.0100      0.3600      4.0000   -999.2500   -999.2500     17.4700      0.8500   -999.2500   -999.2500   -999.2500      0.1500 49090916870222007100000000000.0000      0.5000 270000019174388625000000000000.0000     17.4700      1.1533     22.9510    -32.2140   -999.2500     22.9510    -44.2140    -40.2675      0.2612      0.0667      0.7200      0.3500   -999.2500      0.7000      0.8500
    297.0000      0.0100      0.3600      4.0000   -999.2500   -999.2500     17.5310      0.8500   -999.2500   -999.2500   -999.2500      0.1500 49090916870222007100000000000.0000      0.5000 270000019174388625000000000000.0000     17.5310      1.1531     22.5620    -31.6810   -999.2500     22.5620    -43.6810    -39.6012      0.2607      0.0667      0.7200      0.3500   -999.2500      0.7000      0.8500
    297.5000      0.0100      0.3600      4.0000   -999.2500   -999.2500     17.5380      0.8500   -999.2500   -999.2500   -999.2500      0.1500 49090916870222007100000000000.0000      0.5000 270000019174388625000000000000.0000     17.5380      1.1529     22.1380    -30.7890   -999.2500     22.1380    -42.7890    -38.4863      0.2606      0.0667      0.7200      0.3500   -999.2500      0.7000      0.8500
    298.0000      0.0100      0.3600      4.0000   -999.2500   -999.2500     17.4020      0.8500   -999.2500   -999.2500   -999.2500      0.1500 49090916870222007100000000000.0000      0.5000 270000019174388625000000000000.0000     17.4020      1.1527     21.5350    -30.3630   -999.2500     21.5350    -42.3630    -37.9538      0.2616      0.0667      0.7200      0.3500   -999.2500      0.7000      0.8500
    298.5000      0.0100      0.3600      4.0000   -999.2500   -999.2500     16.8340      0.8500   -999.2500   -999.2500   -999.2500      0.1500 49090916870222007100000000000.0000      0.5000 270000019174388625000000000000.0000     16.8340      1.1525     20.8950    -30.4020   -999.2500     20.8950    -42.4020    -38.0025      0.2658      0.0667      0.7200      0.3500   -999.2500      0.7000      0.8500
    299.0000      0.0100      0.3600      4.0000   -999.2500   -999.2500     16.3740      0.8500   -999.2500   -999.2500   -999.2500      0.1500 49090916870222007100000000000.0000      0.5000 270000019174388625000000000000.0000     16.3740      1.1523     20.0400    -30.6920   -999.2500     20.0400    -42.6920    -38.3650      0.2693      0.0667      0.7200      0.3500   -999.2500      0.7000      0.8500
    299.5000      0.0100      0.3600      4.0000   -999.2500   -999.2500     16.1290      0.8500   -999.2500   -999.2500   -999.2500      0.1500 49090916870222007100000000000.0000      0.5000 270000019174388625000000000000.0000     16.1290      1.1521     20.8730    -30.7850   -999.2500     20.8730    -42.7850    -38.4813      0.2713      0.0667      0.7200      0.3500   -999.2500      0.7000      0.8500
