~V
VERS. 2.00: Ver 2.00
WRAP.   NO:        
~W
 STRT.FT 35:
 STOP.FT 5500:
 STEP.FT 0.5:
 NULL. -999.250000:
 COMP. Standard (Chevron):Company
 WELL. KCL 45-56:Well
 FLD. :Field
 LOC. S30 T11N R22W:Location
 STAT. CA:State
 SRVC. :Service Company
 SON. :Service Order #
 DATE. :Log Date
 UWI. 0369100:Unique Well ID
~C
 DEPT.FT :
 BVES. :
 BVTS. :
 ILD.OHMM :
 LLD.OHMM :
 LTHE. :
 MM. :
 PHES. :
 PHMX. :
 PHTS. :
 PHZC. :
 RD.OHMM :
 ROS. :
 RS.OHMM :
 SBL.MV :
 SCLN. :
 SN.OHMM :
 SP.MV :
 SPN. :
 STUS. :
 SWES. :
 SWTS. :
 VCDS. :
 VCLY. :
 VCWS. :
 VSHS. :
~P
~A
# ...
    932.0000      0.2364      0.4233   -999.2500      1.8670      0.7636      2.7109      0.2364      0.1707      0.4233      0.4786      1.8670      2.4970   -999.2500    -10.0868    -50.0000   -999.2500    -16.1270    -10.0868      1.1131      1.0000      1.0000      0.1868      0.3737      0.3737      0.7636
    932.5000      0.2404      0.4242   -999.2500      1.8950      0.7596      2.7082      0.2404      0.1709      0.4242      0.4802      1.8950      2.4781   -999.2500    -10.4854    -50.0000   -999.2500    -16.5260    -10.4854      1.1041      1.0000      1.0000      0.1839      0.3677      0.3677      0.7596
    933.0000      0.2404      0.4242   -999.2500      1.9240      0.7596      2.7082      0.2404      0.1709      0.4242      0.4802      1.9240      2.4780   -999.2500    -10.4859    -50.0000   -999.2500    -16.5270    -10.4859      1.0979      1.0000      1.0000      0.1839      0.3677      0.3677      0.7596
    933.5000      0.2377      0.4236   -999.2500      1.9120      0.7623      2.7100      0.2377      0.1707      0.4236      0.4791      1.9120      2.4905   -999.2500    -10.2164    -50.0000   -999.2500    -16.2580    -10.2164      1.1024      1.0000      1.0000      0.1859      0.3718      0.3718      0.7623
    934.0000      0.2350      0.4229   -999.2500      1.8580      0.7650      2.7119      0.2350      0.1705      0.4229      0.4780      1.8580      2.5032   -999.2500     -9.9469    -50.0000   -999.2500    -15.9890     -9.9469      1.1161      1.0000      1.0000      0.1879      0.3758      0.3758      0.7650
    934.5000      0.2339      0.4226   -999.2500      1.8280      0.7661      2.7126      0.2339      0.1705      0.4226      0.4775      1.8280      2.5082   -999.2500     -9.8404    -50.0000   -999.2500    -15.8830     -9.8404      1.1236      1.0000      1.0000      0.1887      0.3774      0.3774      0.7661
    935.0000      0.2328      0.4223   -999.2500      1.7850      0.7672      2.7134      0.2328      0.1704      0.4223      0.4771      1.7850      2.5132   -999.2500     -9.7339    -50.0000   -999.2500    -15.7770     -9.7339      1.1343      1.0000      1.0000      0.1895      0.3790      0.3790      0.7672
    935.5000      0.2329      0.4223   -999.2500      1.7550      0.7671      2.7134      0.2329      0.1704      0.4223      0.4771      1.7550      2.5129   -999.2500     -9.7365    -50.0000   -999.2500    -15.7800     -9.7365      1.1414      1.0000      1.0000      0.1895      0.3790      0.3790      0.7671
    936.0000      0.2329      0.4223   -999.2500      1.7110      0.7671      2.7134      0.2329      0.1704      0.4223      0.4771      1.7110      2.5128   -999.2500     -9.7380    -50.0000   -999.2500    -15.7820     -9.7380      1.1522      1.0000      1.0000      0.1895      0.3789      0.3789      0.7671
    936.5000      0.2339      0.4226   -999.2500      1.6750      0.7661      2.7126      0.2339      0.1705      0.4226      0.4775      1.6750      2.5074   -999.2500     -9.8475    -50.0000   -999.2500    -15.8920     -9.8475      1.1604      1.0000      1.0000      0.1886      0.3773      0.3773      0.7661
    937.0000      0.2354      0.4229   -999.2500      1.6440      0.7646      2.7116      0.2354      0.1706      0.4229      0.4781      1.6440      2.5004   -999.2500     -9.9930    -50.0000   -999.2500    -16.0380     -9.9930      1.1673      1.0000      1.0000      0.1876      0.3751      0.3751      0.7646
    937.5000      0.2361      0.4231   -999.2500      1.6130      0.7639      2.7111      0.2361      0.1706      0.4231      0.4784      1.6130      2.4968   -999.2500    -10.0655    -50.0000   -999.2500    -16.1110    -10.0655      1.1750      1.0000      1.0000      0.1870      0.3740      0.3740      0.7639
    938.0000      0.2368      0.4233   -999.2500      1.5650      0.7632      2.7106      0.2368      0.1707      0.4233      0.4787      1.5650      2.4933   -999.2500    -10.1380    -50.0000   -999.2500    -16.1840    -10.1380      1.1876      1.0000      1.0000      0.1865      0.3729      0.3729      0.7632
    938.5000      0.2375      0.4234   -999.2500      1.5320      0.7625      2.7101      0.2375      0.1707      0.4234      0.4790      1.5320      2.4897   -999.2500    -10.2106    -50.0000   -999.2500    -16.2570    -10.2106      1.1965      1.0000      1.0000      0.1859      0.3718      0.3718      0.7625
    939.0000      0.2390      0.4238   -999.2500      1.4630      0.7610      2.7091      0.2390      0.1708      0.4238      0.4795      1.4630      2.4827   -999.2500    -10.3581    -50.0000   -999.2500    -16.4050    -10.3581      1.2159      1.0000      1.0000      0.1848      0.3696      0.3696      0.7610
    939.5000      0.2393      0.4238   -999.2500      1.4300      0.7607      2.7088      0.2393      0.1709      0.4238      0.4797      1.4300      2.4808   -999.2500    -10.3946    -50.0000   -999.2500    -16.4420    -10.3946      1.2259      1.0000      1.0000      0.1845      0.3691      0.3691      0.7607
    940.0000      0.2411      0.4243   -999.2500      1.3470      0.7589      2.7076      0.2411      0.1710      0.4243      0.4804      1.3470      2.4722   -999.2500    -10.5761    -50.0000   -999.2500    -16.6240    -10.5761      1.2520      1.0000      1.0000      0.1832      0.3664      0.3664      0.7589
    940.5000      0.2423      0.4246   -999.2500      1.3170      0.7577      2.7067      0.2423      0.1711      0.4246      0.4809      1.3170      2.4666   -999.2500    -10.6946    -50.0000   -999.2500    -16.7430    -10.6946      1.2615      1.0000      1.0000      0.1823      0.3646      0.3646      0.7577
    941.0000      0.2431      0.4247   -999.2500      1.2940      0.7569      2.7062      0.2431      0.1711      0.4247      0.4812      1.2940      2.4626   -999.2500    -10.7771    -50.0000   -999.2500    -16.8260    -10.7771      1.2691      1.0000      1.0000      0.1817      0.3633      0.3633      0.7569
    941.5000      0.2439      0.4249   -999.2500      1.3020      0.7561      2.7056      0.2439      0.1712      0.4249      0.4815      1.3020      2.4588   -999.2500    -10.8587    -50.0000   -999.2500    -16.9080    -10.8587      1.2656      1.0000      1.0000      0.1811      0.3621      0.3621      0.7561
    942.0000      0.2440      0.4249   -999.2500      1.3100      0.7560      2.7055      0.2440      0.1712      0.4249      0.4815      1.3100      2.4582   -999.2500    -10.8692    -50.0000   -999.2500    -16.9190    -10.8692      1.2626      1.0000      1.0000      0.1810      0.3620      0.3620      0.7560
    942.5000      0.2433      0.4248   -999.2500      1.3240      0.7567      2.7059      0.2433      0.1711      0.4248      0.4813      1.3240      2.4609   -999.2500    -10.8087    -50.0000   -999.2500    -16.8590    -10.8087      1.2581      1.0000      1.0000      0.1814      0.3629      0.3629      0.7567
    943.0000      0.2456      0.4253   -999.2500      1.3220      0.7544      2.7044      0.2456      0.1713      0.4253      0.4822      1.3220      2.4503   -999.2500    -11.0352    -50.0000   -999.2500    -17.0860    -11.0352      1.2569      1.0000      1.0000      0.1797      0.3595      0.3595      0.7544
    943.5000      0.2457      0.4253   -999.2500      1.3180      0.7543      2.7043      0.2457      0.1713      0.4253      0.4822      1.3180      2.4497   -999.2500    -11.0447    -50.0000   -999.2500    -17.0960    -11.0447      1.2583      1.0000      1.0000      0.1797      0.3593      0.3593      0.7543
    944.0000      0.2450      0.4252   -999.2500      1.3130      0.7550      2.7047      0.2450      0.1713      0.4252      0.4820      1.3130      2.4525   -999.2500    -10.9832    -50.0000   -999.2500    -17.0350    -10.9832      1.2605      1.0000      1.0000      0.1801      0.3603      0.3603      0.7550
    944.5000      0.2451      0.4252   -999.2500      1.3230      0.7549      2.7047      0.2451      0.1713      0.4252      0.4820      1.3230      2.4519   -999.2500    -10.9937    -50.0000   -999.2500    -17.0460    -10.9937      1.2569      1.0000      1.0000      0.1800      0.3601      0.3601      0.7549
