~V
VERS. 2.00: Ver 2.00
WRAP.   NO:        
~W
 STRT.FT 20:
 STOP.FT 4330:
 STEP.FT 0.5:
 NULL. -999.250000:
 COMP. Standard (Chevron):Company
 WELL. KCL 44-25:Well
 FLD. Pioneer:Field
 LOC. S32 T11N R22W:Location
 STAT. CA:State
 SRVC. :Service Company
 SON. :Service Order #
 DATE. :Log Date
 UWI. 0940600:Unique Well ID
~C
 DEPT.FT :
 BVES. :
 BVTS. :
 FACE. :
 GR.RE/T :
 GRS.RE/T :
 ILD.OHMM :
 LTHE. :
 MM. :
 NEUS.CPS :
 NEUT.CPS :
 PHES. :
 PHMX. :
 PHTS. :
 PHZC. :
 RD.OHMM :
 ROS. :
 RS.OHMM :
 SBL.MV :
 SCLN. :
 SN.OHMM :
 SP.MV :
 SPN. :
 STUS. :
 SWES. :
 SWTS. :
 VCDS. :
 VCLY. :
 VCWS. :
 VSHS. :
~P
~A
# ...
   3250.0000      0.0100      0.3600      4.0000      4.1480      4.0924      4.8750      0.8500 -1000000166163193670000000000000.0000    247.7809    248.2060      0.1500 49090916870222007100000000000.0000      0.5000 270000019174388625000000000000.0000      4.8750      0.5606   -999.2500   -999.2500   -999.2500   -999.2500   -999.2500   -999.2500      0.2546      0.0667      0.7200      0.3500   -999.2500      0.7000      0.8500
   3250.5000      0.0100      0.3600      4.0000      4.0950      4.0449      4.9140      0.8500   -999.2500    249.2595    247.7010      0.1500 49090916870222007100000000000.0000      0.5000 270000019174388625000000000000.0000      4.9140      0.5605   -999.2500   -999.2500   -999.2500   -999.2500   -999.2500   -999.2500      0.2531      0.0667      0.7200      0.3500   -999.2500      0.7000      0.8500
   3251.0000      0.0100      0.3600      4.0000      4.0470      4.0100      4.8410      0.8500 -1000000015047466220000000000000.0000    250.5605    249.1850      0.1500 49090916870222007100000000000.0000      0.5000 270000019174388625000000000000.0000      4.8410      0.5605   -999.2500   -999.2500   -999.2500   -999.2500   -999.2500   -999.2500      0.2558      0.0667      0.7200      0.3500   -999.2500      0.7000      0.8500
   3251.5000      0.0100      0.3600      4.0000      4.0100      4.0100      4.7850      0.8500   -999.2500    251.4589    250.5080      0.1500 49090916870222007100000000000.0000      0.5000 270000019174388625000000000000.0000      4.7850      0.5604   -999.2500   -999.2500   -999.2500   -999.2500   -999.2500   -999.2500      0.2579      0.0667      0.7200      0.3500   -999.2500      0.7000      0.8500
   3252.0000      0.0100      0.3600      4.0000      4.0100      4.0101      4.7550      0.8500   -999.2500    252.3901    251.4010      0.1500 49090916870222007100000000000.0000      0.5000 270000019174388625000000000000.0000      4.7550      0.5604   -999.2500   -999.2500   -999.2500   -999.2500   -999.2500   -999.2500      0.2590      0.0667      0.7200      0.3500   -999.2500      0.7000      0.8500
   3252.5000      0.0100      0.3600      4.0000      4.0100      4.0131      4.7860      0.8500   -999.2500    252.9774    252.3470      0.1500 49090916870222007100000000000.0000      0.5000 270000019174388625000000000000.0000      4.7860      0.5603   -999.2500   -999.2500   -999.2500   -999.2500   -999.2500   -999.2500      0.2578      0.0667      0.7200      0.3500   -999.2500      0.7000      0.8500
   3253.0000      0.0100      0.3600      4.0000      4.0120      4.0291      4.8070      0.8500   -999.2500    252.1330    253.0250      0.1500 49090916870222007100000000000.0000      0.5000 270000019174388625000000000000.0000      4.8070      0.5603   -999.2500   -999.2500   -999.2500   -999.2500   -999.2500   -999.2500      0.2570      0.0667      0.7200      0.3500   -999.2500      0.7000      0.8500
   3253.5000      0.0100      0.3600      4.0000      4.0280      4.0503      4.7910      0.8500   -999.2500    249.7387    252.3040      0.1500 49090916870222007100000000000.0000      0.5000 270000019174388625000000000000.0000      4.7910      0.5602   -999.2500   -999.2500   -999.2500   -999.2500   -999.2500   -999.2500      0.2576      0.0667      0.7200      0.3500   -999.2500      0.7000      0.8500
   3254.0000      0.0100      0.3600      4.0000      4.0440      4.1355      4.7580      0.8500   -999.2500    248.7937    249.8090      0.1500 49090916870222007100000000000.0000      0.5000 270000019174388625000000000000.0000      4.7580      0.5602   -999.2500   -999.2500   -999.2500   -999.2500   -999.2500   -999.2500      0.2588      0.0667      0.7200      0.3500   -999.2500      0.7000      0.8500
   3254.5000      0.0100      0.3600      4.0000      4.1330      4.1732      4.7560      0.8500   -999.2500    248.4448    248.8190      0.1500 49090916870222007100000000000.0000      0.5000 270000019174388625000000000000.0000      4.7560      0.5601   -999.2500   -999.2500   -999.2500   -999.2500   -999.2500   -999.2500      0.2589      0.0667      0.7200      0.3500   -999.2500      0.7000      0.8500
   3255.0000      0.0100      0.3600      4.0000      4.1670      4.2520      4.7550      0.8500 -1000000015047466220000000000000.0000    248.0038    248.4750      0.1500 49090916870222007100000000000.0000      0.5000 270000019174388625000000000000.0000      4.7550      0.5601   -999.2500   -999.2500   -999.2500   -999.2500   -999.2500   -999.2500      0.2589      0.0667      0.7200      0.3500   -999.2500      0.7000      0.8500
   3255.5000      0.0100      0.3600      4.0000      4.2490      4.2886      4.7430      0.8500   -999.2500    246.9882    248.0770      0.1500 49090916870222007100000000000.0000      0.5000 270000019174388625000000000000.0000      4.7430      0.5600   -999.2500   -999.2500   -999.2500   -999.2500   -999.2500   -999.2500      0.2593      0.0667      0.7200      0.3500   -999.2500      0.7000      0.8500
   3256.0000      0.0100      0.3600      4.0000      4.2870      4.3086      4.7020      0.8500   -999.2500    245.1198    247.1420      0.1500 49090916870222007100000000000.0000      0.5000 270000019174388625000000000000.0000      4.7020      0.5600   -999.2500   -999.2500   -999.2500   -999.2500   -999.2500   -999.2500      0.2609      0.0667      0.7200      0.3500   -999.2500      0.7000      0.8500
   3256.5000      0.0100      0.3600      4.0000      4.3070      4.3344      4.6180      0.8500   -999.2500    243.6964    245.2380      0.1500 49090916870222007100000000000.0000      0.5000 270000019174388625000000000000.0000      4.6180      0.5599   -999.2500   -999.2500   -999.2500   -999.2500   -999.2500   -999.2500      0.2642      0.0667      0.7200      0.3500   -999.2500      0.7000      0.8500
   3257.0000      0.0100      0.3600      4.0000      4.3260      4.4288      4.5230      0.8500   -999.2500    242.2539    243.8180      0.1500 49090916870222007100000000000.0000      0.5000 270000019174388625000000000000.0000      4.5230      0.5599   -999.2500   -999.2500   -999.2500   -999.2500   -999.2500   -999.2500      0.2680      0.0667      0.7200      0.3500   -999.2500      0.7000      0.8500
   3257.5000      0.0100      0.3600      4.0000      4.4240      4.4751      4.4320      0.8500   -999.2500    240.6978    242.3980      0.1500 49090916870222007100000000000.0000      0.5000 270000019174388625000000000000.0000      4.4320      0.5598   -999.2500   -999.2500   -999.2500   -999.2500   -999.2500   -999.2500      0.2719      0.0667      0.7200      0.3500   -999.2500      0.7000      0.8500
   3258.0000      0.0100      0.3600      4.0000      4.4780      4.4519      4.3950      0.8500   -999.2500    240.3211    240.7630      0.1500 49090916870222007100000000000.0000      0.5000 270000019174388625000000000000.0000      4.3950      0.5598   -999.2500   -999.2500   -999.2500   -999.2500   -999.2500   -999.2500      0.2734      0.0667      0.7200      0.3500   -999.2500      0.7000      0.8500
   3258.5000      0.0100      0.3600      4.0000      4.4460      4.5158      4.3540      0.8500   -999.2500    243.5699    240.0430      0.1500 49090916870222007100000000000.0000      0.5000 270000019174388625000000000000.0000      4.3540      0.5597   -999.2500   -999.2500   -999.2500   -999.2500   -999.2500   -999.2500      0.2752      0.0667      0.7200      0.3500   -999.2500      0.7000      0.8500
   3259.0000      0.0100      0.3600      4.0000      4.5090      4.5800      4.3780      0.8500 -1000000015047466220000000000000.0000    248.8349    243.0330      0.1500 49090916870222007100000000000.0000      0.5000 270000019174388625000000000000.0000      4.3780      0.5597   -999.2500   -999.2500   -999.2500   -999.2500   -999.2500   -999.2500      0.2741      0.0667      0.7200      0.3500   -999.2500      0.7000      0.8500
   3259.5000      0.0100      0.3600      4.0000      4.5800      4.5779      4.4780      0.8500   -999.2500    250.5187    248.6580      0.1500 49090916870222007100000000000.0000      0.5000 270000019174388625000000000000.0000      4.4780      0.5596   -999.2500   -999.2500   -999.2500   -999.2500   -999.2500   -999.2500      0.2698      0.0667      0.7200      0.3500   -999.2500      0.7000      0.8500
