~V
VERS. 2.00: Ver 2.00
WRAP.   NO:        
~W
 STRT.FT 20:
 STOP.FT 4330:
 STEP.FT 0.5:
 NULL. -999.250000:
 COMP. Standard (Chevron):Company
 WELL. KCL 44-25:Well
 FLD. Pioneer:Field
 LOC. S32 T11N R22W:Location
 STAT. CA:State
 SRVC. :Service Company
 SON. :Service Order #
 DATE. :Log Date
 UWI. 0940600:Unique Well ID
~C
 DEPT.FT :
 BVES. :
 BVTS. :
 FACE. :
 GR.RE/T :
 GRS.RE/T :
 ILD.OHMM :
 LTHE. :
 MM. :
 NEUS.CPS :
 NEUT.CPS :
 PHES. :
 PHMX. :
 PHTS. :
 PHZC. :
 RD.OHMM :
 ROS. :
 RS.OHMM :
 SBL.MV :
 SCLN. :
 SN.OHMM :
 SP.MV :
 SPN. :
 STUS. :
 SWES. :
 SWTS. :
 VCDS. :
 VCLY. :
 VCWS. :
 VSHS. :
~P
~A
# ...
    550.0000      0.0100      0.3600      4.0000   -999.2500   -999.2500      9.9950      0.8500   -999.2500   -999.2500   -999.2500      0.1500 49090916870222007100000000000.0000      0.5000 270000019174388625000000000000.0000      9.9950      1.0574     11.2130    -16.6990    -33.5269     11.2130    -28.6990    -20.8737      0.3141      0.0667      0.7200      0.3500   -999.2500      0.7000      0.8500
    550.5000      0.0100      0.3600      4.0000   -999.2500   -999.2500      9.9480      0.8500   -999.2500   -999.2500   -999.2500      0.1500 49090916870222007100000000000.0000      0.5000 270000019174388625000000000000.0000      9.9480      1.0572     11.7480    -17.7020    -33.5214     11.7480    -29.7020    -22.1275      0.3148      0.0667      0.7200      0.3500   -999.2500      0.7000      0.8500
    551.0000      0.0100      0.3600      4.0000   -999.2500   -999.2500      9.7030      0.8500   -999.2500   -999.2500   -999.2500      0.1500 49090916870222007100000000000.0000      0.5000 270000019174388625000000000000.0000      9.7030      1.0570     12.3560    -18.3820    -33.5159     12.3560    -30.3820    -22.9775      0.3189      0.0667      0.7200      0.3500   -999.2500      0.7000      0.8500
    551.5000      0.0100      0.3600      4.0000   -999.2500   -999.2500      9.3860      0.8500   -999.2500   -999.2500   -999.2500      0.1500 49090916870222007100000000000.0000      0.5000 270000019174388625000000000000.0000      9.3860      1.0569     12.6040    -19.2050    -33.5104     12.6040    -31.2050    -24.0063      0.3245      0.0667      0.7200      0.3500   -999.2500      0.7000      0.8500
    552.0000      0.0100      0.3600      4.0000   -999.2500   -999.2500      8.9730      0.8500   -999.2500   -999.2500   -999.2500      0.1500 49090916870222007100000000000.0000      0.5000 270000019174388625000000000000.0000      8.9730      1.0567     11.7380    -18.8470    -33.5049     11.7380    -30.8470    -23.5588      0.3322      0.0667      0.7200      0.3500   -999.2500      0.7000      0.8500
    552.5000      0.0100      0.3600      4.0000   -999.2500   -999.2500      8.0450      0.8500   -999.2500   -999.2500   -999.2500      0.1500 49090916870222007100000000000.0000      0.5000 270000019174388625000000000000.0000      8.0450      1.0565      8.9970    -16.7350    -33.4994      8.9970    -28.7350    -20.9188      0.3517      0.0667      0.7200      0.3500   -999.2500      0.7000      0.8500
    553.0000      0.0100      0.3600      4.0000   -999.2500   -999.2500      7.5670      0.8500   -999.2500   -999.2500   -999.2500      0.1500 49090916870222007100000000000.0000      0.5000 270000019174388625000000000000.0000      7.5670      1.0563      7.9690    -15.1590    -33.4939      7.9690    -27.1590    -18.9487      0.3631      0.0667      0.7200      0.3500   -999.2500      0.7000      0.8500
    553.5000      0.0100      0.3600      4.0000   -999.2500   -999.2500      6.3910      0.8500   -999.2500   -999.2500   -999.2500      0.1500 49090916870222007100000000000.0000      0.5000 270000019174388625000000000000.0000      6.3910      1.0562      7.7780    -14.4070    -33.4884      7.7780    -26.4070    -18.0088      0.3965      0.0667      0.7200      0.3500   -999.2500      0.7000      0.8500
    554.0000      0.0100      0.3600      4.0000   -999.2500   -999.2500      5.7620      0.8500   -999.2500   -999.2500   -999.2500      0.1500 49090916870222007100000000000.0000      0.5000 270000019174388625000000000000.0000      5.7620      1.0560      7.6810    -14.1570    -33.4829      7.6810    -26.1570    -17.6963      0.4184      0.0667      0.7200      0.3500   -999.2500      0.7000      0.8500
    554.5000      0.0100      0.3600      4.0000   -999.2500   -999.2500      5.6250      0.8500   -999.2500   -999.2500   -999.2500      0.1500 49090916870222007100000000000.0000      0.5000 270000019174388625000000000000.0000      5.6250      1.0558      7.5980    -13.6910    -33.4774      7.5980    -25.6910    -17.1138      0.4236      0.0667      0.7200      0.3500   -999.2500      0.7000      0.8500
    555.0000      0.0100      0.3600      4.0000   -999.2500   -999.2500      5.5170      0.8500   -999.2500   -999.2500   -999.2500      0.1500 49090916870222007100000000000.0000      0.5000 270000019174388625000000000000.0000      5.5170      1.0556      8.1260    -13.2970    -33.4719      8.1260    -25.2970    -16.6213      0.4278      0.0667      0.7200      0.3500   -999.2500      0.7000      0.8500
    555.5000      0.0100      0.3600      4.0000   -999.2500   -999.2500      6.8930      0.8500   -999.2500   -999.2500   -999.2500      0.1500 49090916870222007100000000000.0000      0.5000 270000019174388625000000000000.0000      6.8930      1.0555      8.6320    -12.9750    -33.4664      8.6320    -24.9750    -16.2188      0.3809      0.0667      0.7200      0.3500   -999.2500      0.7000      0.8500
    556.0000      0.0100      0.3600      4.0000   -999.2500   -999.2500      7.3310      0.8500   -999.2500   -999.2500   -999.2500      0.1500 49090916870222007100000000000.0000      0.5000 270000019174388625000000000000.0000      7.3310      1.0553      9.0200    -12.7960    -33.4609      9.0200    -24.7960    -15.9950      0.3688      0.0667      0.7200      0.3500   -999.2500      0.7000      0.8500
    556.5000      0.0100      0.3600      4.0000   -999.2500   -999.2500      8.1210      0.8500   -999.2500   -999.2500   -999.2500      0.1500 49090916870222007100000000000.0000      0.5000 270000019174388625000000000000.0000      8.1210      1.0551      9.4870    -12.8320    -33.4554      9.4870    -24.8320    -16.0400      0.3495      0.0667      0.7200      0.3500   -999.2500      0.7000      0.8500
    557.0000      0.0100      0.3600      4.0000   -999.2500   -999.2500      8.6270      0.8500   -999.2500   -999.2500   -999.2500      0.1500 49090916870222007100000000000.0000      0.5000 270000019174388625000000000000.0000      8.6270      1.0549      9.7420    -14.2640    -33.4499      9.7420    -26.2640    -17.8300      0.3385      0.0667      0.7200      0.3500   -999.2500      0.7000      0.8500
    557.5000      0.0100      0.3600      4.0000   -999.2500   -999.2500      8.8530      0.8500   -999.2500   -999.2500   -999.2500      0.1500 49090916870222007100000000000.0000      0.5000 270000019174388625000000000000.0000      8.8530      1.0548      9.8200    -15.0520    -33.4444      9.8200    -27.0520    -18.8150      0.3339      0.0667      0.7200      0.3500   -999.2500      0.7000      0.8500
    558.0000      0.0100      0.3600      4.0000   -999.2500   -999.2500      9.0790      0.8500   -999.2500   -999.2500   -999.2500      0.1500 49090916870222007100000000000.0000      0.5000 270000019174388625000000000000.0000      9.0790      1.0546      9.8980    -15.7680    -33.4389      9.8980    -27.7680    -19.7100      0.3295      0.0667      0.7200      0.3500   -999.2500      0.7000      0.8500
    558.5000      0.0100      0.3600      4.0000   -999.2500   -999.2500      9.3050      0.8500   -999.2500   -999.2500   -999.2500      0.1500 49090916870222007100000000000.0000      0.5000 270000019174388625000000000000.0000      9.3050      1.0544     11.0800    -16.9500    -33.4334     11.0800    -28.9500    -21.1875      0.3252      0.0667      0.7200      0.3500   -999.2500      0.7000      0.8500
    559.0000      0.0100      0.3600      4.0000   -999.2500   -999.2500      9.5310      0.8500   -999.2500   -999.2500   -999.2500      0.1500 49090916870222007100000000000.0000      0.5000 270000019174388625000000000000.0000      9.5310      1.0543     11.7950    -17.4510    -33.4279     11.7950    -29.4510    -21.8138      0.3210      0.0667      0.7200      0.3500   -999.2500      0.7000      0.8500
    559.5000      0.0100      0.3600      4.0000   -999.2500   -999.2500     10.2820      0.8500   -999.2500   -999.2500   -999.2500      0.1500 49090916870222007100000000000.0000      0.5000 270000019174388625000000000000.0000     10.2820      1.0541     12.1870    -18.0600    -33.4224     12.1870    -30.0600    -22.5750      0.3084      0.0667      0.7200      0.3500   -999.2500      0.7000      0.8500
