~V
VERS. 2.00: Ver 2.00
WRAP.   NO:        
~W
 STRT.FT 10:
 STOP.FT 5350:
 STEP.FT 0.5:
 NULL. -999.250000:
 COMP. Standard (Chevron):Company
 WELL. KCL 44-12:Well
 FLD. Pioneer:Field
 LOC. S32 T11N R22W:Location
 STAT. CA:State
 SRVC. :Service Company
 SON. :Service Order #
 DATE. :Log Date
 UWI. 0940400:Unique Well ID
~C
 DEPT.FT :
 GRS.RE/T :
 ILD.OHMM :
 LTHE. :
 MM. :
 NEUT.CPS :
 PHES. :
 PHMX. :
 PHTS. :
 PHZC. :
 RD.OHMM :
 ROS. :
 RS.OHMM :
 SBL.MV :
 SCLN. :
 SN.OHMM :
 SP.MV :
 SPN. :
 VCDS. :
 VCLY. :
 VCWS. :
 VSHS. :
~P
~A
# ...
   1123.0000   -999.2500      2.1340      0.6339      2.1237   -999.2500      0.3661      0.1799      0.4510      0.5294      2.1340      1.3135      2.1740    -19.3059   -133.1916      2.1740    -54.5430    -55.1598      0.0850      0.1699      0.1699      0.5664
   1123.5000   -999.2500      2.2100      0.6364      2.1357   -999.2500      0.3636      0.1797      0.4505      0.5284      2.2100      1.3287      2.2100    -19.0481   -133.1949      2.2100    -54.2930    -54.4232      0.0868      0.1737      0.1737      0.5789
   1124.0000   -999.2500      2.2970      0.6392      2.1493   -999.2500      0.3608      0.1795      0.4498      0.5272      2.2970      1.3462      2.2250    -18.7553   -133.1981      2.2250    -54.0080    -53.5866      0.0889      0.1779      0.1779      0.5930
   1124.5000   -999.2500      2.4380      0.6430      2.1678   -999.2500      0.3570      0.1792      0.4489      0.5257      2.4380      1.3705      2.2280    -18.3555   -133.2013      2.2280    -53.6160    -52.4443      0.0918      0.1837      0.1837      0.6123
   1125.0000   -999.2500      2.5410      0.6434      2.1698   -999.2500      0.3566      0.1792      0.4488      0.5255      2.5410      1.3731      2.2070    -18.3137   -133.2046      2.2070    -53.5820    -52.3249      0.0921      0.1843      0.1843      0.6143
   1125.5000   -999.2500      2.6440      0.6384      2.1453   -999.2500      0.3616      0.1796      0.4499      0.5275      2.6440      1.3409      2.1710    -18.8429   -133.2078      2.1710    -54.1190    -53.8369      0.0883      0.1767      0.1767      0.5888
   1126.0000   -999.2500      3.0230      0.6361      2.1341   -999.2500      0.3639      0.1797      0.4505      0.5285      3.0230      1.3264      2.0410    -19.0861   -133.2111      2.0410    -54.3700    -54.5317      0.0866      0.1731      0.1731      0.5772
   1126.5000   -999.2500      3.2690      0.6362      2.1344   -999.2500      0.3638      0.1797      0.4504      0.5284      3.2690      1.3268      1.9650    -19.0793   -133.2143      1.9650    -54.3710    -54.5123      0.0866      0.1733      0.1733      0.5775
   1127.0000   -999.2500      3.4240      0.6427      2.1662   -999.2500      0.3573      0.1792      0.4489      0.5257      3.4240      1.3681      1.9720    -18.3935   -133.2176      1.9720    -53.6930    -52.5528      0.0916      0.1832      0.1832      0.6106
   1127.5000   -999.2500      3.5900      0.6455      2.1797   -999.2500      0.3545      0.1790      0.4482      0.5246      3.5900      1.3863      2.0190    -18.1007   -133.2208      2.0190    -53.4080    -51.7162      0.0937      0.1874      0.1874      0.6247
   1128.0000   -999.2500      3.6950      0.6419      2.1619   -999.2500      0.3581      0.1793      0.4491      0.5261      3.6950      1.3624      2.1890    -18.4869   -133.2241      2.1890    -53.8020    -52.8196      0.0909      0.1818      0.1818      0.6061
   1128.5000   -999.2500      3.7280      0.6345      2.1258   -999.2500      0.3655      0.1798      0.4508      0.5291      3.7280      1.3156      2.3340    -19.2671   -133.2273      2.3340    -54.5900    -55.0488      0.0853      0.1706      0.1706      0.5686
   1129.0000   -999.2500      3.7150      0.6244      2.0765   -999.2500      0.3756      0.1806      0.4532      0.5333      3.7150      1.2551      2.5360    -20.3333   -133.2305      2.5360    -55.6640    -58.0951      0.0776      0.1552      0.1552      0.5172
   1129.5000   -999.2500      3.7030      0.6165      2.0376   -999.2500      0.3835      0.1812      0.4550      0.5365      3.7030      1.2098      2.6550    -21.8995   -133.2338      2.6550    -57.2380    -62.5699      0.0715      0.1430      0.1430      0.4767
   1130.0000   -999.2500      3.6490      0.6151      2.0311   -999.2500      0.3849      0.1813      0.4553      0.5371      3.6490      1.2024      2.6550    -22.2507   -133.2370      2.6550    -57.5970    -63.5733      0.0705      0.1410      0.1410      0.4699
   1130.5000   -999.2500      3.5800      0.6133      2.0220   -999.2500      0.3867      0.1814      0.4558      0.5378      3.5800      1.1921      2.6010    -22.7449   -133.2403      2.6010    -58.0990    -64.9853      0.0691      0.1381      0.1381      0.4604
   1131.0000   -999.2500      3.5110      0.6124      2.0175   -999.2500      0.3876      0.1815      0.4560      0.5382      3.5110      1.1870      2.5690    -22.9880   -133.2435      2.5690    -58.3500    -65.6801      0.0684      0.1367      0.1367      0.4558
   1131.5000   -999.2500      3.1250      0.6120      2.0154   -999.2500      0.3880      0.1815      0.4561      0.5384      3.1250      1.1846      2.4860    -23.1062   -133.2467      2.4860    -58.4760    -66.0179      0.0680      0.1360      0.1360      0.4535
   1132.0000   -999.2500      2.8070      0.6115      2.0132   -999.2500      0.3885      0.1816      0.4562      0.5385      2.8070      1.1821      2.4170    -23.2254   -133.2500      2.4170    -58.6030    -66.3584      0.0677      0.1354      0.1354      0.4512
   1132.5000   -999.2500      2.6050      0.6171      2.0404   -999.2500      0.3829      0.1811      0.4548      0.5362      2.6050      1.2127      2.2800    -21.7526   -133.2532      2.2800    -57.1380    -62.1504      0.0719      0.1439      0.1439      0.4796
   1133.0000   -999.2500      2.4460      0.6173      2.0416   -999.2500      0.3827      0.1811      0.4548      0.5361      2.4460      1.2139      2.2010    -21.6918   -133.2565      2.2010    -57.0850    -61.9767      0.0721      0.1442      0.1442      0.4808
   1133.5000   -999.2500      2.3310      0.6176      2.0427   -999.2500      0.3824      0.1811      0.4547      0.5360      2.3310      1.2152      2.1210    -21.6320   -133.2597      2.1210    -57.0330    -61.8058      0.0723      0.1446      0.1446      0.4820
   1134.0000   -999.2500      2.1900      0.6179      2.0441   -999.2500      0.3821      0.1811      0.4546      0.5359      2.1900      1.2168      1.8070    -21.5532   -133.2630      1.8070    -56.9620    -61.5806      0.0725      0.1450      0.1450      0.4835
   1134.5000   -999.2500      2.1030      0.6182      2.0456   -999.2500      0.3818      0.1810      0.4545      0.5358      2.1030      1.2184      1.6560    -21.4754   -133.2662      1.6560    -56.8920    -61.3583      0.0727      0.1455      0.1455      0.4850
   1135.0000   -999.2500      1.9660      0.6183      2.0461   -999.2500      0.3817      0.1810      0.4545      0.5357      1.9660      1.2189      1.5940    -21.4506   -133.2694      1.5940    -56.8750    -61.2875      0.0728      0.1456      0.1456      0.4855
   1135.5000   -999.2500      1.8540      0.6184      2.0465   -999.2500      0.3816      0.1810      0.4545      0.5357      1.8540      1.2194      1.5730    -21.4258   -133.2727      1.5730    -56.8580    -61.2166      0.0729      0.1458      0.1458      0.4860
   1136.0000   -999.2500      1.7280      0.6164      2.0368   -999.2500      0.3836      0.1812      0.4549      0.5365      1.7280      1.2082      1.5580    -21.9550   -133.2759      1.5580    -57.3950    -62.7286      0.0714      0.1427      0.1427      0.4758
   1136.5000   -999.2500      1.6310      0.6138      2.0236   -999.2500      0.3862      0.1814      0.4555      0.5376      1.6310      1.1934      1.5690    -22.6642   -133.2792      1.5690    -58.1120    -64.7549      0.0693      0.1386      0.1386      0.4621
   1137.0000   -999.2500      1.5980      0.6119      2.0145   -999.2500      0.3881      0.1815      0.4560      0.5383      1.5980      1.1832      1.5950    -23.1574   -133.2824      1.5950    -58.6130    -66.1640      0.0679      0.1358      0.1358      0.4526
   1137.5000   -999.2500      1.5770      0.6101      2.0054   -999.2500      0.3899      0.1817      0.4564      0.5391      1.5770      1.1731      1.6200    -23.6516   -133.2856      1.6200    -59.1150    -67.5760      0.0665      0.1329      0.1329      0.4431
   1138.0000   -999.2500      1.6000      0.6080      1.9950   -999.2500      0.3920      0.1818      0.4569      0.5400      1.6000      1.1617      1.6490    -24.2168   -133.2889      1.6490    -59.6880    -69.1908      0.0648      0.1297      0.1297      0.4323
