~V
VERS. 2.00: Ver 2.00
WRAP.   NO:        
~W
 STRT.FT 30:
 STOP.FT 4840:
 STEP.FT 0.5:
 NULL. -999.250000:
 COMP. Standard (Chevron):Company
 WELL. KCL 44-23:Well
 FLD. Pioneer:Field
 LOC. S32 T11N R22W:Location
 STAT. CA:State
 SRVC. :Service Company
 SON. :Service Order #
 DATE. :Log Date
 UWI. 0940500:Unique Well ID
~C
 DEPT.FT :
 BVES. :
 BVTS. :
 FACE. :
 GR.RE/T :
 GRS.RE/T :
 ILD.OHMM :
 LTHE. :
 MM. :
 NEUT.CPS :
 PHES. :
 PHMX. :
 PHTS. :
 PHZC. :
 RD.OHMM :
 ROS. :
 RS.OHMM :
 SBL.MV :
 SCLN. :
 SN.OHMM :
 SP.MV :
 SPN.RE/T :
 STUS. :
 SWES. :
 SWTS. :
 VCDS. :
 VCLY. :
 VCWS. :
 VSHS. :
~P
~A
# ...
   4835.0000      0.0100      0.3600      4.0000      4.7220      5.0280      4.3890      0.8500   -999.2500    190.2060      0.1500 49090916870222007100000000000.0000      0.5000 270000019174388625000000000000.0000      4.3890      0.4394   -999.2500   -999.2500   -999.2500   -999.2500   -999.2500     -9.4400      0.2146      0.0667      0.7200      0.3500   -999.2500      0.7000      0.8500
   4835.5000      0.0100      0.3600      4.0000      4.7270      4.9860      4.3980      0.8500   -999.2500    187.6900      0.1500 49090916870222007100000000000.0000      0.5000 270000019174388625000000000000.0000      4.3980      0.4393   -999.2500   -999.2500   -999.2500   -999.2500   -999.2500    -10.2800      0.2142      0.0667      0.7200      0.3500   -999.2500      0.7000      0.8500
   4836.0000      0.0100      0.3600      4.0000      4.7360      4.8800      4.4230      0.8500   -999.2500    186.9410      0.1500 49090916870222007100000000000.0000      0.5000 270000019174388625000000000000.0000      4.4230      0.4393   -999.2500   -999.2500   -999.2500   -999.2500   -999.2500    -12.4000      0.2133      0.0667      0.7200      0.3500   -999.2500      0.7000      0.8500
   4836.5000      0.0100      0.3600      4.0000      4.7460      4.8300      4.4450      0.8500   -999.2500    186.5680      0.1500 49090916870222007100000000000.0000      0.5000 270000019174388625000000000000.0000      4.4450      0.4393   -999.2500   -999.2500   -999.2500   -999.2500   -999.2500    -13.4000      0.2125      0.0667      0.7200      0.3500   -999.2500      0.7000      0.8500
   4837.0000      0.0100      0.3600      4.0000      4.7560      4.7840      4.4670      0.8500   -999.2500    186.5160      0.1500 49090916870222007100000000000.0000      0.5000 270000019174388625000000000000.0000      4.4670      0.4393   -999.2500   -999.2500   -999.2500   -999.2500   -999.2500    -14.3200      0.2116      0.0667      0.7200      0.3500   -999.2500      0.7000      0.8500
   4837.5000      0.0100      0.3600      4.0000      4.7660      4.7220      4.5020      0.8500   -999.2500    186.7310      0.1500 49090916870222007100000000000.0000      0.5000 270000019174388625000000000000.0000      4.5020      0.4392   -999.2500   -999.2500   -999.2500   -999.2500   -999.2500    -15.5600      0.2104      0.0667      0.7200      0.3500   -999.2500      0.7000      0.8500
   4838.0000      0.0100      0.3600      4.0000      4.7750      4.7270      4.5240      0.8500   -999.2500    187.1070      0.1500 49090916870222007100000000000.0000      0.5000 270000019174388625000000000000.0000      4.5240      0.4392   -999.2500   -999.2500   -999.2500   -999.2500   -999.2500    -15.4600      0.2096      0.0667      0.7200      0.3500   -999.2500      0.7000      0.8500
   4838.5000      0.0100      0.3600      4.0000      4.7840      4.7360      4.5490      0.8500   -999.2500    187.3770      0.1500 49090916870222007100000000000.0000      0.5000 270000019174388625000000000000.0000      4.5490      0.4392   -999.2500   -999.2500   -999.2500   -999.2500   -999.2500    -15.2800      0.2087      0.0667      0.7200      0.3500   -999.2500      0.7000      0.8500
   4839.0000      0.0100      0.3600      4.0000      4.8180      4.7460      4.5740      0.8500   -999.2500    187.6460      0.1500 49090916870222007100000000000.0000      0.5000 270000019174388625000000000000.0000      4.5740      0.4391   -999.2500   -999.2500   -999.2500   -999.2500   -999.2500    -15.0800      0.2078      0.0667      0.7200      0.3500   -999.2500      0.7000      0.8500
   4839.5000      0.0100      0.3600      4.0000      4.8520      4.7560      4.6080      0.8500   -999.2500    188.6110      0.1500 49090916870222007100000000000.0000      0.5000 270000019174388625000000000000.0000      4.6080      0.4391   -999.2500   -999.2500   -999.2500   -999.2500   -999.2500    -14.8800      0.2066      0.0667      0.7200      0.3500   -999.2500      0.7000      0.8500
   4840.0000      0.0100      0.3600      4.0000   -999.2500      4.7660      4.6420      0.8500   -999.2500   -999.2500      0.1500 49090916870222007100000000000.0000      0.5000 270000019174388625000000000000.0000      4.6420      0.4391   -999.2500   -999.2500   -999.2500   -999.2500   -999.2500    -14.6800      0.2054      0.0667      0.7200      0.3500   -999.2500      0.7000      0.8500
