~V
VERS. 2.00: Ver 2.00
WRAP.   NO:        
~W
 STRT.FT 30:
 STOP.FT 4840:
 STEP.FT 0.5:
 NULL. -999.250000:
 COMP. Standard (Chevron):Company
 WELL. KCL 44-23:Well
 FLD. Pioneer:Field
 LOC. S32 T11N R22W:Location
 STAT. CA:State
 SRVC. :Service Company
 SON. :Service Order #
 DATE. :Log Date
 UWI. 0940500:Unique Well ID
~C
 DEPT.FT :
 BVES. :
 BVTS. :
 FACE. :
 GR.RE/T :
 GRS.RE/T :
 ILD.OHMM :
 LTHE. :
 MM. :
 NEUT.CPS :
 PHES. :
 PHMX. :
 PHTS. :
 PHZC. :
 RD.OHMM :
 ROS. :
 RS.OHMM :
 SBL.MV :
 SCLN. :
 SN.OHMM :
 SP.MV :
 SPN.RE/T :
 STUS. :
 SWES. :
 SWTS. :
 VCDS. :
 VCLY. :
 VCWS. :
 VSHS. :
~P
~A
# ...
    334.5000      0.0100      0.3600      4.0000   -999.2500   -999.2500      7.0400      0.8500   -999.2500   -999.2500      0.1500 49090916870222007100000000000.0000      0.5000 270000019174388625000000000000.0000      7.0400      1.1379      7.3370    -23.6100   -999.2500      7.3370    -29.6100    -31.4800      0.4033      0.0667      0.7200      0.3500   -999.2500      0.7000      0.8500
    335.0000      0.0100      0.3600      4.0000   -999.2500   -999.2500      6.7710      0.8500   -999.2500   -999.2500      0.1500 49090916870222007100000000000.0000      0.5000 270000019174388625000000000000.0000      6.7710      1.1377      7.1260    -23.2510   -999.2500      7.1260    -29.2510    -31.0013      0.4111      0.0667      0.7200      0.3500   -999.2500      0.7000      0.8500
    335.5000      0.0100      0.3600      4.0000   -999.2500   -999.2500      6.3220      0.8500   -999.2500   -999.2500      0.1500 49090916870222007100000000000.0000      0.5000 270000019174388625000000000000.0000      6.3220      1.1375      7.0360    -23.0000   -999.2500      7.0360    -29.0000    -30.6667      0.4254      0.0667      0.7200      0.3500   -999.2500      0.7000      0.8500
    336.0000      0.0100      0.3600      4.0000   -999.2500   -999.2500      6.0820      0.8500   -999.2500   -999.2500      0.1500 49090916870222007100000000000.0000      0.5000 270000019174388625000000000000.0000      6.0820      1.1373      7.0860    -23.0000   -999.2500      7.0860    -29.0000    -30.6667      0.4336      0.0667      0.7200      0.3500   -999.2500      0.7000      0.8500
    336.5000      0.0100      0.3600      4.0000   -999.2500   -999.2500      5.8450      0.8500   -999.2500   -999.2500      0.1500 49090916870222007100000000000.0000      0.5000 270000019174388625000000000000.0000      5.8450      1.1371      7.3230    -23.5040   -999.2500      7.3230    -29.5040    -31.3387      0.4422      0.0667      0.7200      0.3500   -999.2500      0.7000      0.8500
    337.0000      0.0100      0.3600      4.0000   -999.2500   -999.2500      5.8600      0.8500   -999.2500   -999.2500      0.1500 49090916870222007100000000000.0000      0.5000 270000019174388625000000000000.0000      5.8600      1.1369      7.5060    -23.6300   -999.2500      7.5060    -29.6300    -31.5067      0.4415      0.0667      0.7200      0.3500   -999.2500      0.7000      0.8500
    337.5000      0.0100      0.3600      4.0000   -999.2500   -999.2500      5.9740      0.8500   -999.2500   -999.2500      0.1500 49090916870222007100000000000.0000      0.5000 270000019174388625000000000000.0000      5.9740      1.1367      7.5090    -23.7560   -999.2500      7.5090    -29.7560    -31.6747      0.4373      0.0667      0.7200      0.3500   -999.2500      0.7000      0.8500
    338.0000      0.0100      0.3600      4.0000   -999.2500   -999.2500      6.1640      0.8500   -999.2500   -999.2500      0.1500 49090916870222007100000000000.0000      0.5000 270000019174388625000000000000.0000      6.1640      1.1365      7.5380    -23.6130   -999.2500      7.5380    -29.6130    -31.4840      0.4304      0.0667      0.7200      0.3500   -999.2500      0.7000      0.8500
    338.5000      0.0100      0.3600      4.0000   -999.2500   -999.2500      6.2860      0.8500   -999.2500   -999.2500      0.1500 49090916870222007100000000000.0000      0.5000 270000019174388625000000000000.0000      6.2860      1.1363      7.6530    -23.7930   -999.2500      7.6530    -29.7930    -31.7240      0.4262      0.0667      0.7200      0.3500   -999.2500      0.7000      0.8500
    339.0000      0.0100      0.3600      4.0000   -999.2500   -999.2500      6.5620      0.8500   -999.2500   -999.2500      0.1500 49090916870222007100000000000.0000      0.5000 270000019174388625000000000000.0000      6.5620      1.1361      7.9040    -25.0520   -999.2500      7.9040    -31.0520    -33.4027      0.4171      0.0667      0.7200      0.3500   -999.2500      0.7000      0.8500
    339.5000      0.0100      0.3600      4.0000   -999.2500   -999.2500      7.2190      0.8500   -999.2500   -999.2500      0.1500 49090916870222007100000000000.0000      0.5000 270000019174388625000000000000.0000      7.2190      1.1359      9.2480    -27.0660   -999.2500      9.2480    -33.0660    -36.0880      0.3977      0.0667      0.7200      0.3500   -999.2500      0.7000      0.8500
    340.0000      0.0100      0.3600      4.0000   -999.2500   -999.2500      8.8930      0.8500   -999.2500   -999.2500      0.1500 49090916870222007100000000000.0000      0.5000 270000019174388625000000000000.0000      8.8930      1.1357      9.6170    -28.6840   -999.2500      9.6170    -34.6840    -38.2453      0.3584      0.0667      0.7200      0.3500   -999.2500      0.7000      0.8500
    340.5000      0.0100      0.3600      4.0000   -999.2500   -999.2500      9.1840      0.8500   -999.2500   -999.2500      0.1500 49090916870222007100000000000.0000      0.5000 270000019174388625000000000000.0000      9.1840      1.1355      9.8790    -30.3020   -999.2500      9.8790    -36.3020    -40.4027      0.3526      0.0667      0.7200      0.3500   -999.2500      0.7000      0.8500
    341.0000      0.0100      0.3600      4.0000   -999.2500   -999.2500      9.3910      0.8500   -999.2500   -999.2500      0.1500 49090916870222007100000000000.0000      0.5000 270000019174388625000000000000.0000      9.3910      1.1353      9.9830    -30.9860   -999.2500      9.9830    -36.9860    -41.3147      0.3487      0.0667      0.7200      0.3500   -999.2500      0.7000      0.8500
    341.5000      0.0100      0.3600      4.0000   -999.2500   -999.2500      9.5060      0.8500   -999.2500   -999.2500      0.1500 49090916870222007100000000000.0000      0.5000 270000019174388625000000000000.0000      9.5060      1.1351     11.0460    -31.0230   -999.2500     11.0460    -37.0230    -41.3640      0.3465      0.0667      0.7200      0.3500   -999.2500      0.7000      0.8500
    342.0000      0.0100      0.3600      4.0000   -999.2500   -999.2500      9.5460      0.8500   -999.2500   -999.2500      0.1500 49090916870222007100000000000.0000      0.5000 270000019174388625000000000000.0000      9.5460      1.1349     10.7940    -30.3040   -999.2500     10.7940    -36.3040    -40.4053      0.3457      0.0667      0.7200      0.3500   -999.2500      0.7000      0.8500
    342.5000      0.0100      0.3600      4.0000   -999.2500   -999.2500      9.5560      0.8500   -999.2500   -999.2500      0.1500 49090916870222007100000000000.0000      0.5000 270000019174388625000000000000.0000      9.5560      1.1347     10.1130    -28.6150   -999.2500     10.1130    -34.6150    -38.1533      0.3455      0.0667      0.7200      0.3500   -999.2500      0.7000      0.8500
    343.0000      0.0100      0.3600      4.0000   -999.2500   -999.2500      9.5280      0.8500   -999.2500   -999.2500      0.1500 49090916870222007100000000000.0000      0.5000 270000019174388625000000000000.0000      9.5280      1.1345      9.4670    -26.7100   -999.2500      9.4670    -32.7100    -35.6133      0.3459      0.0667      0.7200      0.3500   -999.2500      0.7000      0.8500
    343.5000      0.0100      0.3600      4.0000   -999.2500   -999.2500      9.3630      0.8500   -999.2500   -999.2500      0.1500 49090916870222007100000000000.0000      0.5000 270000019174388625000000000000.0000      9.3630      1.1343      8.7210    -25.3080   -999.2500      8.7210    -31.3080    -33.7440      0.3489      0.0667      0.7200      0.3500   -999.2500      0.7000      0.8500
    344.0000      0.0100      0.3600      4.0000   -999.2500   -999.2500      8.9500      0.8500   -999.2500   -999.2500      0.1500 49090916870222007100000000000.0000      0.5000 270000019174388625000000000000.0000      8.9500      1.1341      8.5590    -24.0500   -999.2500      8.5590    -30.0500    -32.0667      0.3568      0.0667      0.7200      0.3500   -999.2500      0.7000      0.8500
    344.5000      0.0100      0.3600      4.0000   -999.2500   -999.2500      6.9920      0.8500   -999.2500   -999.2500      0.1500 49090916870222007100000000000.0000      0.5000 270000019174388625000000000000.0000      6.9920      1.1339      8.2400    -23.3320   -999.2500      8.2400    -29.3320    -31.1093      0.4034      0.0667      0.7200      0.3500   -999.2500      0.7000      0.8500
