~V
VERS. 2.00: Ver 2.00
WRAP.   NO:        
~W
 STRT.FT 29:
 STOP.FT 4770:
 STEP.FT 0.5:
 NULL. -999.250000:
 COMP. Standard (Chevron):Company
 WELL. KCL 44-32:Well
 FLD. Pioneer:Field
 LOC. S32 T11N R22W:Location
 STAT. CA:State
 SRVC. :Service Company
 SON. :Service Order #
 DATE. :Log Date
 UWI. 0940700:Unique Well ID
~C
 DEPT.FT :
 BVES. :
 BVTS. :
 FACE. :
 GRS.RE/T :
 ILD.OHMM :
 LTHE. :
 MM. :
 NEUT.CPS :
 PHES. :
 PHMX. :
 PHTS. :
 PHZC. :
 RD.OHMM :
 ROS. :
 RS.OHMM :
 SBL.MV :
 SCLN. :
 SN.OHMM :
 SP.MV :
 SPN. :
 STUS. :
 SWES. :
 SWTS. :
 VCDS. :
 VCLY. :
 VCWS. :
 VSHS. :
~P
~A
# ...
   4757.5000      0.0100      0.3600      4.0000      5.9060      2.6610      0.8500   -999.2500    216.8360      0.1500 49090916870222007100000000000.0000      0.5000 270000019174388625000000000000.0000      2.6610      0.4441   -999.2500   -999.2500   -999.2500   -999.2500   -999.2500   -999.2500      0.3135      0.0667      0.7200      0.3500   -999.2500      0.7000      0.8500
   4758.0000      0.0100      0.3600      4.0000      5.8612      2.6610      0.8500   -999.2500    217.1110      0.1500 49090916870222007100000000000.0000      0.5000 270000019174388625000000000000.0000      2.6610      0.4440   -999.2500   -999.2500   -999.2500   -999.2500   -999.2500   -999.2500      0.3135      0.0667      0.7200      0.3500   -999.2500      0.7000      0.8500
   4758.5000      0.0100      0.3600      4.0000      5.8255      2.6620      0.8500   -999.2500    217.5520      0.1500 49090916870222007100000000000.0000      0.5000 270000019174388625000000000000.0000      2.6620      0.4440   -999.2500   -999.2500   -999.2500   -999.2500   -999.2500   -999.2500      0.3134      0.0667      0.7200      0.3500   -999.2500      0.7000      0.8500
   4759.0000      0.0100      0.3600      4.0000      5.8129      2.6620      0.8500   -999.2500    217.6670      0.1500 49090916870222007100000000000.0000      0.5000 270000019174388625000000000000.0000      2.6620      0.4440   -999.2500   -999.2500   -999.2500   -999.2500   -999.2500   -999.2500      0.3134      0.0667      0.7200      0.3500   -999.2500      0.7000      0.8500
   4759.5000      0.0100      0.3600      4.0000      5.8486      2.6630      0.8500   -999.2500    217.6210      0.1500 49090916870222007100000000000.0000      0.5000 270000019174388625000000000000.0000      2.6630      0.4439   -999.2500   -999.2500   -999.2500   -999.2500   -999.2500   -999.2500      0.3133      0.0667      0.7200      0.3500   -999.2500      0.7000      0.8500
   4760.0000      0.0100      0.3600      4.0000      5.8738      2.6640      0.8500   -999.2500    217.5740      0.1500 49090916870222007100000000000.0000      0.5000 270000019174388625000000000000.0000      2.6640      0.4439   -999.2500   -999.2500   -999.2500   -999.2500   -999.2500   -999.2500      0.3132      0.0667      0.7200      0.3500   -999.2500      0.7000      0.8500
   4760.5000      0.0100      0.3600      4.0000      5.8612      2.6590      0.8500   -999.2500    217.2430      0.1500 49090916870222007100000000000.0000      0.5000 270000019174388625000000000000.0000      2.6590      0.4439   -999.2500   -999.2500   -999.2500   -999.2500   -999.2500   -999.2500      0.3136      0.0667      0.7200      0.3500   -999.2500      0.7000      0.8500
   4761.0000      0.0100      0.3600      4.0000      5.8325      2.6590      0.8500   -999.2500    216.9660      0.1500 49090916870222007100000000000.0000      0.5000 270000019174388625000000000000.0000      2.6590      0.4439   -999.2500   -999.2500   -999.2500   -999.2500   -999.2500   -999.2500      0.3136      0.0667      0.7200      0.3500   -999.2500      0.7000      0.8500
   4761.5000      0.0100      0.3600      4.0000      5.8507      2.6670      0.8500   -999.2500    217.1430      0.1500 49090916870222007100000000000.0000      0.5000 270000019174388625000000000000.0000      2.6670      0.4438   -999.2500   -999.2500   -999.2500   -999.2500   -999.2500   -999.2500      0.3129      0.0667      0.7200      0.3500   -999.2500      0.7000      0.8500
   4762.0000      0.0100      0.3600      4.0000      5.8696      2.6750      0.8500   -999.2500    217.3200      0.1500 49090916870222007100000000000.0000      0.5000 270000019174388625000000000000.0000      2.6750      0.4438   -999.2500   -999.2500   -999.2500   -999.2500   -999.2500   -999.2500      0.3122      0.0667      0.7200      0.3500   -999.2500      0.7000      0.8500
   4762.5000      0.0100      0.3600      4.0000      5.8997      2.6750      0.8500   -999.2500    217.5530      0.1500 49090916870222007100000000000.0000      0.5000 270000019174388625000000000000.0000      2.6750      0.4438   -999.2500   -999.2500   -999.2500   -999.2500   -999.2500   -999.2500      0.3122      0.0667      0.7200      0.3500   -999.2500      0.7000      0.8500
   4763.0000      0.0100      0.3600      4.0000      5.8535      2.6780      0.8500   -999.2500    217.7860      0.1500 49090916870222007100000000000.0000      0.5000 270000019174388625000000000000.0000      2.6780      0.4437   -999.2500   -999.2500   -999.2500   -999.2500   -999.2500   -999.2500      0.3119      0.0667      0.7200      0.3500   -999.2500      0.7000      0.8500
   4763.5000      0.0100      0.3600      4.0000      5.8521      2.6810      0.8500   -999.2500    217.4560      0.1500 49090916870222007100000000000.0000      0.5000 270000019174388625000000000000.0000      2.6810      0.4437   -999.2500   -999.2500   -999.2500   -999.2500   -999.2500   -999.2500      0.3116      0.0667      0.7200      0.3500   -999.2500      0.7000      0.8500
   4764.0000      0.0100      0.3600      4.0000      5.8514      2.6800      0.8500   -999.2500    217.2850      0.1500 49090916870222007100000000000.0000      0.5000 270000019174388625000000000000.0000      2.6800      0.4437   -999.2500   -999.2500   -999.2500   -999.2500   -999.2500   -999.2500      0.3117      0.0667      0.7200      0.3500   -999.2500      0.7000      0.8500
   4764.5000      0.0100      0.3600      4.0000      5.8906      2.6790      0.8500   -999.2500    217.4380      0.1500 49090916870222007100000000000.0000      0.5000 270000019174388625000000000000.0000      2.6790      0.4436   -999.2500   -999.2500   -999.2500   -999.2500   -999.2500   -999.2500      0.3118      0.0667      0.7200      0.3500   -999.2500      0.7000      0.8500
   4765.0000      0.0100      0.3600      4.0000      5.9081      2.6790      0.8500   -999.2500    217.5890      0.1500 49090916870222007100000000000.0000      0.5000 270000019174388625000000000000.0000      2.6790      0.4436   -999.2500   -999.2500   -999.2500   -999.2500   -999.2500   -999.2500      0.3117      0.0667      0.7200      0.3500   -999.2500      0.7000      0.8500
   4765.5000      0.0100      0.3600      4.0000      5.9221      2.6780      0.8500   -999.2500    217.7400      0.1500 49090916870222007100000000000.0000      0.5000 270000019174388625000000000000.0000      2.6780      0.4436   -999.2500   -999.2500   -999.2500   -999.2500   -999.2500   -999.2500      0.3118      0.0667      0.7200      0.3500   -999.2500      0.7000      0.8500
   4766.0000      0.0100      0.3600      4.0000      5.9368      2.6780      0.8500   -999.2500    217.8910      0.1500 49090916870222007100000000000.0000      0.5000 270000019174388625000000000000.0000      2.6780      0.4435   -999.2500   -999.2500   -999.2500   -999.2500   -999.2500   -999.2500      0.3118      0.0667      0.7200      0.3500   -999.2500      0.7000      0.8500
   4766.5000      0.0100      0.3600      4.0000      5.9452      2.6770      0.8500   -999.2500    217.6670      0.1500 49090916870222007100000000000.0000      0.5000 270000019174388625000000000000.0000      2.6770      0.4435   -999.2500   -999.2500   -999.2500   -999.2500   -999.2500   -999.2500      0.3118      0.0667      0.7200      0.3500   -999.2500      0.7000      0.8500
   4767.0000      0.0100      0.3600      4.0000      5.8808      2.6760      0.8500   -999.2500    217.5510      0.1500 49090916870222007100000000000.0000      0.5000 270000019174388625000000000000.0000      2.6760      0.4435   -999.2500   -999.2500   -999.2500   -999.2500   -999.2500   -999.2500      0.3119      0.0667      0.7200      0.3500   -999.2500      0.7000      0.8500
   4767.5000      0.0100      0.3600      4.0000      5.8199      2.6760      0.8500   -999.2500    217.4880      0.1500 49090916870222007100000000000.0000      0.5000 270000019174388625000000000000.0000      2.6760      0.4435   -999.2500   -999.2500   -999.2500   -999.2500   -999.2500   -999.2500      0.3119      0.0667      0.7200      0.3500   -999.2500      0.7000      0.8500
