~V
VERS. 2.00: Ver 2.00
WRAP.   NO:        
~W
 STRT.FT 40:
 STOP.FT 4330:
 STEP.FT 0.5:
 NULL. -999.250000:
 COMP. Standard (Chevron):Company
 WELL. KCL 44-45:Well
 FLD. Pioneer:Field
 LOC. S32 T11N R22W:Location
 STAT. CA:State
 SRVC. :Service Company
 SON. :Service Order #
 DATE. :Log Date
 UWI. 0941000:Unique Well ID
~C
 DEPT.FT :
 BVES. :
 BVTS. :
 FACE. :
 GR.RE/T :
 GRS.RE/T :
 ILD.OHMM :
 LTHE. :
 MM. :
 NEUS.CPS :
 NEUT.CPS :
 PHES. :
 PHMX. :
 PHTS. :
 PHZC. :
 RD.OHMM :
 ROS. :
 RS.OHMM :
 SBL.MV :
 SCLN. :
 SN.OHMM :
 SP.MV :
 SPN. :
 STUS. :
 SWES. :
 SWTS. :
 VCDS. :
 VCLY. :
 VCWS. :
 VSHS. :
~P
~A
# ...
   4059.0000      0.0100      0.3600      4.0000      5.6790      5.6864      3.2349      0.8500   -999.2500    216.4638    219.2030      0.1500 49090916870222007100000000000.0000      0.5000 270000019174388625000000000000.0000      3.2349      0.4914   -999.2500   -999.2500   -999.2500   -999.2500   -999.2500   -999.2500      0.2995      0.0667      0.7200      0.3500   -999.2500      0.7000      0.8500
   4059.5000      0.0100      0.3600      4.0000      5.6840      5.6877      3.1692      0.8500   -999.2500    215.7069    217.9010      0.1500 49090916870222007100000000000.0000      0.5000 270000019174388625000000000000.0000      3.1692      0.4913   -999.2500   -999.2500   -999.2500   -999.2500   -999.2500   -999.2500      0.3038      0.0667      0.7200      0.3500   -999.2500      0.7000      0.8500
   4060.0000      0.0100      0.3600      4.0000      5.6860      5.6759      3.1168      0.8500   -999.2500    217.9314    216.6000      0.1500 49090916870222007100000000000.0000      0.5000 270000019174388625000000000000.0000      3.1168      0.4913   -999.2500   -999.2500   -999.2500   -999.2500   -999.2500   -999.2500      0.3074      0.0667      0.7200      0.3500   -999.2500      0.7000      0.8500
   4060.5000      0.0100      0.3600      4.0000      5.6890      5.6556      3.0760      0.8500   -999.2500    220.6066    215.4550      0.1500 49090916870222007100000000000.0000      0.5000 270000019174388625000000000000.0000      3.0760      0.4913   -999.2500   -999.2500   -999.2500   -999.2500   -999.2500   -999.2500      0.3102      0.0667      0.7200      0.3500   -999.2500      0.7000      0.8500
   4061.0000      0.0100      0.3600      4.0000      5.6780      5.6167      3.0654      0.8500   -999.2500    222.2585    217.6090      0.1500 49090916870222007100000000000.0000      0.5000 270000019174388625000000000000.0000      3.0654      0.4912   -999.2500   -999.2500   -999.2500   -999.2500   -999.2500   -999.2500      0.3109      0.0667      0.7200      0.3500   -999.2500      0.7000      0.8500
   4061.5000      0.0100      0.3600      4.0000      5.6600      5.5720      3.0712      0.8500   -999.2500    223.3745    220.4120      0.1500 49090916870222007100000000000.0000      0.5000 270000019174388625000000000000.0000      3.0712      0.4912   -999.2500   -999.2500   -999.2500   -999.2500   -999.2500   -999.2500      0.3105      0.0667      0.7200      0.3500   -999.2500      0.7000      0.8500
   4062.0000      0.0100      0.3600      4.0000      5.6210      5.4802      3.0974      0.8500 -1000000166163193670000000000000.0000    224.4049    222.1330      0.1500 49090916870222007100000000000.0000      0.5000 270000019174388625000000000000.0000      3.0974      0.4912   -999.2500   -999.2500   -999.2500   -999.2500   -999.2500   -999.2500      0.3086      0.0667      0.7200      0.3500   -999.2500      0.7000      0.8500
   4062.5000      0.0100      0.3600      4.0000      5.5820      5.3890      3.1293      0.8500   -999.2500    225.5308    223.2630      0.1500 49090916870222007100000000000.0000      0.5000 270000019174388625000000000000.0000      3.1293      0.4911   -999.2500   -999.2500   -999.2500   -999.2500   -999.2500   -999.2500      0.3064      0.0667      0.7200      0.3500   -999.2500      0.7000      0.8500
   4063.0000      0.0100      0.3600      4.0000      5.4900      5.2941      2.7778      0.8500   -999.2500    226.7079    224.2840      0.1500 49090916870222007100000000000.0000      0.5000 270000019174388625000000000000.0000      2.7778      0.4911   -999.2500   -999.2500   -999.2500   -999.2500   -999.2500   -999.2500      0.3330      0.0667      0.7200      0.3500   -999.2500      0.7000      0.8500
   4063.5000      0.0100      0.3600      4.0000      5.3990      5.2013      2.8636      0.8500 -1000000015047466220000000000000.0000    228.3198    225.4120      0.1500 49090916870222007100000000000.0000      0.5000 270000019174388625000000000000.0000      2.8636      0.4910   -999.2500   -999.2500   -999.2500   -999.2500   -999.2500   -999.2500      0.3260      0.0667      0.7200      0.3500   -999.2500      0.7000      0.8500
   4064.0000      0.0100      0.3600      4.0000      5.3040      5.1392      3.0398      0.8500   -999.2500    230.2920    226.5410      0.1500 49090916870222007100000000000.0000      0.5000 270000019174388625000000000000.0000      3.0398      0.4910   -999.2500   -999.2500   -999.2500   -999.2500   -999.2500   -999.2500      0.3127      0.0667      0.7200      0.3500   -999.2500      0.7000      0.8500
   4064.5000      0.0100      0.3600      4.0000      5.2080      5.1114      3.2394      0.8500   -999.2500    235.3553    228.1560      0.1500 49090916870222007100000000000.0000      0.5000 270000019174388625000000000000.0000      3.2394      0.4910   -999.2500   -999.2500   -999.2500   -999.2500   -999.2500   -999.2500      0.2989      0.0667      0.7200      0.3500   -999.2500      0.7000      0.8500
   4065.0000      0.0100      0.3600      4.0000      5.1420      5.0819      3.4538      0.8500   -999.2500    239.0344    229.7720      0.1500 49090916870222007100000000000.0000      0.5000 270000019174388625000000000000.0000      3.4538      0.4909   -999.2500   -999.2500   -999.2500   -999.2500   -999.2500   -999.2500      0.2856      0.0667      0.7200      0.3500   -999.2500      0.7000      0.8500
   4065.5000      0.0100      0.3600      4.0000      5.1140      5.0290      3.7420      0.8500   -999.2500    243.4666    235.0030      0.1500 49090916870222007100000000000.0000      0.5000 270000019174388625000000000000.0000      3.7420      0.4909   -999.2500   -999.2500   -999.2500   -999.2500   -999.2500   -999.2500      0.2697      0.0667      0.7200      0.3500   -999.2500      0.7000      0.8500
   4066.0000      0.0100      0.3600      4.0000      5.0870      4.9632      3.9876      0.8500   -999.2500    248.5529    238.6170      0.1500 49090916870222007100000000000.0000      0.5000 270000019174388625000000000000.0000      3.9876      0.4909   -999.2500   -999.2500   -999.2500   -999.2500   -999.2500   -999.2500      0.2576      0.0667      0.7200      0.3500   -999.2500      0.7000      0.8500
   4066.5000      0.0100      0.3600      4.0000      5.0340      4.7857      4.1449      0.8500   -999.2500    253.1315    242.9870      0.1500 49090916870222007100000000000.0000      0.5000 270000019174388625000000000000.0000      4.1449      0.4908   -999.2500   -999.2500   -999.2500   -999.2500   -999.2500   -999.2500      0.2504      0.0667      0.7200      0.3500   -999.2500      0.7000      0.8500
   4067.0000      0.0100      0.3600      4.0000      4.9810      4.7720      4.2026      0.8500   -999.2500    255.4486    248.1130      0.1500 49090916870222007100000000000.0000      0.5000 270000019174388625000000000000.0000      4.2026      0.4908   -999.2500   -999.2500   -999.2500   -999.2500   -999.2500   -999.2500      0.2479      0.0667      0.7200      0.3500   -999.2500      0.7000      0.8500
   4067.5000      0.0100      0.3600      4.0000      4.7870      4.7614      4.1848      0.8500   -999.2500    256.6841    252.9140      0.1500 49090916870222007100000000000.0000      0.5000 270000019174388625000000000000.0000      4.1848      0.4907   -999.2500   -999.2500   -999.2500   -999.2500   -999.2500   -999.2500      0.2486      0.0667      0.7200      0.3500   -999.2500      0.7000      0.8500
   4068.0000      0.0100      0.3600      4.0000      4.7730      4.7545      4.1026      0.8500   -999.2500    257.7515    255.3400      0.1500 49090916870222007100000000000.0000      0.5000 270000019174388625000000000000.0000      4.1026      0.4907   -999.2500   -999.2500   -999.2500   -999.2500   -999.2500   -999.2500      0.2522      0.0667      0.7200      0.3500   -999.2500      0.7000      0.8500
   4068.5000      0.0100      0.3600      4.0000      4.7620      4.7469      3.9283      0.8500 -1000000166163193670000000000000.0000    256.9670    256.5780      0.1500 49090916870222007100000000000.0000      0.5000 270000019174388625000000000000.0000      3.9283      0.4907   -999.2500   -999.2500   -999.2500   -999.2500   -999.2500   -999.2500      0.2603      0.0667      0.7200      0.3500   -999.2500      0.7000      0.8500
