~V
VERS. 2.00: Ver 2.00
WRAP.   NO:        
~W
 STRT.FT 40:
 STOP.FT 4330:
 STEP.FT 0.5:
 NULL. -999.250000:
 COMP. Standard (Chevron):Company
 WELL. KCL 44-45:Well
 FLD. Pioneer:Field
 LOC. S32 T11N R22W:Location
 STAT. CA:State
 SRVC. :Service Company
 SON. :Service Order #
 DATE. :Log Date
 UWI. 0941000:Unique Well ID
~C
 DEPT.FT :
 BVES. :
 BVTS. :
 FACE. :
 GR.RE/T :
 GRS.RE/T :
 ILD.OHMM :
 LTHE. :
 MM. :
 NEUS.CPS :
 NEUT.CPS :
 PHES. :
 PHMX. :
 PHTS. :
 PHZC. :
 RD.OHMM :
 ROS. :
 RS.OHMM :
 SBL.MV :
 SCLN. :
 SN.OHMM :
 SP.MV :
 SPN. :
 STUS. :
 SWES. :
 SWTS. :
 VCDS. :
 VCLY. :
 VCWS. :
 VSHS. :
~P
~A
# ...
    339.0000      0.1527      0.2366      2.0000   -999.2500   -999.2500      5.9935      0.6132      2.1169   -999.2500   -999.2500      0.3868      0.1831      0.4707      0.5472      5.9935      1.3964      6.7855    -12.5021   -999.2500      6.7855    -36.5021    -16.6695      0.5026      0.3947      0.5026      0.0839      0.1678      0.1678      0.5593
    339.5000      0.1533      0.2360      2.0000   -999.2500   -999.2500      5.9587      0.6116      2.1092   -999.2500   -999.2500      0.3884      0.1833      0.4711      0.5479      5.9587      1.3858      6.5955    -12.5868   -999.2500      6.5955    -36.5868    -16.7824      0.5009      0.3947      0.5009      0.0827      0.1654      0.1654      0.5513
    340.0000      0.1541      0.2538      3.0000   -999.2500   -999.2500      5.9277      0.6339      2.2180   -999.2500   -999.2500      0.3661      0.1816      0.4658      0.5387      5.9277      1.5424      6.4097    -11.3970   -999.2500      6.4097    -35.3970    -15.1960      0.5450      0.4211      0.5450      0.0997      0.1994      0.1994      0.6339
    340.5000      0.1547      0.2640      3.0000   -999.2500   -999.2500      5.8949      0.6466      2.2799   -999.2500   -999.2500      0.3534      0.1806      0.4627      0.5335      5.8949      1.6415      6.2641    -10.7198   -999.2500      6.2641    -34.7198    -14.2930      0.5706      0.4377      0.5706      0.1094      0.2187      0.2187      0.6466
    341.0000      0.1558      0.2705      3.0000   -999.2500   -999.2500      5.8307      0.6537      2.3143   -999.2500   -999.2500      0.3463      0.1801      0.4610      0.5305      5.8307      1.6999      6.2273    -10.3435   -999.2500      6.2273    -34.3436    -13.7914      0.5868      0.4499      0.5868      0.1147      0.2295      0.2295      0.6537
    341.5000      0.1572      0.2760      3.0000   -999.2500   -999.2500      5.7530      0.6590      2.3399   -999.2500   -999.2500      0.3410      0.1797      0.4597      0.5284      5.7530      1.7450      6.3391    -10.0639   -999.2500      6.3391    -34.0639    -13.4186      0.6003      0.4611      0.6003      0.1187      0.2375      0.2375      0.6590
    342.0000      0.1591      0.2718      3.0000   -999.2500   -999.2500      5.6708      0.6510      2.3011   -999.2500   -999.2500      0.3490      0.1803      0.4616      0.5316      5.6708      1.6770      6.5123    -10.4878   -999.2500      6.5123    -34.4878    -13.9838      0.5887      0.4559      0.5887      0.1127      0.2253      0.2253      0.6510
    342.5000      0.1607      0.2630      3.0000   -999.2500   -999.2500      5.6013      0.6375      2.2353   -999.2500   -999.2500      0.3625      0.1813      0.4649      0.5372      5.6013      1.5690      6.5023    -11.2072   -999.2500      6.5023    -35.2072    -14.9430      0.5659      0.4432      0.5659      0.1024      0.2048      0.2048      0.6375
    343.0000      0.1599      0.2497      2.0000   -999.2500   -999.2500      5.6301      0.6211      2.1550   -999.2500   -999.2500      0.3789      0.1825      0.4688      0.5439      5.6301      1.4487      6.4874    -12.0857   -999.2500      6.4874    -36.0857    -16.1143      0.5327      0.4219      0.5327      0.0898      0.1797      0.1797      0.5990
    343.5000      0.1550      0.2336      2.0000   -999.2500   -999.2500      5.8565      0.6065      2.0835   -999.2500   -999.2500      0.3935      0.1836      0.4722      0.5500      5.8565      1.3512      6.4743    -12.8680   -999.2500      6.4743    -36.8680    -17.1573      0.4948      0.3938      0.4948      0.0787      0.1573      0.1573      0.5245
    344.0000      0.1537      0.2532      3.0000   -999.2500   -999.2500      5.9461      0.6338      2.2168   -999.2500   -999.2500      0.3662      0.1816      0.4657      0.5387      5.9461      1.5399      6.4974    -11.4104   -999.2500      6.4974    -35.4104    -15.2139      0.5436      0.4196      0.5436      0.0995      0.1990      0.1990      0.6338
    344.5000      0.1535      0.2612      3.0000   -999.2500   -999.2500      5.9523      0.6445      2.2691   -999.2500   -999.2500      0.3555      0.1808      0.4632      0.5343      5.9523      1.6230      6.5542    -10.8377   -999.2500      6.5542    -34.8377    -14.4502      0.5639      0.4318      0.5639      0.1077      0.2154      0.2154      0.6445
    345.0000      0.1532      0.2639      3.0000   -999.2500   -999.2500      5.9626      0.6485      2.2885   -999.2500   -999.2500      0.3515      0.1805      0.4622      0.5326      5.9626      1.6550      6.6478    -10.6263   -999.2500      6.6478    -34.6263    -14.1684      0.5710      0.4359      0.5710      0.1107      0.2214      0.2214      0.6485
    345.5000      0.1522      0.2404      2.0000   -999.2500   -999.2500      6.0158      0.6190      2.1446   -999.2500   -999.2500      0.3810      0.1827      0.4692      0.5448      6.0158      1.4335      6.7677    -12.2002   -999.2500      6.7677    -36.2002    -16.2669      0.5124      0.3995      0.5124      0.0882      0.1764      0.1764      0.5881
    346.0000      0.1508      0.2242      2.0000   -999.2500   -999.2500      6.0668      0.5997      2.0503   -999.2500   -999.2500      0.4003      0.1841      0.4737      0.5527      6.0668      1.3084      6.9505    -13.3911   -999.2500      6.9505    -37.3911    -17.8547      0.4733      0.3766      0.4733      0.0735      0.1470      0.1470      0.4899
    346.5000      0.1476      0.2267      2.0000   -999.2500   -999.2500      6.2556      0.6070      2.0858   -999.2500   -999.2500      0.3930      0.1836      0.4720      0.5497      6.2556      1.3539      7.1587    -12.8423   -999.2500      7.1587    -36.8423    -17.1230      0.4802      0.3756      0.4802      0.0790      0.1581      0.1581      0.5269
    347.0000      0.1440      0.2327      2.0000   -999.2500   -999.2500      6.4804      0.6197      2.1477   -999.2500   -999.2500      0.3803      0.1826      0.4690      0.5445      6.4804      1.4378      7.2200    -12.1657   -999.2500      7.2200    -36.1657    -16.2209      0.4961      0.3786      0.4961      0.0887      0.1774      0.1774      0.5914
    347.5000      0.1417      0.2369      3.0000   -999.2500   -999.2500      6.6189      0.6283      2.1895   -999.2500   -999.2500      0.3717      0.1820      0.4670      0.5409      6.6189      1.4982      7.2832    -11.7085   -999.2500      7.2832    -35.7085    -15.6114      0.5074      0.3811      0.5074      0.0952      0.1905      0.1905      0.6283
    348.0000      0.1395      0.2400      3.0000   -999.2500   -999.2500      6.7521      0.6352      2.2232   -999.2500   -999.2500      0.3648      0.1815      0.4653      0.5381      6.7521      1.5492      7.3551    -11.3400   -999.2500      7.3551    -35.3400    -15.1200      0.5157      0.3823      0.5157      0.1005      0.2010      0.2010      0.6352
    348.5000      0.1374      0.2423      3.0000   -999.2500   -999.2500      6.8757      0.6409      2.2511   -999.2500   -999.2500      0.3591      0.1810      0.4639      0.5357      6.8757      1.5931      7.4559    -11.0343   -999.2500      7.4559    -35.0343    -14.7124      0.5222      0.3826      0.5222      0.1049      0.2097      0.2097      0.6409
    349.0000      0.1357      0.2444      3.0000   -999.2500   -999.2500      6.9783      0.6460      2.2756   -999.2500   -999.2500      0.3540      0.1807      0.4627      0.5336      6.9783      1.6329      7.5927    -10.7666   -999.2500      7.5927    -34.7666    -14.3554      0.5281      0.3832      0.5281      0.1087      0.2174      0.2174      0.6460
    349.5000      0.1337      0.2461      3.0000   -999.2500   -999.2500      7.0960      0.6508      2.2992   -999.2500   -999.2500      0.3492      0.1803      0.4616      0.5316      7.0960      1.6723      7.7348    -10.5090   -999.2500      7.7348    -34.5090    -14.0120      0.5332      0.3829      0.5332      0.1124      0.2247      0.2247      0.6508
    350.0000      0.1320      0.2465      3.0000   -999.2500   -999.2500      7.2020      0.6536      2.3127   -999.2500   -999.2500      0.3464      0.1801      0.4609      0.5305      7.2020      1.6955      7.9140    -10.3608   -999.2500      7.9140    -34.3608    -13.8144      0.5349      0.3811      0.5349      0.1145      0.2290      0.2290      0.6536
