~V
VERS. 2.00: Ver 2.00
WRAP.   NO:        
~W
 STRT.FT 29:
 STOP.FT 4770:
 STEP.FT 0.5:
 NULL. -999.250000:
 COMP. Standard (Chevron):Company
 WELL. KCL 44-32:Well
 FLD. Pioneer:Field
 LOC. S32 T11N R22W:Location
 STAT. CA:State
 SRVC. :Service Company
 SON. :Service Order #
 DATE. :Log Date
 UWI. 0940700:Unique Well ID
~C
 DEPT.FT :
 BVES. :
 BVTS. :
 FACE. :
 GRS.RE/T :
 ILD.OHMM :
 LTHE. :
 MM. :
 NEUT.CPS :
 PHES. :
 PHMX. :
 PHTS. :
 PHZC. :
 RD.OHMM :
 ROS. :
 RS.OHMM :
 SBL.MV :
 SCLN. :
 SN.OHMM :
 SP.MV :
 SPN. :
 STUS. :
 SWES. :
 SWTS. :
 VCDS. :
 VCLY. :
 VCWS. :
 VSHS. :
~P
~A
# ...
   1661.0000      0.3474      0.3791      1.0000   -999.2500      1.3810      0.5775      1.8634   -999.2500      0.4225      0.1830      0.4542      0.5463      1.3810      0.9898      1.3850    -31.0010    -78.6137      1.3850    -53.6260    -62.0021      0.8346      0.8222      0.8346      0.0317      0.0634      0.0634      0.2113
   1661.5000      0.3510      0.3835      1.0000   -999.2500      1.3530      0.5785      1.8649   -999.2500      0.4215      0.1829      0.4539      0.5459      1.3530      0.9914      1.3810    -30.8094    -78.6204      1.3810    -53.4470    -61.6188      0.8448      0.8329      0.8448      0.0324      0.0649      0.0649      0.2162
   1662.0000      0.3532      0.3865      1.0000   -999.2500      1.3350      0.5797      1.8666   -999.2500      0.4203      0.1828      0.4537      0.5454      1.3350      0.9933      1.3850    -30.5827    -78.6271      1.3850    -53.2330    -61.1654      0.8519      0.8402      0.8519      0.0333      0.0666      0.0666      0.2221
   1662.5000      0.3498      0.3845      1.0000   -999.2500      1.3500      0.5815      1.8695   -999.2500      0.4185      0.1827      0.4532      0.5447      1.3500      0.9964      1.4110    -30.2121    -78.6337      1.4110    -52.8750    -60.4241      0.8484      0.8358      0.8484      0.0347      0.0695      0.0695      0.2316
   1663.0000      0.3462      0.3820      1.0000   -999.2500      1.3680      0.5828      1.8715   -999.2500      0.4172      0.1826      0.4529      0.5441      1.3680      0.9986      1.4470    -29.9494    -78.6404      1.4470    -52.6250    -59.8988      0.8434      0.8300      0.8434      0.0357      0.0715      0.0715      0.2383
   1663.5000      0.3409      0.3796      1.0000   -999.2500      1.3890      0.5867      1.8773   -999.2500      0.4133      0.1823      0.4520      0.5425      1.3890      1.0051      1.4830    -29.1857    -78.6471      1.4830    -51.8740    -58.3715      0.8397      0.8247      0.8397      0.0387      0.0773      0.0773      0.2578
   1664.0000      0.3363      0.3795      1.0000   -999.2500      1.3970      0.5926      1.8865   -999.2500      0.4074      0.1818      0.4506      0.5401      1.3970      1.0153      1.5080    -27.9941    -78.6538      1.5080    -50.6950    -55.9881      0.8422      0.8255      0.8422      0.0432      0.0865      0.0865      0.2882
   1664.5000      0.3328      0.3785      1.0000   -999.2500      1.4080      0.5959      1.8915   -999.2500      0.4041      0.1816      0.4498      0.5387      1.4080      1.0210      1.5330    -27.3374    -78.6604      1.5330    -50.0510    -54.6748      0.8415      0.8235      0.8415      0.0457      0.0915      0.0915      0.3049
   1665.0000      0.3316      0.3783      1.0000   -999.2500      1.4110      0.5972      1.8935   -999.2500      0.4028      0.1815      0.4495      0.5381      1.4110      1.0233      1.5480    -27.0747    -78.6671      1.5480    -49.8010    -54.1495      0.8416      0.8232      0.8416      0.0467      0.0935      0.0935      0.3117
   1665.5000      0.3298      0.3781      1.0000   -999.2500      1.4150      0.5993      1.8966   -999.2500      0.4007      0.1813      0.4490      0.5373      1.4150      1.0269      1.5550    -26.6691    -78.6738      1.5550    -49.4080    -53.3382      0.8421      0.8230      0.8421      0.0483      0.0966      0.0966      0.3220
   1666.0000      0.3290      0.3796      2.0000   -999.2500      1.4120      0.6022      1.9035   -999.2500      0.3978      0.1811      0.4483      0.5361      1.4120      1.0340      1.5010    -26.0844    -78.6805      1.5010    -48.8360    -52.1688      0.8466      0.8271      0.8466      0.0505      0.1011      0.1011      0.3370
   1666.5000      0.3335      0.3866      2.0000   -999.2500      1.3830      0.6055      1.9196   -999.2500      0.3945      0.1809      0.4476      0.5347      1.3830      1.0492      1.4480    -25.4278    -78.6871      1.4480    -48.1920    -50.8555      0.8637      0.8454      0.8637      0.0531      0.1061      0.1061      0.3537
   1667.0000      0.3359      0.3924      2.0000   -999.2500      1.3690      0.6100      1.9417   -999.2500      0.3900      0.1805      0.4465      0.5328      1.3690      1.0706      1.4160    -24.5211    -78.6938      1.4160    -47.2980    -49.0422      0.8790      0.8614      0.8790      0.0565      0.1130      0.1130      0.3768
   1667.5000      0.3383      0.3982      2.0000   -999.2500      1.3550      0.6144      1.9630   -999.2500      0.3856      0.1802      0.4455      0.5310      1.3550      1.0917      1.3910    -23.6504    -78.7005      1.3910    -46.4400    -47.3009      0.8938      0.8774      0.8938      0.0598      0.1197      0.1197      0.3990
   1668.0000      0.3416      0.4026      2.0000   -999.2500      1.3340      0.6159      1.9704   -999.2500      0.3841      0.1801      0.4451      0.5304      1.3340      1.0991      1.3590    -23.3518    -78.7072      1.3590    -46.1540    -46.7035      0.9046      0.8894      0.9046      0.0610      0.1220      0.1220      0.4066
   1668.5000      0.3438      0.4028      2.0000   -999.2500      1.3190      0.6133      1.9576   -999.2500      0.3867      0.1803      0.4457      0.5314      1.3190      1.0862      1.3550    -23.8761    -78.7139      1.3550    -46.6910    -47.7522      0.9038      0.8892      0.9038      0.0590      0.1180      0.1180      0.3933
   1669.0000      0.3447      0.4013      2.0000   -999.2500      1.3120      0.6102      1.9423   -999.2500      0.3898      0.1805      0.4464      0.5327      1.3120      1.0711      1.3550    -24.5064    -78.7205      1.3550    -47.3340    -49.0129      0.8990      0.8844      0.8990      0.0566      0.1132      0.1132      0.3774
   1669.5000      0.3458      0.4015      2.0000   -999.2500      1.3050      0.6090      1.9365   -999.2500      0.3910      0.1806      0.4467      0.5332      1.3050      1.0654      1.3590    -24.7438    -78.7272      1.3590    -47.5840    -49.4876      0.8988      0.8844      0.8988      0.0557      0.1114      0.1114      0.3714
   1670.0000      0.3403      0.3997      2.0000   -999.2500      1.3410      0.6137      1.9596   -999.2500      0.3863      0.1802      0.4456      0.5312      1.3410      1.0881      1.3740    -23.8021    -78.7339      1.3740    -46.6550    -47.6042      0.8970      0.8811      0.8970      0.0593      0.1186      0.1186      0.3954
   1670.5000      0.3389      0.4012      2.0000   -999.2500      1.3520      0.6178      1.9791   -999.2500      0.3822      0.1799      0.4446      0.5296      1.3520      1.1079      1.3770    -23.0025    -78.7406      1.3770    -45.8680    -46.0049      0.9024      0.8865      0.9024      0.0624      0.1247      0.1247      0.4157
   1671.0000      0.3382      0.4034      2.0000   -999.2500      1.3580      0.6216      1.9978   -999.2500      0.3784      0.1796      0.4437      0.5280      1.3580      1.1272      1.3800    -22.2388    -78.7472      1.3800    -45.1170    -44.4776      0.9092      0.8936      0.9092      0.0653      0.1306      0.1306      0.4352
   1671.5000      0.3370      0.4039      2.0000   -999.2500      1.3650      0.6238      2.0086   -999.2500      0.3762      0.1795      0.4432      0.5271      1.3650      1.1385      1.3900    -21.7971    -78.7539      1.3900    -44.6880    -43.5943      0.9115      0.8957      0.9115      0.0670      0.1339      0.1339      0.4464
   1672.0000      0.3367      0.4053      2.0000   -999.2500      1.3680      0.6258      2.0185   -999.2500      0.3742      0.1793      0.4427      0.5262      1.3680      1.1491      1.3970    -21.3915    -78.7606      1.3970    -44.2950    -42.7829      0.9155      0.9000      0.9155      0.0685      0.1370      0.1370      0.4568
   1672.5000      0.3354      0.4021      2.0000   -999.2500      1.3750      0.6234      2.0067   -999.2500      0.3766      0.1795      0.4432      0.5272      1.3750      1.1364      1.4000    -21.8798    -78.7673      1.4000    -44.7960    -43.7596      0.9072      0.8908      0.9072      0.0667      0.1333      0.1333      0.4444
