~V
VERS. 2.00: Ver 2.00
WRAP.   NO:        
~W
 STRT.FT 30:
 STOP.FT 4840:
 STEP.FT 0.5:
 NULL. -999.250000:
 COMP. Standard (Chevron):Company
 WELL. KCL 44-23:Well
 FLD. Pioneer:Field
 LOC. S32 T11N R22W:Location
 STAT. CA:State
 SRVC. :Service Company
 SON. :Service Order #
 DATE. :Log Date
 UWI. 0940500:Unique Well ID
~C
 DEPT.FT :
 BVES. :
 BVTS. :
 FACE. :
 GR.RE/T :
 GRS.RE/T :
 ILD.OHMM :
 LTHE. :
 MM. :
 NEUT.CPS :
 PHES. :
 PHMX. :
 PHTS. :
 PHZC. :
 RD.OHMM :
 ROS. :
 RS.OHMM :
 SBL.MV :
 SCLN. :
 SN.OHMM :
 SP.MV :
 SPN.RE/T :
 STUS. :
 SWES. :
 SWTS. :
 VCDS. :
 VCLY. :
 VCWS. :
 VSHS. :
~P
~A
# ...
   2655.0000      0.1977      0.3315      3.0000   -999.2500   -999.2500      2.5820      0.7355      2.4489   -999.2500      0.2645      0.1690      0.3983      0.4693      2.5820      1.6962      3.1860    -18.2264    -99.5348      3.1860    -57.2210    -24.3019      0.8324      0.7476      0.8324      0.1338      0.2676      0.2676      0.7355
   2655.5000      0.2028      0.3367      3.0000   -999.2500   -999.2500      2.4610      0.7357      2.4496   -999.2500      0.2643      0.1690      0.3983      0.4693      2.4610      1.6975      3.1080    -18.2048    -99.5474      3.1080    -57.1870    -24.2731      0.8454      0.7671      0.8454      0.1339      0.2679      0.2679      0.7357
   2656.0000      0.2076      0.3411      3.0000   -999.2500   -999.2500      2.3860      0.7352      2.4473   -999.2500      0.2648      0.1690      0.3984      0.4694      2.3860      1.6934      3.0040    -18.2912    -99.5599      3.0040    -57.2610    -24.3883      0.8564      0.7839      0.8564      0.1336      0.2671      0.2671      0.7352
   2656.5000      0.2087      0.3419      3.0000   -999.2500   -999.2500      2.3700      0.7347      2.4450   -999.2500      0.2653      0.1690      0.3985      0.4696      2.3700      1.6893      2.9500    -18.3776    -99.5724      2.9500    -57.3350    -24.5035      0.8580      0.7867      0.8580      0.1332      0.2664      0.2664      0.7347
   2657.0000      0.2097      0.3437      3.0000   -999.2500   -999.2500      2.3530      0.7359      2.4508   -999.2500      0.2641      0.1689      0.3982      0.4691      2.3530      1.6995      2.9470    -18.1770    -99.5850      2.9470    -57.1220    -24.2360      0.8633      0.7939      0.8633      0.1341      0.2682      0.2682      0.7359
   2657.5000      0.2087      0.3436      3.0000   -999.2500   -999.2500      2.3660      0.7371      2.4565   -999.2500      0.2629      0.1688      0.3979      0.4686      2.3660      1.7099      2.9430    -17.9764    -99.5975      2.9430    -56.9090    -23.9686      0.8637      0.7937      0.8637      0.1350      0.2700      0.2700      0.7371
   2658.0000      0.2077      0.3439      3.0000   -999.2500   -999.2500      2.3780      0.7388      2.4647   -999.2500      0.2612      0.1687      0.3974      0.4679      2.3780      1.7249      2.9320    -17.6868    -99.6101      2.9320    -56.6070    -23.5824      0.8653      0.7950      0.8653      0.1363      0.2725      0.2725      0.7388
   2658.5000      0.2042      0.3418      3.0000   -999.2500   -999.2500      2.4280      0.7405      2.4729   -999.2500      0.2595      0.1686      0.3970      0.4672      2.4280      1.7401      2.9210    -17.3962    -99.6226      2.9210    -56.3040    -23.1950      0.8608      0.7870      0.8608      0.1375      0.2751      0.2751      0.7405
   2659.0000      0.2039      0.3435      3.0000   -999.2500   -999.2500      2.4280      0.7433      2.4867   -999.2500      0.2567      0.1684      0.3963      0.4661      2.4280      1.7658      2.8800    -16.9096    -99.6351      2.8800    -55.8050    -22.5462      0.8668      0.7943      0.8668      0.1397      0.2794      0.2794      0.7433
   2659.5000      0.2057      0.3427      3.0000   -999.2500   -999.2500      2.4060      0.7398      2.4694   -999.2500      0.2602      0.1686      0.3972      0.4675      2.4060      1.7335      2.8390    -17.5330    -99.6477      2.8390    -56.4160    -23.3774      0.8628      0.7905      0.8628      0.1370      0.2739      0.2739      0.7398
   2660.0000      0.2081      0.3382      3.0000   -999.2500   -999.2500      2.3850      0.7307      2.4251   -999.2500      0.2693      0.1693      0.3994      0.4713      2.3850      1.6539      2.7960    -19.1235    -99.6602      2.7960    -57.9940    -25.4979      0.8468      0.7728      0.8468      0.1301      0.2601      0.2601      0.7307
   2660.5000      0.2100      0.3372      3.0000   -999.2500   -999.2500      2.3630      0.7269      2.4069   -999.2500      0.2731      0.1696      0.4003      0.4728      2.3630      1.6224      2.7710    -19.7829    -99.6727      2.7710    -58.6410    -26.3771      0.8424      0.7690      0.8424      0.1272      0.2544      0.2544      0.7269
   2661.0000      0.2104      0.3348      3.0000   -999.2500   -999.2500      2.3630      0.7232      2.3886   -999.2500      0.2768      0.1699      0.4012      0.4743      2.3630      1.5917      2.7530    -20.4423    -99.6853      2.7530    -59.2880    -27.2563      0.8344      0.7601      0.8344      0.1243      0.2487      0.2487      0.7232
   2661.5000      0.2114      0.3291      3.0000   -999.2500   -999.2500      2.3630      0.7145      2.3464   -999.2500      0.2855      0.1705      0.4033      0.4779      2.3630      1.5234      2.7490    -21.9607    -99.6978      2.7490    -60.7940    -29.2809      0.8162      0.7404      0.8162      0.1177      0.2355      0.2355      0.7145
   2662.0000      0.2099      0.3239      3.0000   -999.2500   -999.2500      2.3950      0.7097      2.3231   -999.2500      0.2903      0.1709      0.4044      0.4798      2.3950      1.4874      2.8420    -22.7991    -99.7104      2.8420    -61.6200    -30.3988      0.8011      0.7229      0.8011      0.1141      0.2282      0.2282      0.7097
   2662.5000      0.2089      0.3202      3.0000   -999.2500   -999.2500      2.4160      0.7059      2.3049   -999.2500      0.2941      0.1712      0.4053      0.4814      2.4160      1.4599      2.9740    -23.4585    -99.7229      2.9740    -62.2670    -31.2780      0.7900      0.7105      0.7900      0.1112      0.2225      0.2225      0.7059
   2663.0000      0.2042      0.3118      3.0000   -999.2500   -999.2500      2.5020      0.7012      2.2816   -999.2500      0.2988      0.1715      0.4064      0.4833      2.5020      1.4258      3.1310    -24.2969    -99.7354      3.1310    -63.0930    -32.3958      0.7672      0.6833      0.7672      0.1076      0.2152      0.2152      0.7012
   2663.5000      0.2021      0.3068      3.0000   -999.2500   -999.2500      2.5450      0.6974      2.2634   -999.2500      0.3026      0.1718      0.4073      0.4848      2.5450      1.3997      3.1740    -24.9563    -99.7480      3.1740    -63.7400    -33.2750      0.7533      0.6679      0.7533      0.1047      0.2095      0.2095      0.6974
   2664.0000      0.2000      0.3031      3.0000   -999.2500   -999.2500      2.5860      0.6953      2.2532   -999.2500      0.3047      0.1719      0.4078      0.4857      2.5860      1.3854      3.1810    -25.3287    -99.7605      3.1810    -64.1000    -33.7716      0.7432      0.6563      0.7432      0.1031      0.2063      0.2063      0.6875
   2664.5000      0.1977      0.3005      3.0000   -999.2500   -999.2500      2.6270      0.6949      2.2509   -999.2500      0.3051      0.1720      0.4079      0.4859      2.6270      1.3822      3.1810    -25.4151    -99.7731      3.1810    -64.1740    -33.8868      0.7367      0.6480      0.7367      0.1028      0.2055      0.2055      0.6851
   2665.0000      0.1935      0.2972      3.0000   -999.2500   -999.2500      2.7020      0.6961      2.2566   -999.2500      0.3039      0.1719      0.4076      0.4854      2.7020      1.3902      3.1660    -25.2145    -99.7856      3.1660    -63.9610    -33.6193      0.7292      0.6368      0.7292      0.1037      0.2073      0.2073      0.6911
   2665.5000      0.1934      0.2956      3.0000   -999.2500   -999.2500      2.7090      0.6942      2.2474   -999.2500      0.3058      0.1720      0.4080      0.4862      2.7090      1.3773      3.2450    -25.5519    -99.7981      3.2450    -64.2860    -34.0692      0.7244      0.6323      0.7244      0.1022      0.2044      0.2044      0.6814
   2666.0000      0.1940      0.2918      3.0000   -999.2500   -999.2500      2.7090      0.6884      2.2192   -999.2500      0.3116      0.1725      0.4094      0.4885      2.7090      1.3390      3.2840    -26.5693    -99.8107      3.2840    -65.2910    -35.4257      0.7127      0.6225      0.7127      0.0978      0.1956      0.1956      0.6520
