~V
VERS. 2.00: Ver 2.00
WRAP.   NO:        
~W
 STRT.FT 35:
 STOP.FT 5500:
 STEP.FT 0.5:
 NULL. -999.250000:
 COMP. Standard (Chevron):Company
 WELL. KCL 45-56:Well
 FLD. :Field
 LOC. S30 T11N R22W:Location
 STAT. CA:State
 SRVC. :Service Company
 SON. :Service Order #
 DATE. :Log Date
 UWI. 0369100:Unique Well ID
~C
 DEPT.FT :
 BVES. :
 BVTS. :
 ILD.OHMM :
 LLD.OHMM :
 LTHE. :
 MM. :
 PHES. :
 PHMX. :
 PHTS. :
 PHZC. :
 RD.OHMM :
 ROS. :
 RS.OHMM :
 SBL.MV :
 SCLN. :
 SN.OHMM :
 SP.MV :
 SPN. :
 STUS. :
 SWES. :
 SWTS. :
 VCDS. :
 VCLY. :
 VCWS. :
 VSHS. :
~P
~A
# ...
    672.0000      0.2281      0.3259      1.9820   -999.2500      0.6271      2.1820      0.2281   -999.2500      0.3259      0.3177      1.9820   -999.2500      2.3790    -24.2620    -40.0000      2.3790    -30.2620    -24.2620      1.0489      1.0000      1.0000      0.0903      0.1881      0.1881      0.6271
    672.5000      0.2359      0.3266      1.9460   -999.2500      0.5816      2.1383      0.2359   -999.2500      0.3266      0.3191      1.9460   -999.2500      2.3610    -24.7820    -40.0000      2.3610    -30.7820    -24.7820      1.0338      1.0000      1.0000      0.0837      0.1745      0.1745      0.5816
    673.0000      0.2345      0.3265      1.9350   -999.2500      0.5898      2.1462      0.2345   -999.2500      0.3265      0.3188      1.9350   -999.2500      2.3360    -24.6880    -40.0000      2.3360    -30.6880    -24.6880      1.0402      1.0000      1.0000      0.0849      0.1769      0.1769      0.5898
    673.5000      0.2336      0.3264      1.9340   -999.2500      0.5949      2.1511      0.2336   -999.2500      0.3264      0.3187      1.9340   -999.2500      2.3420    -24.6300    -40.0000      2.3420    -30.6300    -24.6300      1.0429      1.0000      1.0000      0.0857      0.1785      0.1785      0.5949
    674.0000      0.2349      0.3265      1.9550   -999.2500      0.5874      2.1439      0.2349   -999.2500      0.3265      0.3189      1.9550   -999.2500      2.3810    -24.7160    -40.0000      2.3810    -30.7160    -24.7160      1.0348      1.0000      1.0000      0.0846      0.1762      0.1762      0.5874
    674.5000      0.2452      0.3273      1.9730   -999.2500      0.5262      2.0851      0.2455   -999.2500      0.3275      0.3207      1.9730   -999.2500      2.4240    -25.4150    -40.0000      2.4240    -31.4150    -25.4150      0.9993      0.9991      0.9993      0.0758      0.1579      0.1579      0.5262
    675.0000      0.2426      0.3182      1.9910   -999.2500      0.4848      2.0454      0.2526   -999.2500      0.3282      0.3220      1.9910   -999.2500      2.4490    -26.1490    -40.0000      2.4490    -32.1490    -26.1490      0.9695      0.9603      0.9695      0.0698      0.1454      0.1454      0.4848
    675.5000      0.2381      0.3111      2.0440   -999.2500      0.4679      2.0292      0.2555   -999.2500      0.3285      0.3225      2.0440   -999.2500      2.4950    -26.6310    -40.0000      2.4950    -32.6310    -26.6310      0.9470      0.9319      0.9470      0.0674      0.1404      0.1404      0.4679
    676.0000      0.2361      0.3076      2.0680   -999.2500      0.4586      2.0202      0.2571   -999.2500      0.3287      0.3227      2.0680   -999.2500      2.5270    -26.8980    -40.0000      2.5270    -32.8980    -26.8980      0.9360      0.9181      0.9360      0.0660      0.1376      0.1376      0.4586
    676.5000      0.2344      0.3043      2.0860   -999.2500      0.4480      2.0101      0.2589   -999.2500      0.3288      0.3230      2.0860   -999.2500      2.5480    -27.2000    -40.0000      2.5480    -33.2000    -27.2000      0.9255      0.9054      0.9255      0.0645      0.1344      0.1344      0.4480
    677.0000      0.2324      0.3008      2.1110   -999.2500      0.4387      2.0011      0.2606   -999.2500      0.3290      0.3233      2.1110   -999.2500      2.5580    -27.4670    -40.0000      2.5580    -33.4670    -27.4670      0.9143      0.8918      0.9143      0.0632      0.1316      0.1316      0.4387
    677.5000      0.2302      0.2984      2.1420   -999.2500      0.4369      1.9994      0.2608   -999.2500      0.3290      0.3233      2.1420   -999.2500      2.5620    -27.5170    -40.0000      2.5620    -33.5170    -27.5170      0.9069      0.8826      0.9069      0.0629      0.1311      0.1311      0.4369
    678.0000      0.2298      0.2971      2.1460   -999.2500      0.4314      1.9942      0.2618   -999.2500      0.3291      0.3235      2.1460   -999.2500      2.5540    -27.6730    -40.0000      2.5540    -33.6730    -27.6730      0.9029      0.8779      0.9029      0.0621      0.1294      0.1294      0.4314
    678.5000      0.2301      0.2965      2.1380   -999.2500      0.4260      1.9889      0.2627   -999.2500      0.3292      0.3237      2.1380   -999.2500      2.5450    -27.8290    -40.0000      2.5450    -33.8290    -27.8290      0.9009      0.8758      0.9009      0.0613      0.1278      0.1278      0.4260
    679.0000      0.2310      0.2962      2.1200   -999.2500      0.4178      1.9810      0.2641   -999.2500      0.3293      0.3239      2.1200   -999.2500      2.5360    -28.0640    -40.0000      2.5360    -34.0640    -28.0640      0.8994      0.8746      0.8994      0.0602      0.1253      0.1253      0.4178
    679.5000      0.2325      0.2976      2.0980   -999.2500      0.4172      1.9805      0.2642   -999.2500      0.3293      0.3239      2.0980   -999.2500      2.4520    -28.0790    -40.0000      2.4520    -34.0790    -28.0790      0.9037      0.8799      0.9037      0.0601      0.1252      0.1252      0.4172
    680.0000      0.2344      0.3012      2.0770   -999.2500      0.4281      1.9910      0.2623   -999.2500      0.3291      0.3236      2.0770   -999.2500      2.3910    -27.7690    -40.0000      2.3910    -33.7690    -27.7690      0.9152      0.8936      0.9152      0.0616      0.1284      0.1284      0.4281
    680.5000      0.2375      0.3072      2.0400   -999.2500      0.4470      2.0091      0.2590   -999.2500      0.3288      0.3230      2.0400   -999.2500      2.3870    -27.2290    -40.0000      2.3870    -33.2290    -27.2290      0.9345      0.9168      0.9345      0.0644      0.1341      0.1341      0.4470
    681.0000      0.2395      0.3126      2.0230   -999.2500      0.4684      2.0297      0.2553   -999.2500      0.3284      0.3223      2.0230   -999.2500      2.3970    -26.6170    -40.0000      2.3970    -32.6170    -26.6170      0.9518      0.9380      0.9518      0.0675      0.1405      0.1405      0.4684
    681.5000      0.2416      0.3188      2.0060   -999.2500      0.4949      2.0551      0.2507   -999.2500      0.3279      0.3215      2.0060   -999.2500      2.3920    -25.8610    -40.0000      2.3920    -31.8610    -25.8610      0.9721      0.9635      0.9721      0.0713      0.1485      0.1485      0.4949
    682.0000      0.2390      0.3268      1.9870   -999.2500      0.5628      2.1203      0.2390   -999.2500      0.3268      0.3195      1.9870   -999.2500      2.3910    -24.9970    -40.0000      2.3910    -30.9970    -24.9970      1.0156      1.0000      1.0000      0.0810      0.1688      0.1688      0.5628
    682.5000      0.2264      0.3255      1.9720   -999.2500      0.6353      2.1899      0.2264   -999.2500      0.3255      0.3173      1.9720   -999.2500      2.3900    -24.1680    -40.0000      2.3900    -30.1680    -24.1680      1.0546      1.0000      1.0000      0.0915      0.1906      0.1906      0.6353
    683.0000      0.2183      0.3247      1.9600   -999.2500      0.6824      2.2351      0.2183   -999.2500      0.3247      0.3159      1.9600   -999.2500      2.4000    -23.6300    -40.0000      2.4000    -29.6300    -23.6300      1.0928      1.0000      1.0000      0.0983      0.2047      0.2047      0.6824
    683.5000      0.2155      0.3244      1.9560   -999.2500      0.6983      2.2504      0.2155   -999.2500      0.3244      0.3154      1.9560   -999.2500      2.4170    -23.4480    -40.0000      2.4170    -29.4480    -23.4480      1.1025      1.0000      1.0000      0.1006      0.2095      0.2095      0.6983
    684.0000      0.2139      0.3243      1.9510   -999.2500      0.7077      2.2594      0.2139   -999.2500      0.3243      0.3151      1.9510   -999.2500      2.4160    -23.3410    -40.0000      2.4160    -29.3410    -23.3410      1.1088      1.0000      1.0000      0.1019      0.2123      0.2123      0.7077
    684.5000      0.2106      0.3239      1.9430   -999.2500      0.7265      2.2774      0.2106   -999.2500      0.3239      0.3145      1.9430   -999.2500      2.3980    -23.1260    -40.0000      2.3980    -29.1260    -23.1260      1.1210      1.0000      1.0000      0.1046      0.2179      0.2179      0.7265
