~V
VERS. 2.00: Ver 2.00
WRAP.   NO:        
~W
 STRT.FT 29:
 STOP.FT 4770:
 STEP.FT 0.5:
 NULL. -999.250000:
 COMP. Standard (Chevron):Company
 WELL. KCL 44-32:Well
 FLD. Pioneer:Field
 LOC. S32 T11N R22W:Location
 STAT. CA:State
 SRVC. :Service Company
 SON. :Service Order #
 DATE. :Log Date
 UWI. 0940700:Unique Well ID
~C
 DEPT.FT :
 BVES. :
 BVTS. :
 FACE. :
 GRS.RE/T :
 ILD.OHMM :
 LTHE. :
 MM. :
 NEUT.CPS :
 PHES. :
 PHMX. :
 PHTS. :
 PHZC. :
 RD.OHMM :
 ROS. :
 RS.OHMM :
 SBL.MV :
 SCLN. :
 SN.OHMM :
 SP.MV :
 SPN. :
 STUS. :
 SWES. :
 SWTS. :
 VCDS. :
 VCLY. :
 VCWS. :
 VSHS. :
~P
~A
# ...
   1013.0000      0.2645      0.4060      3.0000   -999.2500      2.2580      0.7055      2.4854   -999.2500      0.2945      0.1748      0.4359      0.5013      2.2580      1.9070      2.4950    -11.2900    -69.9620      2.4950    -21.2900    -22.5800      0.9313      0.8983      0.9313      0.1415      0.2829      0.2829      0.7055
   1013.5000      0.2636      0.4023      3.0000   -999.2500      2.2730      0.7019      2.4677   -999.2500      0.2981      0.1751      0.4368      0.5028      2.2730      1.8717      2.5130    -11.5490    -69.9687      2.5130    -21.5490    -23.0980      0.9210      0.8843      0.9210      0.1387      0.2774      0.2774      0.7019
   1014.0000      0.2612      0.4029      3.0000   -999.2500      2.3020      0.7058      2.4868   -999.2500      0.2942      0.1748      0.4359      0.5012      2.3020      1.9096      2.5320    -11.2720    -69.9753      2.5320    -21.2720    -22.5440      0.9243      0.8878      0.9243      0.1417      0.2834      0.2834      0.7058
   1014.5000      0.2600      0.4041      3.0000   -999.2500      2.3150      0.7090      2.5022   -999.2500      0.2910      0.1745      0.4351      0.4999      2.3150      1.9410      2.5440    -11.0480    -69.9820      2.5440    -21.0480    -22.0960      0.9287      0.8935      0.9287      0.1441      0.2882      0.2882      0.7090
   1015.0000      0.2588      0.4053      3.0000   -999.2500      2.3280      0.7122      2.5176   -999.2500      0.2878      0.1743      0.4343      0.4986      2.3280      1.9729      2.5570    -10.8250    -69.9887      2.5570    -20.8250    -21.6500      0.9332      0.8992      0.9332      0.1465      0.2930      0.2930      0.7122
   1015.5000      0.2563      0.4039      3.0000   -999.2500      2.3600      0.7136      2.5244   -999.2500      0.2864      0.1742      0.4339      0.4980      2.3600      1.9872      2.5830    -10.7270    -69.9954      2.5830    -20.7270    -21.4540      0.9308      0.8951      0.9308      0.1476      0.2951      0.2951      0.7136
   1016.0000      0.2536      0.4053      3.0000   -999.2500      2.3930      0.7191      2.5509   -999.2500      0.2809      0.1738      0.4326      0.4957      2.3930      2.0442      2.5920    -10.3420    -70.0020      2.5920    -20.3420    -20.6840      0.9368      0.9027      0.9368      0.1517      0.3034      0.3034      0.7191
   1016.5000      0.2522      0.4111      3.0000   -999.2500      2.4010      0.7286      2.5969   -999.2500      0.2714      0.1731      0.4303      0.4918      2.4010      2.1484      2.6020     -9.6720    -70.0087      2.6020    -19.6720    -19.3440      0.9555      0.9294      0.9555      0.1589      0.3178      0.3178      0.7286
   1017.0000      0.2517      0.4178      3.0000   -999.2500      2.3970      0.7381      2.6429   -999.2500      0.2619      0.1724      0.4279      0.4879      2.3970      2.2592      2.6160     -9.0020    -70.0154      2.6160    -19.0020    -18.0040      0.9763      0.9612      0.9763      0.1661      0.3321      0.3321      0.7381
   1017.5000      0.2467      0.4242      3.0000   -999.2500      2.3730      0.7533      2.7023   -999.2500      0.2467      0.1712      0.4242      0.4818      2.3730      2.4216      2.5630     -7.9380    -70.0221      2.5630    -17.9380    -15.8760      1.0065      1.0000      1.0000      0.1775      0.3550      0.3550      0.7533
   1018.0000      0.2392      0.4224      3.0000   -999.2500      2.3480      0.7608      2.7075   -999.2500      0.2392      0.1707      0.4224      0.4787      2.3480      2.4557      2.4880     -7.4110    -70.0287      2.4880    -17.4110    -14.8220      1.0143      1.0000      1.0000      0.1831      0.3663      0.3663      0.7608
   1018.5000      0.2373      0.4219      3.0000   -999.2500      2.3020      0.7627      2.7088   -999.2500      0.2373      0.1705      0.4219      0.4779      2.3020      2.4644      2.4340     -7.2770    -70.0354      2.4340    -17.2770    -14.5540      1.0218      1.0000      1.0000      0.1846      0.3691      0.3691      0.7627
   1019.0000      0.2420      0.4230      3.0000   -999.2500      2.2770      0.7580      2.7056   -999.2500      0.2420      0.1709      0.4230      0.4798      2.2770      2.4428      2.4060     -7.6070    -70.0421      2.4060    -17.6070    -15.2140      1.0226      1.0000      1.0000      0.1810      0.3621      0.3621      0.7580
   1019.5000      0.2472      0.4243      3.0000   -999.2500      2.2450      0.7528      2.7020   -999.2500      0.2472      0.1713      0.4243      0.4819      2.2450      2.4191      2.4060     -7.9740    -70.0488      2.4060    -17.9740    -15.9480      1.0241      1.0000      1.0000      0.1771      0.3542      0.3542      0.7528
   1020.0000      0.2498      0.4249      3.0000   -999.2500      2.2130      0.7502      2.7001   -999.2500      0.2498      0.1715      0.4249      0.4830      2.2130      2.4071      2.4370     -8.1610    -70.0555      2.4370    -18.1610    -16.3220      1.0273      1.0000      1.0000      0.1751      0.3503      0.3503      0.7502
   1020.5000      0.2432      0.4233      3.0000   -999.2500      2.2170      0.7568      2.7047   -999.2500      0.2432      0.1710      0.4233      0.4803      2.2170      2.4369      2.4680     -7.6950    -70.0621      2.4680    -17.6950    -15.3900      1.0306      1.0000      1.0000      0.1801      0.3603      0.3603      0.7568
   1021.0000      0.2385      0.4221      3.0000   -999.2500      2.2200      0.7615      2.7079   -999.2500      0.2385      0.1706      0.4221      0.4784      2.2200      2.4580      2.4710     -7.3710    -70.0688      2.4710    -17.3710    -14.7420      1.0329      1.0000      1.0000      0.1836      0.3672      0.3672      0.7615
   1021.5000      0.2365      0.4216      3.0000   -999.2500      2.2470      0.7635      2.7094   -999.2500      0.2365      0.1705      0.4216      0.4775      2.2470      2.4674      2.4750     -7.2270    -70.0755      2.4750    -17.2270    -14.4540      1.0301      1.0000      1.0000      0.1852      0.3703      0.3703      0.7635
   1022.0000      0.2339      0.4210      3.0000   -999.2500      2.2740      0.7661      2.7112   -999.2500      0.2339      0.1703      0.4210      0.4765      2.2740      2.4793      2.4860     -7.0460    -70.0822      2.4860    -17.0460    -14.0920      1.0277      1.0000      1.0000      0.1871      0.3742      0.3742      0.7661
   1022.5000      0.2384      0.4221      3.0000   -999.2500      2.2850      0.7616      2.7080   -999.2500      0.2384      0.1706      0.4221      0.4783      2.2850      2.4581      2.5040     -7.3660    -70.0888      2.5040    -17.3660    -14.7320      1.0234      1.0000      1.0000      0.1837      0.3674      0.3674      0.7616
   1023.0000      0.2434      0.4233      3.0000   -999.2500      2.2920      0.7566      2.7045   -999.2500      0.2434      0.1710      0.4233      0.4804      2.2920      2.4349      2.5360     -7.7220    -70.0955      2.5360    -17.7220    -15.4440      1.0194      1.0000      1.0000      0.1799      0.3598      0.3598      0.7566
   1023.5000      0.2434      0.4233      3.0000   -999.2500      2.2990      0.7566      2.7045   -999.2500      0.2434      0.1710      0.4233      0.4803      2.2990      2.4350      2.5820     -7.7200    -70.1022      2.5820    -17.7200    -15.4400      1.0184      1.0000      1.0000      0.1799      0.3598      0.3598      0.7566
   1024.0000      0.2367      0.4216      3.0000   -999.2500      2.3490      0.7633      2.7091   -999.2500      0.2367      0.1705      0.4216      0.4776      2.3490      2.4654      2.6150     -7.2530    -70.1089      2.6150    -17.2530    -14.5060      1.0154      1.0000      1.0000      0.1849      0.3698      0.3698      0.7633
   1024.5000      0.2331      0.4207      3.0000   -999.2500      2.4070      0.7669      2.7116   -999.2500      0.2331      0.1702      0.4207      0.4762      2.4070      2.4820      2.6790     -7.0010    -70.1155      2.6790    -17.0010    -14.0020      1.0097      1.0000      1.0000      0.1876      0.3752      0.3752      0.7669
