~V
VERS. 2.00: Ver 2.00
WRAP.   NO:        
~W
 STRT.FT 30:
 STOP.FT 4840:
 STEP.FT 0.5:
 NULL. -999.250000:
 COMP. Standard (Chevron):Company
 WELL. KCL 44-23:Well
 FLD. Pioneer:Field
 LOC. S32 T11N R22W:Location
 STAT. CA:State
 SRVC. :Service Company
 SON. :Service Order #
 DATE. :Log Date
 UWI. 0940500:Unique Well ID
~C
 DEPT.FT :
 BVES. :
 BVTS. :
 FACE. :
 GR.RE/T :
 GRS.RE/T :
 ILD.OHMM :
 LTHE. :
 MM. :
 NEUT.CPS :
 PHES. :
 PHMX. :
 PHTS. :
 PHZC. :
 RD.OHMM :
 ROS. :
 RS.OHMM :
 SBL.MV :
 SCLN. :
 SN.OHMM :
 SP.MV :
 SPN.RE/T :
 STUS. :
 SWES. :
 SWTS. :
 VCDS. :
 VCLY. :
 VCWS. :
 VSHS. :
~P
~A
# ...
   2988.5000      0.2017      0.3474      3.0000      3.9140      4.3722      2.3850      0.7592      2.5512    170.4860      0.2408      0.1665      0.3865      0.4556      2.3850      1.8788   -999.2500   -999.2500   -105.5114   -999.2500   -999.2500    -22.5555      0.8989      0.8377      0.8989      0.1456      0.2913      0.2913      0.7592
   2989.0000      0.2007      0.3379      3.0000      3.8320      4.2368      2.4560      0.7481      2.4973    171.2330      0.2519      0.1673      0.3891      0.4601      2.4560      1.7717   -999.2500   -999.2500   -105.5119   -999.2500   -999.2500    -25.2633      0.8684      0.7967      0.8684      0.1372      0.2744      0.2744      0.7481
   2989.5000      0.1926      0.3213      3.0000      3.7300      4.1006      2.6240      0.7369      2.4431    172.0880      0.2631      0.1681      0.3918      0.4647      2.6240      1.6717   -999.2500   -999.2500   -105.5123   -999.2500   -999.2500    -27.9873      0.8201      0.7320      0.8201      0.1287      0.2575      0.2575      0.7369
   2990.0000      0.1857      0.3067      3.0000      3.6710      3.9773      2.7810      0.7268      2.3940    173.1590      0.2732      0.1689      0.3943      0.4688      2.7810      1.5872   -999.2500   -999.2500   -105.5128   -999.2500   -999.2500    -30.4532      0.7780      0.6796      0.7780      0.1211      0.2421      0.2421      0.7268
   2990.5000      0.1804      0.2953      3.0000      3.5930      3.8780      2.9100      0.7187      2.3545    175.0890      0.2813      0.1695      0.3962      0.4722      2.9100      1.5231   -999.2500   -999.2500   -105.5132   -999.2500   -999.2500    -32.4400      0.7453      0.6413      0.7453      0.1149      0.2298      0.2298      0.7187
   2991.0000      0.1753      0.2845      3.0000      3.5230      3.7878      3.0430      0.7113      2.3186    175.5450      0.2887      0.1700      0.3980      0.4752      3.0430      1.4676   -999.2500   -999.2500   -105.5137   -999.2500   -999.2500    -34.2448      0.7150      0.6071      0.7150      0.1093      0.2185      0.2185      0.7113
   2991.5000      0.1696      0.2737      3.0000      3.4300      3.7047      3.1460      0.7045      2.2856    176.0020      0.2955      0.1705      0.3996      0.4780      3.1460      1.4189   -999.2500   -999.2500   -105.5141   -999.2500   -999.2500    -35.9055      0.6851      0.5741      0.6851      0.1041      0.2082      0.2082      0.6940
   2992.0000      0.1704      0.2704      3.0000      3.3570      3.6380      3.1460      0.6991      2.2590    176.3200      0.3009      0.1709      0.4009      0.4802      3.1460      1.3813   -999.2500   -999.2500   -105.5146   -999.2500   -999.2500    -37.2399      0.6745      0.5663      0.6745      0.0999      0.1999      0.1999      0.6663
   2992.5000      0.1737      0.2690      3.0000      3.3340      3.5638      3.0890      0.6930      2.2295    176.4800      0.3070      0.1714      0.4023      0.4827      3.0890      1.3408   -999.2500   -999.2500   -105.5151   -999.2500   -999.2500    -38.7248      0.6686      0.5657      0.6686      0.0953      0.1907      0.1907      0.6355
   2993.0000      0.1787      0.2691      3.0000      3.4100      3.4847      2.9920      0.6866      2.1980    176.0470      0.3134      0.1719      0.4038      0.4853      2.9920      1.2994   -999.2500   -999.2500   -105.5155   -999.2500   -999.2500    -40.3069      0.6664      0.5702      0.6664      0.0904      0.1808      0.1808      0.6027
   2993.5000      0.1913      0.2765      2.0000      3.4580      3.4003      2.7410      0.6797      2.1645    175.6160      0.3203      0.1724      0.4055      0.4882      2.7410      1.2571   -999.2500   -999.2500   -105.5160   -999.2500   -999.2500    -41.9942      0.6819      0.5974      0.6819      0.0852      0.1703      0.1703      0.5677
   2994.0000      0.2019      0.2838      2.0000      3.5080      3.3478      2.5480      0.6754      2.1436    174.7560      0.3246      0.1727      0.4065      0.4899      2.5480      1.2316   -999.2500   -999.2500   -105.5164   -999.2500   -999.2500    -43.0448      0.6983      0.6222      0.6983      0.0819      0.1638      0.1638      0.5459
   2994.5000      0.2115      0.2944      2.0000      3.5630      3.3641      2.3830      0.6768      2.1502    173.7880      0.3232      0.1726      0.4061      0.4894      2.3830      1.2395   -999.2500   -999.2500   -105.5169   -999.2500   -999.2500    -42.7176      0.7248      0.6542      0.7248      0.0829      0.1658      0.1658      0.5527
   2995.0000      0.2176      0.3045      2.0000      3.6380      3.4288      2.2790      0.6821      2.1760    173.1160      0.3179      0.1722      0.4049      0.4872      2.2790      1.2713   -999.2500   -999.2500   -105.5173   -999.2500   -999.2500    -41.4247      0.7522      0.6844      0.7522      0.0869      0.1739      0.1739      0.5795
   2995.5000      0.2269      0.3168      2.0000      3.7330      3.4773      2.1390      0.6860      2.1953    172.4450      0.3140      0.1719      0.4039      0.4855      2.1390      1.2959   -999.2500   -999.2500   -105.5178   -999.2500   -999.2500    -40.4544      0.7844      0.7227      0.7844      0.0899      0.1799      0.1799      0.5997
   2996.0000      0.2318      0.3249      3.0000      3.8430      3.5289      2.0680      0.6903      2.2159    171.0990      0.3097      0.1716      0.4029      0.4838      2.0680      1.3227   -999.2500   -999.2500   -105.5182   -999.2500   -999.2500    -39.4217      0.8065      0.7483      0.8065      0.0932      0.1863      0.1863      0.6211
   2996.5000      0.2322      0.3292      3.0000      3.8960      3.5911      2.0570      0.6954      2.2407    170.8280      0.3046      0.1712      0.4017      0.4817      2.0570      1.3559   -999.2500   -999.2500   -105.5187   -999.2500   -999.2500    -38.1776      0.8196      0.7621      0.8196      0.0970      0.1941      0.1941      0.6469
   2997.0000      0.2315      0.3336      3.0000      3.9480      3.6731      2.0570      0.7021      2.2734    170.4770      0.2979      0.1707      0.4001      0.4789      2.0570      1.4014   -999.2500   -999.2500   -105.5191   -999.2500   -999.2500    -36.5378      0.8340      0.7771      0.8340      0.1021      0.2043      0.2043      0.6809
   2997.5000      0.2301      0.3385      3.0000      4.0210      3.7731      2.0640      0.7103      2.3133    170.1270      0.2897      0.1701      0.3981      0.4755      2.0640      1.4595   -999.2500   -999.2500   -105.5196   -999.2500   -999.2500    -34.5386      0.8503      0.7943      0.8503      0.1084      0.2167      0.2167      0.7103
   2998.0000      0.2283      0.3422      3.0000      4.0450      3.8620      2.0780      0.7176      2.3488    169.8030      0.2824      0.1696      0.3963      0.4725      2.0780      1.5138   -999.2500   -999.2500   -105.5201   -999.2500   -999.2500    -32.7596      0.8633      0.8082      0.8633      0.1139      0.2278      0.2278      0.7176
   2998.5000      0.2270      0.3441      3.0000      4.0690      3.9144      2.0890      0.7219      2.3697    169.2650      0.2781      0.1692      0.3953      0.4708      2.0890      1.5470   -999.2500   -999.2500   -105.5205   -999.2500   -999.2500    -31.7123      0.8705      0.8160      0.8705      0.1172      0.2343      0.2343      0.7219
   2999.0000      0.2250      0.3459      3.0000      4.0600      3.9734      2.1070      0.7267      2.3932    168.8880      0.2733      0.1689      0.3941      0.4688      2.1070      1.5856   -999.2500   -999.2500   -105.5210   -999.2500   -999.2500    -30.5316      0.8776      0.8235      0.8776      0.1208      0.2417      0.2417      0.7267
   2999.5000      0.2232      0.3475      3.0000      4.1030      4.0292      2.1240      0.7313      2.4155    169.5310      0.2687      0.1685      0.3930      0.4669      2.1240      1.6232   -999.2500   -999.2500   -105.5214   -999.2500   -999.2500    -29.4154      0.8843      0.8308      0.8843      0.1243      0.2486      0.2486      0.7313
