~V
VERS. 2.00: Ver 2.00
WRAP.   NO:        
~W
 STRT.FT 10:
 STOP.FT 5350:
 STEP.FT 0.5:
 NULL. -999.250000:
 COMP. Standard (Chevron):Company
 WELL. KCL 44-12:Well
 FLD. Pioneer:Field
 LOC. S32 T11N R22W:Location
 STAT. CA:State
 SRVC. :Service Company
 SON. :Service Order #
 DATE. :Log Date
 UWI. 0940400:Unique Well ID
~C
 DEPT.FT :
 GRS.RE/T :
 ILD.OHMM :
 LTHE. :
 MM. :
 NEUT.CPS :
 PHES. :
 PHMX. :
 PHTS. :
 PHZC. :
 RD.OHMM :
 ROS. :
 RS.OHMM :
 SBL.MV :
 SCLN. :
 SN.OHMM :
 SP.MV :
 SPN. :
 VCDS. :
 VCLY. :
 VCWS. :
 VSHS. :
~P
~A
# ...
   3701.5000      4.7050      2.9640      0.8500   -999.2500    221.4230      0.1500 49090916870222007100000000000.0000      0.5000 270000019174388625000000000000.0000      2.9640      0.5197      5.5830    -10.8714   -999.2500      5.5830    -40.4800    -31.0611      0.3500   -999.2500      0.7000      0.8500
   3702.0000      4.7350      2.9320      0.8500   -999.2500    221.0480      0.1500 49090916870222007100000000000.0000      0.5000 270000019174388625000000000000.0000      2.9320      0.5197      5.4400    -10.1685   -999.2500      5.4400    -39.7930    -29.0530      0.3500   -999.2500      0.7000      0.8500
   3702.5000      4.7660      2.9000      0.8500   -999.2500    219.4900      0.1500 49090916870222007100000000000.0000      0.5000 270000019174388625000000000000.0000      2.9000      0.5196      5.1170     -9.1777   -999.2500      5.1170    -38.8180    -26.2220      0.3500   -999.2500      0.7000      0.8500
   3703.0000      4.7450      2.8230      0.8500   -999.2500    217.9320      0.1500 49090916870222007100000000000.0000      0.5000 270000019174388625000000000000.0000      2.8230      0.5196      4.9920     -8.1509   -999.2500      4.9920    -37.8070    -23.2882      0.3500   -999.2500      0.7000      0.8500
   3703.5000      4.7240      2.7460      0.8500   -999.2500    214.3320      0.1500 49090916870222007100000000000.0000      0.5000 270000019174388625000000000000.0000      2.7460      0.5196      5.0350     -8.3841   -999.2500      5.0350    -38.0560    -23.9544      0.3500   -999.2500      0.7000      0.8500
   3704.0000      4.7760      2.8230      0.8500   -999.2500    212.6130      0.1500 49090916870222007100000000000.0000      0.5000 270000019174388625000000000000.0000      2.8230      0.5195      5.2110     -9.8442   -999.2500      5.2110    -39.5320    -28.1264      0.3500   -999.2500      0.7000      0.8500
   3704.5000      4.8360      2.9000      0.8500   -999.2500    210.9480      0.1500 49090916870222007100000000000.0000      0.5000 270000019174388625000000000000.0000      2.9000      0.5195      5.4510    -11.0514   -999.2500      5.4510    -40.7550    -31.5754      0.3500   -999.2500      0.7000      0.8500
   3705.0000      4.8950      3.0330      0.8500   -999.2500    210.5720      0.1500 49090916870222007100000000000.0000      0.5000 270000019174388625000000000000.0000      3.0330      0.5194      5.6880    -11.6826   -999.2500      5.6880    -41.4020    -33.3788      0.3500   -999.2500      0.7000      0.8500
   3705.5000      4.9930      3.1560      0.8500   -999.2500    213.6340      0.1500 49090916870222007100000000000.0000      0.5000 270000019174388625000000000000.0000      3.1560      0.5194      5.8820    -12.0247   -999.2500      5.8820    -41.7600    -34.3564      0.3500   -999.2500      0.7000      0.8500
   3706.0000      5.0340      3.2150      0.8500   -999.2500    214.6820      0.1500 49090916870222007100000000000.0000      0.5000 270000019174388625000000000000.0000      3.2150      0.5194      6.0550    -12.3679   -999.2500      6.0550    -42.1190    -35.3369      0.3500   -999.2500      0.7000      0.8500
   3706.5000      5.0510      3.2740      0.8500   -999.2500    215.7300      0.1500 49090916870222007100000000000.0000      0.5000 270000019174388625000000000000.0000      3.2740      0.5193      6.1120    -11.3761   -999.2500      6.1120    -41.1430    -32.5031      0.3500   -999.2500      0.7000      0.8500
   3707.0000      5.0730      3.3280      0.8500   -999.2500    217.1530      0.1500 49090916870222007100000000000.0000      0.5000 270000019174388625000000000000.0000      3.3280      0.5193      5.9040    -10.4213   -999.2500      5.9040    -40.2040    -29.7750      0.3500   -999.2500      0.7000      0.8500
   3707.5000      5.0950      3.3820      0.8500   -999.2500    218.5770      0.1500 49090916870222007100000000000.0000      0.5000 270000019174388625000000000000.0000      3.3820      0.5192      5.5960     -9.2854   -999.2500      5.5960    -39.0840    -26.5298      0.3500   -999.2500      0.7000      0.8500
   3708.0000      5.0830      3.3360      0.8500   -999.2500    218.2010      0.1500 49090916870222007100000000000.0000      0.5000 270000019174388625000000000000.0000      3.3360      0.5192      5.3560     -8.1866   -999.2500      5.3560    -38.0010    -23.3903      0.3500   -999.2500      0.7000      0.8500
   3708.5000      5.0700      3.1820      0.8500   -999.2500    217.8250      0.1500 49090916870222007100000000000.0000      0.5000 270000019174388625000000000000.0000      3.1820      0.5191      4.8820     -5.7188   -999.2500      4.8820    -35.5490    -16.3394      0.3500   -999.2500      0.7000      0.8500
   3709.0000      5.0160      3.0960      0.8500 -1000000015047466220000000000000.0000    215.8910      0.1500 49090916870222007100000000000.0000      0.5000 270000019174388625000000000000.0000      3.0960      0.5191      4.2220     -2.5290   -999.2500      4.2220    -32.3750     -7.2256      0.3500   -999.2500      0.7000      0.8500
   3709.5000      5.1450      2.8130      0.8500 -1000000166163193670000000000000.0000    213.9560      0.1500 49090916870222007100000000000.0000      0.5000 270000019174388625000000000000.0000      2.8130      0.5191      4.2410      0.0109   -999.2500      4.2410    -29.8510      0.0311      0.3500   -999.2500      0.7000      0.8500
   3710.0000      5.1670      2.5260      0.8500   -999.2500    212.6670      0.1500 49090916870222007100000000000.0000      0.5000 270000019174388625000000000000.0000      2.5260      0.5190      4.4630      1.1107   -999.2500      4.4630    -28.7670      3.1734      0.3500   -999.2500      0.7000      0.8500
   3710.5000      5.1600      2.5100      0.8500   -999.2500    212.1030      0.1500 49090916870222007100000000000.0000      0.5000 270000019174388625000000000000.0000      2.5100      0.5190      5.1160      0.5335   -999.2500      5.1160    -29.3600      1.5244      0.3500   -999.2500      0.7000      0.8500
   3711.0000      5.1530      2.4940      0.8500   -999.2500    211.5400      0.1500 49090916870222007100000000000.0000      0.5000 270000019174388625000000000000.0000      2.4940      0.5189      5.9310     -0.0436   -999.2500      5.9310    -29.9530     -0.1247      0.3500   -999.2500      0.7000      0.8500
   3711.5000      5.0830      2.4920      0.8500   -999.2500    210.4380      0.1500 49090916870222007100000000000.0000      0.5000 270000019174388625000000000000.0000      2.4920      0.5189      6.1710     -3.3758   -999.2500      6.1710    -33.3010     -9.6452      0.3500   -999.2500      0.7000      0.8500
   3712.0000      4.8550      2.4910      0.8500   -999.2500    209.3370      0.1500 49090916870222007100000000000.0000      0.5000 270000019174388625000000000000.0000      2.4910      0.5188      6.5130     -6.2770   -999.2500      6.5130    -36.2180    -17.9343      0.3500   -999.2500      0.7000      0.8500
   3712.5000      4.7240      2.5000      0.8500   -999.2500    208.9070      0.1500 49090916870222007100000000000.0000      0.5000 270000019174388625000000000000.0000      2.5000      0.5188      6.6530     -8.5652   -999.2500      6.6530    -38.5220    -24.4719      0.3500   -999.2500      0.7000      0.8500
   3713.0000      4.6730      2.5090      0.8500   -999.2500    208.4780      0.1500 49090916870222007100000000000.0000      0.5000 270000019174388625000000000000.0000      2.5090      0.5188      6.5920    -10.4213   -999.2500      6.5920    -40.3940    -29.7753      0.3500   -999.2500      0.7000      0.8500
   3713.5000      4.6220      2.5360      0.8500   -999.2500    209.5510      0.1500 49090916870222007100000000000.0000      0.5000 270000019174388625000000000000.0000      2.5360      0.5187      6.4310    -13.1065   -999.2500      6.4310    -43.0950    -37.4472      0.3500   -999.2500      0.7000      0.8500
   3714.0000      4.5930      2.5630      0.8500   -999.2500    210.1150      0.1500 49090916870222007100000000000.0000      0.5000 270000019174388625000000000000.0000      2.5630      0.5187      6.0250    -13.7727   -999.2500      6.0250    -43.7770    -39.3505      0.3500   -999.2500      0.7000      0.8500
