~V
VERS. 2.00: Ver 2.00
WRAP.   NO:        
~W
 STRT.FT 40:
 STOP.FT 4330:
 STEP.FT 0.5:
 NULL. -999.250000:
 COMP. Standard (Chevron):Company
 WELL. KCL 44-45:Well
 FLD. Pioneer:Field
 LOC. S32 T11N R22W:Location
 STAT. CA:State
 SRVC. :Service Company
 SON. :Service Order #
 DATE. :Log Date
 UWI. 0941000:Unique Well ID
~C
 DEPT.FT :
 BVES. :
 BVTS. :
 FACE. :
 GR.RE/T :
 GRS.RE/T :
 ILD.OHMM :
 LTHE. :
 MM. :
 NEUS.CPS :
 NEUT.CPS :
 PHES. :
 PHMX. :
 PHTS. :
 PHZC. :
 RD.OHMM :
 ROS. :
 RS.OHMM :
 SBL.MV :
 SCLN. :
 SN.OHMM :
 SP.MV :
 SPN. :
 STUS. :
 SWES. :
 SWTS. :
 VCDS. :
 VCLY. :
 VCWS. :
 VSHS. :
~P
~A
# ...
   2131.0000      0.2510      0.4047      3.0000   -999.2500   -999.2500      0.7762      0.7490      2.5635   -999.2500   -999.2500      0.2510      0.1691      0.4047      0.4701      0.7762      1.9489      1.1328    -14.7968    -67.9800      1.1328    -35.5636    -19.7291      1.4517      1.0000      1.0000      0.1537      0.3073      0.3073      0.7490
   2131.5000      0.3376      0.4255      2.0000   -999.2500   -999.2500      0.7587      0.6624      2.1425   -999.2500   -999.2500      0.3376      0.1756      0.4255      0.5056      0.7587      1.2653      1.1258    -23.7396    -67.9800      1.1258    -44.5129    -31.6528      1.2779      1.0000      1.0000      0.0879      0.1758      0.1758      0.5860
   2132.0000      0.3546      0.4295      2.0000   -999.2500   -999.2500      0.7419      0.6454      2.0592   -999.2500   -999.2500      0.3546      0.1768      0.4295      0.5127      0.7419      1.1682      1.1192    -25.5348    -67.9800      1.1192    -46.3146    -34.0464      1.2537      1.0000      1.0000      0.0749      0.1498      0.1498      0.4992
   2132.5000      0.3560      0.4298      2.0000   -999.2500   -999.2500      0.7299      0.6440      2.0523   -999.2500   -999.2500      0.3560      0.1770      0.4298      0.5132      0.7299      1.1606      1.1153    -25.9020    -67.9800      1.1153    -46.6884    -34.5361      1.2607      1.0000      1.0000      0.0738      0.1476      0.1476      0.4920
   2133.0000      0.3555      0.4297      2.0000   -999.2500   -999.2500      0.7180      0.6445      2.0547   -999.2500   -999.2500      0.3555      0.1769      0.4297      0.5130      0.7180      1.1632      1.1145    -25.7750    -67.9800      1.1145    -46.5679    -34.3667      1.2722      1.0000      1.0000      0.0742      0.1483      0.1483      0.4945
   2133.5000      0.3551      0.4296      2.0000   -999.2500   -999.2500      0.7106      0.6449      2.0569   -999.2500   -999.2500      0.3551      0.1769      0.4296      0.5128      0.7106      1.1656      1.1140    -25.6573    -67.9800      1.1140    -46.4567    -34.2097      1.2798      1.0000      1.0000      0.0745      0.1490      0.1490      0.4968
   2134.0000      0.3526      0.4290      2.0000   -999.2500   -999.2500      0.7070      0.6474      2.0688   -999.2500   -999.2500      0.3526      0.1767      0.4290      0.5118      0.7070      1.1788      1.1305    -25.3051    -67.9800      1.1305    -46.1111    -33.7401      1.2885      1.0000      1.0000      0.0764      0.1528      0.1528      0.5092
   2134.5000      0.3397      0.4259      2.0000   -999.2500   -999.2500      0.7032      0.6603      2.1321   -999.2500   -999.2500      0.3397      0.1757      0.4259      0.5065      0.7032      1.2524      1.1453    -23.9613    -67.9800      1.1453    -44.7739    -31.9484      1.3205      1.0000      1.0000      0.0863      0.1725      0.1725      0.5751
   2135.0000      0.3273      0.4230      3.0000   -999.2500   -999.2500      0.7093      0.6727      2.1921   -999.2500   -999.2500      0.3273      0.1748      0.4230      0.5014      0.7093      1.3278      1.1618    -22.6858    -67.9800      1.1618    -43.5049    -30.2477      1.3417      1.0000      1.0000      0.0956      0.1913      0.1913      0.6376
   2135.5000      0.3213      0.4215      3.0000   -999.2500   -999.2500      0.7157      0.6787      2.2214   -999.2500   -999.2500      0.3213      0.1743      0.4215      0.4989      0.7157      1.3666      1.1785    -22.0642    -67.9800      1.1785    -42.8898    -29.4189      1.3489      1.0000      1.0000      0.1002      0.2004      0.2004      0.6681
   2136.0000      0.3266      0.4228      3.0000   -999.2500   -999.2500      0.7315      0.6734      2.1956   -999.2500   -999.2500      0.3266      0.1747      0.4228      0.5011      0.7315      1.3323      1.1966    -22.6110    -67.9800      1.1966    -43.4431    -30.1480      1.3241      1.0000      1.0000      0.0962      0.1924      0.1924      0.6413
   2136.5000      0.3338      0.4245      3.0000   -999.2500   -999.2500      0.7484      0.6662      2.1602   -999.2500   -999.2500      0.3338      0.1753      0.4245      0.5040      0.7484      1.2870      1.2152    -23.3629    -67.9800      1.2152    -44.2017    -31.1506      1.2942      1.0000      1.0000      0.0907      0.1813      0.1813      0.6044
   2137.0000      0.3391      0.4257      2.0000   -999.2500   -999.2500      0.7676      0.6609      2.1342   -999.2500   -999.2500      0.3391      0.1757      0.4257      0.5062      0.7676      1.2549      1.2349    -23.9154    -67.9800      1.2349    -44.7607    -31.8872      1.2670      1.0000      1.0000      0.0866      0.1732      0.1732      0.5773
   2137.5000      0.2978      0.4159      3.0000   -999.2500   -999.2500      0.7858      0.7022      2.3354   -999.2500   -999.2500      0.2978      0.1726      0.4159      0.4892      0.7858      1.5324      1.2491    -19.6419    -67.9800      1.2491    -40.4937    -26.1892      1.3415      1.0000      1.0000      0.1180      0.2361      0.2361      0.7022
   2138.0000      0.2838      0.4125      3.0000   -999.2500   -999.2500      0.8029      0.7162      2.4035   -999.2500   -999.2500      0.2838      0.1715      0.4125      0.4835      0.8029      1.6437      1.2572    -18.1957    -67.9800      1.2572    -39.0541    -24.2610      1.3576      1.0000      1.0000      0.1287      0.2573      0.2573      0.7162
   2138.5000      0.2805      0.4117      3.0000   -999.2500   -999.2500      0.8201      0.7195      2.4198   -999.2500   -999.2500      0.2805      0.1713      0.4117      0.4821      0.8201      1.6719      1.2496    -17.8493    -67.9800      1.2496    -38.7142    -23.7991      1.3522      1.0000      1.0000      0.1312      0.2624      0.2624      0.7195
   2139.0000      0.2789      0.4113      3.0000   -999.2500   -999.2500      0.8347      0.7211      2.4274   -999.2500   -999.2500      0.2789      0.1712      0.4113      0.4814      0.8347      1.6853      1.2391    -17.6870    -67.9800      1.2391    -38.5584    -23.5826      1.3454      1.0000      1.0000      0.1324      0.2648      0.2648      0.7211
   2139.5000      0.2807      0.4117      3.0000   -999.2500   -999.2500      0.8453      0.7193      2.4187   -999.2500   -999.2500      0.2807      0.1713      0.4117      0.4822      0.8453      1.6698      1.2275    -17.8733    -67.9800      1.2275    -38.7513    -23.8310      1.3345      1.0000      1.0000      0.1310      0.2621      0.2621      0.7193
   2140.0000      0.3002      0.4164      3.0000   -999.2500   -999.2500      0.8448      0.6998      2.3237   -999.2500   -999.2500      0.3002      0.1728      0.4164      0.4902      0.8448      1.5142      1.2200    -19.8895    -67.9800      1.2200    -40.7741    -26.5194      1.2944      1.0000      1.0000      0.1162      0.2324      0.2324      0.6998
   2140.5000      0.3243      0.4221      3.0000   -999.2500   -999.2500      0.8394      0.6757      2.2064   -999.2500   -999.2500      0.3243      0.1746      0.4221      0.5001      0.8394      1.3462      1.2134    -22.3834    -67.9800      1.2134    -43.2745    -29.8446      1.2463      1.0000      1.0000      0.0979      0.1957      0.1957      0.6524
   2141.0000      0.3292      0.4233      3.0000   -999.2500   -999.2500      0.8310      0.6708      2.1821   -999.2500   -999.2500      0.3292      0.1749      0.4233      0.5021      0.8310      1.3145      1.2050    -22.8988    -67.9800      1.2050    -43.7964    -30.5318      1.2412      1.0000      1.0000      0.0941      0.1882      0.1882      0.6272
   2141.5000      0.3154      0.4200      3.0000   -999.2500   -999.2500      0.8199      0.6846      2.2495   -999.2500   -999.2500      0.3154      0.1739      0.4200      0.4964      0.8199      1.4050      1.1934    -21.4659    -67.9800      1.1934    -42.3700    -28.6211      1.2792      1.0000      1.0000      0.1046      0.2092      0.2092      0.6846
   2142.0000      0.2959      0.4153      3.0000   -999.2500   -999.2500      0.8151      0.7041      2.3444   -999.2500   -999.2500      0.2959      0.1724      0.4153      0.4884      0.8151      1.5463      1.1813    -19.4509    -67.9800      1.1813    -40.3616    -25.9346      1.3239      1.0000      1.0000      0.1194      0.2389      0.2389      0.7041
