~V
VERS. 2.00: Ver 2.00
WRAP.   NO:        
~W
 STRT.FT 29:
 STOP.FT 4770:
 STEP.FT 0.5:
 NULL. -999.250000:
 COMP. Standard (Chevron):Company
 WELL. KCL 44-32:Well
 FLD. Pioneer:Field
 LOC. S32 T11N R22W:Location
 STAT. CA:State
 SRVC. :Service Company
 SON. :Service Order #
 DATE. :Log Date
 UWI. 0940700:Unique Well ID
~C
 DEPT.FT :
 BVES. :
 BVTS. :
 FACE. :
 GRS.RE/T :
 ILD.OHMM :
 LTHE. :
 MM. :
 NEUT.CPS :
 PHES. :
 PHMX. :
 PHTS. :
 PHZC. :
 RD.OHMM :
 ROS. :
 RS.OHMM :
 SBL.MV :
 SCLN. :
 SN.OHMM :
 SP.MV :
 SPN. :
 STUS. :
 SWES. :
 SWTS. :
 VCDS. :
 VCLY. :
 VCWS. :
 VSHS. :
~P
~A
# ...
   3613.0000      0.0100      0.3600      4.0000      4.8434      1.6800      0.8500   -999.2500    213.1280      0.1500 49090916870222007100000000000.0000      0.5000 270000019174388625000000000000.0000      1.6800      0.5273   -999.2500   -999.2500   -999.2500   -999.2500   -999.2500   -999.2500      0.4938      0.0667      0.7200      0.3500   -999.2500      0.7000      0.8500
   3613.5000      0.0100      0.3600      4.0000      4.7685      1.6340      0.8500   -999.2500    211.0450      0.1500 49090916870222007100000000000.0000      0.5000 270000019174388625000000000000.0000      1.6340      0.5272   -999.2500   -999.2500   -999.2500   -999.2500   -999.2500   -999.2500      0.5027      0.0667      0.7200      0.3500   -999.2500      0.7000      0.8500
   3614.0000      0.0100      0.3600      4.0000      4.6957      1.6170      0.8500   -999.2500    207.6200      0.1500 49090916870222007100000000000.0000      0.5000 270000019174388625000000000000.0000      1.6170      0.5272   -999.2500   -999.2500   -999.2500   -999.2500   -999.2500   -999.2500      0.5060      0.0667      0.7200      0.3500   -999.2500      0.7000      0.8500
   3614.5000      0.0100      0.3600      4.0000      4.6278      1.6430      0.8500   -999.2500    206.0720      0.1500 49090916870222007100000000000.0000      0.5000 270000019174388625000000000000.0000      1.6430      0.5271   -999.2500   -999.2500   -999.2500   -999.2500   -999.2500   -999.2500      0.5008      0.0667      0.7200      0.3500   -999.2500      0.7000      0.8500
   3615.0000      0.0100      0.3600      4.0000      4.5816      1.6650      0.8500   -999.2500    202.3240      0.1500 49090916870222007100000000000.0000      0.5000 270000019174388625000000000000.0000      1.6650      0.5271   -999.2500   -999.2500   -999.2500   -999.2500   -999.2500   -999.2500      0.4966      0.0667      0.7200      0.3500   -999.2500      0.7000      0.8500
   3615.5000      0.0100      0.3600      4.0000      4.5963      1.6910      0.8500   -999.2500    200.7240      0.1500 49090916870222007100000000000.0000      0.5000 270000019174388625000000000000.0000      1.6910      0.5270   -999.2500   -999.2500   -999.2500   -999.2500   -999.2500   -999.2500      0.4916      0.0667      0.7200      0.3500   -999.2500      0.7000      0.8500
   3616.0000      0.0100      0.3600      4.0000      4.6215      1.7270      0.8500   -999.2500    199.5530      0.1500 49090916870222007100000000000.0000      0.5000 270000019174388625000000000000.0000      1.7270      0.5270   -999.2500   -999.2500   -999.2500   -999.2500   -999.2500   -999.2500      0.4850      0.0667      0.7200      0.3500   -999.2500      0.7000      0.8500
   3616.5000      0.0100      0.3600      4.0000      4.6488      1.7630      0.8500   -999.2500    200.2620      0.1500 49090916870222007100000000000.0000      0.5000 270000019174388625000000000000.0000      1.7630      0.5270   -999.2500   -999.2500   -999.2500   -999.2500   -999.2500   -999.2500      0.4786      0.0667      0.7200      0.3500   -999.2500      0.7000      0.8500
   3617.0000      0.0100      0.3600      4.0000      4.6761      1.8360      0.8500   -999.2500    202.4200      0.1500 49090916870222007100000000000.0000      0.5000 270000019174388625000000000000.0000      1.8360      0.5269   -999.2500   -999.2500   -999.2500   -999.2500   -999.2500   -999.2500      0.4661      0.0667      0.7200      0.3500   -999.2500      0.7000      0.8500
   3617.5000      0.0100      0.3600      4.0000      4.7405      1.9300      0.8500   -999.2500    203.9350      0.1500 49090916870222007100000000000.0000      0.5000 270000019174388625000000000000.0000      1.9300      0.5269   -999.2500   -999.2500   -999.2500   -999.2500   -999.2500   -999.2500      0.4513      0.0667      0.7200      0.3500   -999.2500      0.7000      0.8500
   3618.0000      0.0100      0.3600      4.0000      4.7692      1.9770      0.8500   -999.2500    205.4490      0.1500 49090916870222007100000000000.0000      0.5000 270000019174388625000000000000.0000      1.9770      0.5268   -999.2500   -999.2500   -999.2500   -999.2500   -999.2500   -999.2500      0.4442      0.0667      0.7200      0.3500   -999.2500      0.7000      0.8500
   3618.5000      0.0100      0.3600      4.0000      4.8035      2.0530      0.8500   -999.2500    206.4260      0.1500 49090916870222007100000000000.0000      0.5000 270000019174388625000000000000.0000      2.0530      0.5268   -999.2500   -999.2500   -999.2500   -999.2500   -999.2500   -999.2500      0.4334      0.0667      0.7200      0.3500   -999.2500      0.7000      0.8500
   3619.0000      0.0100      0.3600      4.0000      4.8238      2.1650      0.8500   -999.2500    207.4020      0.1500 49090916870222007100000000000.0000      0.5000 270000019174388625000000000000.0000      2.1650      0.5267   -999.2500   -999.2500   -999.2500   -999.2500   -999.2500   -999.2500      0.4185      0.0667      0.7200      0.3500   -999.2500      0.7000      0.8500
   3619.5000      0.0100      0.3600      4.0000      4.8434      2.2330      0.8500   -999.2500    209.0260      0.1500 49090916870222007100000000000.0000      0.5000 270000019174388625000000000000.0000      2.2330      0.5267   -999.2500   -999.2500   -999.2500   -999.2500   -999.2500   -999.2500      0.4100      0.0667      0.7200      0.3500   -999.2500      0.7000      0.8500
   3620.0000      0.0100      0.3600      4.0000      4.8315      2.3520      0.8500   -999.2500    209.7340      0.1500 49090916870222007100000000000.0000      0.5000 270000019174388625000000000000.0000      2.3520      0.5267   -999.2500   -999.2500   -999.2500   -999.2500   -999.2500   -999.2500      0.3961      0.0667      0.7200      0.3500   -999.2500      0.7000      0.8500
   3620.5000      0.0100      0.3600      4.0000      4.7762      2.4710      0.8500   -999.2500    210.6120      0.1500 49090916870222007100000000000.0000      0.5000 270000019174388625000000000000.0000      2.4710      0.5266   -999.2500   -999.2500   -999.2500   -999.2500   -999.2500   -999.2500      0.3833      0.0667      0.7200      0.3500   -999.2500      0.7000      0.8500
   3621.0000      0.0100      0.3600      4.0000      4.7783      2.5080      0.8500   -999.2500    211.0020      0.1500 49090916870222007100000000000.0000      0.5000 270000019174388625000000000000.0000      2.5080      0.5266   -999.2500   -999.2500   -999.2500   -999.2500   -999.2500   -999.2500      0.3794      0.0667      0.7200      0.3500   -999.2500      0.7000      0.8500
   3621.5000      0.0100      0.3600      4.0000      4.8035      2.5520      0.8500   -999.2500    211.6090      0.1500 49090916870222007100000000000.0000      0.5000 270000019174388625000000000000.0000      2.5520      0.5265   -999.2500   -999.2500   -999.2500   -999.2500   -999.2500   -999.2500      0.3750      0.0667      0.7200      0.3500   -999.2500      0.7000      0.8500
   3622.0000      0.0100      0.3600      4.0000      4.8287      2.5180      0.8500   -999.2500    212.2950      0.1500 49090916870222007100000000000.0000      0.5000 270000019174388625000000000000.0000      2.5180      0.5265   -999.2500   -999.2500   -999.2500   -999.2500   -999.2500   -999.2500      0.3784      0.0667      0.7200      0.3500   -999.2500      0.7000      0.8500
   3622.5000      0.0100      0.3600      4.0000      4.8504      2.4110      0.8500   -999.2500    212.9810      0.1500 49090916870222007100000000000.0000      0.5000 270000019174388625000000000000.0000      2.4110      0.5264   -999.2500   -999.2500   -999.2500   -999.2500   -999.2500   -999.2500      0.3895      0.0667      0.7200      0.3500   -999.2500      0.7000      0.8500
   3623.0000      0.0100      0.3600      4.0000      4.8133      2.3090      0.8500 -1000000015047466220000000000000.0000    214.1280      0.1500 49090916870222007100000000000.0000      0.5000 270000019174388625000000000000.0000      2.3090      0.5264   -999.2500   -999.2500   -999.2500   -999.2500   -999.2500   -999.2500      0.4008      0.0667      0.7200      0.3500   -999.2500      0.7000      0.8500
