~V
VERS. 2.00: Ver 2.00
WRAP.   NO:        
~W
 STRT.FT 40:
 STOP.FT 4330:
 STEP.FT 0.5:
 NULL. -999.250000:
 COMP. Standard (Chevron):Company
 WELL. KCL 44-45:Well
 FLD. Pioneer:Field
 LOC. S32 T11N R22W:Location
 STAT. CA:State
 SRVC. :Service Company
 SON. :Service Order #
 DATE. :Log Date
 UWI. 0941000:Unique Well ID
~C
 DEPT.FT :
 BVES. :
 BVTS. :
 FACE. :
 GR.RE/T :
 GRS.RE/T :
 ILD.OHMM :
 LTHE. :
 MM. :
 NEUS.CPS :
 NEUT.CPS :
 PHES. :
 PHMX. :
 PHTS. :
 PHZC. :
 RD.OHMM :
 ROS. :
 RS.OHMM :
 SBL.MV :
 SCLN. :
 SN.OHMM :
 SP.MV :
 SPN. :
 STUS. :
 SWES. :
 SWTS. :
 VCDS. :
 VCLY. :
 VCWS. :
 VSHS. :
~P
~A
# ...
   1832.0000      0.3720      0.4392      2.0000   -999.2500   -999.2500      0.9566      0.6280      2.0102   -999.2500   -999.2500      0.3720      0.1788      0.4392      0.5234      0.9566      1.1308      1.3987    -28.1391    -67.9800      1.3987    -44.9918    -37.5188      1.0868      1.0000      1.0000      0.0672      0.1344      0.1344      0.4481
   1832.5000      0.3691      0.4385      2.0000   -999.2500   -999.2500      0.9631      0.6309      2.0243   -999.2500   -999.2500      0.3691      0.1786      0.4385      0.5222      0.9631      1.1458      1.4022    -27.3885    -67.9800      1.4022    -44.2478    -36.5180      1.0895      1.0000      1.0000      0.0694      0.1388      0.1388      0.4628
   1833.0000      0.3668      0.4379      2.0000   -999.2500   -999.2500      0.9657      0.6332      2.0352   -999.2500   -999.2500      0.3668      0.1784      0.4379      0.5213      0.9657      1.1575      1.3967    -26.8099    -67.9800      1.3967    -43.6758    -35.7466      1.0928      1.0000      1.0000      0.0711      0.1422      0.1422      0.4742
   1833.5000      0.3682      0.4383      2.0000   -999.2500   -999.2500      0.9674      0.6318      2.0282   -999.2500   -999.2500      0.3682      0.1785      0.4383      0.5218      0.9674      1.1500      1.3801    -27.1811    -67.9800      1.3801    -44.0534    -36.2414      1.0888      1.0000      1.0000      0.0700      0.1401      0.1401      0.4669
   1834.0000      0.3707      0.4388      2.0000   -999.2500   -999.2500      0.9694      0.6293      2.0162   -999.2500   -999.2500      0.3707      0.1787      0.4388      0.5228      0.9694      1.1371      1.3468    -27.8201    -67.9800      1.3468    -44.6990    -37.0934      1.0823      1.0000      1.0000      0.0682      0.1363      0.1363      0.4543
   1834.5000      0.3731      0.4394      2.0000   -999.2500   -999.2500      0.9661      0.6269      2.0043   -999.2500   -999.2500      0.3731      0.1789      0.4394      0.5238      0.9661      1.1245      1.3200    -28.4529    -67.9800      1.3200    -45.3384    -37.9372      1.0807      1.0000      1.0000      0.0663      0.1326      0.1326      0.4419
   1835.0000      0.3754      0.4399      2.0000   -999.2500   -999.2500      0.9621      0.6246      1.9930   -999.2500   -999.2500      0.3754      0.1791      0.4399      0.5248      0.9621      1.1128      1.3587    -29.0495    -67.9800      1.3587    -45.9415    -38.7326      1.0771      1.0000      1.0000      0.0645      0.1291      0.1291      0.4302
   1835.5000      0.3777      0.4405      2.0000   -999.2500   -999.2500      0.9556      0.6223      1.9817   -999.2500   -999.2500      0.3777      0.1792      0.4405      0.5257      0.9556      1.1011      1.4084    -29.6504    -67.9800      1.4084    -46.5490    -39.5339      1.0744      1.0000      1.0000      0.0628      0.1255      0.1255      0.4184
   1836.0000      0.3794      0.4408      2.0000   -999.2500   -999.2500      0.9523      0.6206      1.9734   -999.2500   -999.2500      0.3794      0.1793      0.4408      0.5264      0.9523      1.0927      1.4555    -30.0894    -67.9800      1.4555    -46.9945    -40.1192      1.0725      1.0000      1.0000      0.0615      0.1230      0.1230      0.4098
   1836.5000      0.3809      0.4412      2.0000   -999.2500   -999.2500      0.9518      0.6191      1.9660   -999.2500   -999.2500      0.3809      0.1795      0.4412      0.5270      0.9518      1.0852      1.4916    -30.4860    -67.9800      1.4916    -47.3977    -40.6481      1.0694      1.0000      1.0000      0.0603      0.1206      0.1206      0.4021
   1837.0000      0.3819      0.4414      2.0000   -999.2500   -999.2500      0.9764      0.6181      1.9609   -999.2500   -999.2500      0.3819      0.1795      0.4414      0.5274      0.9764      1.0801      1.5101    -30.7565    -67.9800      1.5101    -47.6747    -41.0086      1.0531      1.0000      1.0000      0.0595      0.1190      0.1190      0.3968
   1837.5000      0.3825      0.4415      2.0000   -999.2500   -999.2500      0.9970      0.6175      1.9580   -999.2500   -999.2500      0.3825      0.1796      0.4415      0.5277      0.9970      1.0773      1.4899    -30.9072    -67.9800      1.4899    -47.8319    -41.2096      1.0406      1.0000      1.0000      0.0591      0.1181      0.1181      0.3938
   1838.0000      0.3828      0.4416      2.0000   -999.2500   -999.2500      1.0183      0.6172      1.9562   -999.2500   -999.2500      0.3828      0.1796      0.4416      0.5278      1.0183      1.0754      1.4747    -31.0048    -67.9800      1.4747    -47.9360    -41.3397      1.0285      1.0000      1.0000      0.0588      0.1176      0.1176      0.3919
   1838.5000      0.3831      0.4417      2.0000   -999.2500   -999.2500      1.0391      0.6169      1.9550   -999.2500   -999.2500      0.3831      0.1796      0.4417      0.5279      1.0391      1.0742      1.4725    -31.0679    -67.9800      1.4725    -48.0057    -41.4238      1.0172      1.0000      1.0000      0.0586      0.1172      0.1172      0.3906
   1839.0000      0.3829      0.4416      2.0000   -999.2500   -999.2500      1.0649      0.6171      1.9560   -999.2500   -999.2500      0.3829      0.1796      0.4416      0.5278      1.0649      1.0751      1.5574    -31.0164    -67.9800      1.5574    -47.9608    -41.3552      1.0049      1.0000      1.0000      0.0587      0.1175      0.1175      0.3917
   1839.5000      0.3797      0.4386      2.0000   -999.2500   -999.2500      1.0900      0.6173      1.9568   -999.2500   -999.2500      0.3827      0.1796      0.4416      0.5277      1.0900      1.0759      1.6282    -30.9752    -67.9800      1.6282    -47.9261    -41.3002      0.9932      0.9922      0.9932      0.0589      0.1177      0.1177      0.3925
   1840.0000      0.3725      0.4319      2.0000   -999.2500   -999.2500      1.1250      0.6179      1.9597   -999.2500   -999.2500      0.3821      0.1795      0.4414      0.5275      1.1250      1.0787      1.7404    -30.8211    -67.9800      1.7404    -47.7786    -41.0948      0.9784      0.9750      0.9784      0.0593      0.1186      0.1186      0.3955
   1840.5000      0.3633      0.4238      2.0000   -999.2500   -999.2500      1.1727      0.6195      1.9672   -999.2500   -999.2500      0.3805      0.1794      0.4410      0.5268      1.1727      1.0862      1.8425    -30.4206    -67.9800      1.8425    -47.3846    -40.5608      0.9610      0.9548      0.9610      0.0605      0.1210      0.1210      0.4033
   1841.0000      0.3547      0.4170      2.0000   -999.2500   -999.2500      1.2208      0.6219      1.9789   -999.2500   -999.2500      0.3781      0.1792      0.4405      0.5258      1.2208      1.0980      1.9367    -29.7991    -67.9800      1.9367    -46.7697    -39.7322      0.9467      0.9379      0.9467      0.0623      0.1247      0.1247      0.4155
   1841.5000      0.3468      0.4109      2.0000   -999.2500   -999.2500      1.2678      0.6242      1.9902   -999.2500   -999.2500      0.3758      0.1791      0.4399      0.5249      1.2678      1.1095      2.0259    -29.1995    -67.9800      2.0259    -46.1766    -38.9327      0.9340      0.9228      0.9340      0.0641      0.1282      0.1282      0.4273
   1842.0000      0.3388      0.4034      2.0000   -999.2500   -999.2500      1.3170      0.6248      1.9931   -999.2500   -999.2500      0.3752      0.1790      0.4398      0.5246      1.3170      1.1124      2.1111    -29.0469    -67.9800      2.1111    -46.0305    -38.7292      0.9173      0.9030      0.9173      0.0645      0.1291      0.1291      0.4303
   1842.5000      0.3319      0.3964      2.0000   -999.2500   -999.2500      1.3622      0.6248      1.9931   -999.2500   -999.2500      0.3752      0.1790      0.4397      0.5246      1.3622      1.1124      2.1833    -29.0448    -67.9800      2.1833    -46.0350    -38.7264      0.9015      0.8846      0.9015      0.0645      0.1291      0.1291      0.4303
   1843.0000      0.3252      0.3897      2.0000   -999.2500   -999.2500      1.4081      0.6248      1.9932   -999.2500   -999.2500      0.3752      0.1790      0.4397      0.5246      1.4081      1.1125      2.1829    -29.0417    -67.9800      2.1829    -46.0385    -38.7223      0.8863      0.8668      0.8863      0.0646      0.1291      0.1291      0.4304
