~V
VERS. 2.00: Ver 2.00
WRAP.   NO:        
~W
 STRT.FT 35:
 STOP.FT 5500:
 STEP.FT 0.5:
 NULL. -999.250000:
 COMP. Standard (Chevron):Company
 WELL. KCL 45-56:Well
 FLD. :Field
 LOC. S30 T11N R22W:Location
 STAT. CA:State
 SRVC. :Service Company
 SON. :Service Order #
 DATE. :Log Date
 UWI. 0369100:Unique Well ID
~C
 DEPT.FT :
 BVES. :
 BVTS. :
 ILD.OHMM :
 LLD.OHMM :
 LTHE. :
 MM. :
 PHES. :
 PHMX. :
 PHTS. :
 PHZC. :
 RD.OHMM :
 ROS. :
 RS.OHMM :
 SBL.MV :
 SCLN. :
 SN.OHMM :
 SP.MV :
 SPN. :
 STUS. :
 SWES. :
 SWTS. :
 VCDS. :
 VCLY. :
 VCWS. :
 VSHS. :
~P
~A
# ...
   2115.0000      0.1902      0.3900   -999.2500      1.1480      0.8098      2.7229      0.1902      0.1646      0.3900      0.4456      1.1480      2.3960   -999.2500     -8.3592    -50.0000   -999.2500    -15.5440     -8.3592      1.3253      1.0000      1.0000      0.1998      0.3996      0.3996      0.8098
   2115.5000      0.1931      0.3907   -999.2500      1.0140      0.8069      2.7209      0.1931      0.1649      0.3907      0.4467      1.0140      2.3843   -999.2500     -8.6477    -50.0000   -999.2500    -15.8330     -8.6477      1.3873      1.0000      1.0000      0.1976      0.3953      0.3953      0.8069
   2116.0000      0.1903      0.3900   -999.2500      0.9640      0.8097      2.7229      0.1903      0.1647      0.3900      0.4456      0.9640      2.3957   -999.2500     -8.3652    -50.0000   -999.2500    -15.5510     -8.3652      1.4168      1.0000      1.0000      0.1998      0.3995      0.3995      0.8097
   2116.5000      0.1878      0.3894   -999.2500      1.0460      0.8122      2.7246      0.1878      0.1645      0.3894      0.4446      1.0460      2.4058   -999.2500     -8.1167    -50.0000   -999.2500    -15.3030     -8.1167      1.3753      1.0000      1.0000      0.2016      0.4032      0.4032      0.8122
   2117.0000      0.1856      0.3889   -999.2500      1.3110      0.8144      2.7260      0.1856      0.1643      0.3889      0.4437      1.3110      2.4144   -999.2500     -7.9053    -50.0000   -999.2500    -15.0920     -7.9053      1.2632      1.0000      1.0000      0.2032      0.4064      0.4064      0.8144
   2117.5000      0.1846      0.3886   -999.2500      1.5830      0.8154      2.7268      0.1846      0.1642      0.3886      0.4433      1.5830      2.4187   -999.2500     -7.8008    -50.0000   -999.2500    -14.9880     -7.8008      1.1760      1.0000      1.0000      0.2040      0.4080      0.4080      0.8154
   2118.0000      0.1843      0.3885   -999.2500      1.7010      0.8157      2.7270      0.1843      0.1642      0.3885      0.4431      1.7010      2.4200   -999.2500     -7.7683    -50.0000   -999.2500    -14.9560     -7.7683      1.1443      1.0000      1.0000      0.2042      0.4085      0.4085      0.8157
   2118.5000      0.1871      0.3892   -999.2500      1.7550      0.8129      2.7250      0.1871      0.1644      0.3892      0.4443      1.7550      2.4080   -999.2500     -8.0578    -50.0000   -999.2500    -15.2460     -8.0578      1.1287      1.0000      1.0000      0.2021      0.4041      0.4041      0.8129
   2119.0000      0.1893      0.3897   -999.2500      1.7650      0.8107      2.7235      0.1893      0.1646      0.3897      0.4452      1.7650      2.3990   -999.2500     -8.2763    -50.0000   -999.2500    -15.4650     -8.2763      1.1246      1.0000      1.0000      0.2004      0.4009      0.4009      0.8107
   2119.5000      0.1915      0.3903   -999.2500      1.7180      0.8085      2.7220      0.1915      0.1647      0.3903      0.4460      1.7180      2.3902   -999.2500     -8.4938    -50.0000   -999.2500    -15.6830     -8.4938      1.1348      1.0000      1.0000      0.1988      0.3976      0.3976      0.8085
   2120.0000      0.1947      0.3910   -999.2500      1.5420      0.8053      2.7197      0.1947      0.1650      0.3910      0.4473      1.5420      2.3770   -999.2500     -8.8194    -50.0000   -999.2500    -16.0090     -8.8194      1.1803      1.0000      1.0000      0.1964      0.3927      0.3927      0.8053
   2120.5000      0.1976      0.3917   -999.2500      1.1870      0.8024      2.7177      0.1976      0.1652      0.3917      0.4485      1.1870      2.3653   -999.2500     -9.1109    -50.0000   -999.2500    -16.3010     -9.1109      1.3025      1.0000      1.0000      0.1942      0.3883      0.3883      0.8024
   2121.0000      0.1937      0.3908   -999.2500      1.1070      0.8063      2.7204      0.1937      0.1649      0.3908      0.4469      1.1070      2.3808   -999.2500     -8.7224    -50.0000   -999.2500    -15.9130     -8.7224      1.3409      1.0000      1.0000      0.1971      0.3942      0.3942      0.8063
   2121.5000      0.1898      0.3898   -999.2500      1.0890      0.8102      2.7231      0.1898      0.1646      0.3898      0.4453      1.0890      2.3965   -999.2500     -8.3329    -50.0000   -999.2500    -15.5240     -8.3329      1.3525      1.0000      1.0000      0.2000      0.4000      0.4000      0.8102
   2122.0000      0.1866      0.3890   -999.2500      1.2210      0.8134      2.7253      0.1866      0.1644      0.3890      0.4440      1.2210      2.4094   -999.2500     -8.0154    -50.0000   -999.2500    -15.2070     -8.0154      1.2971      1.0000      1.0000      0.2024      0.4048      0.4048      0.8134
   2122.5000      0.1870      0.3891   -999.2500      1.2520      0.8130      2.7250      0.1870      0.1644      0.3891      0.4442      1.2520      2.4077   -999.2500     -8.0559    -50.0000   -999.2500    -15.2480     -8.0559      1.2844      1.0000      1.0000      0.2021      0.4042      0.4042      0.8130
   2123.0000      0.1892      0.3896   -999.2500      1.2820      0.8108      2.7235      0.1892      0.1646      0.3896      0.4451      1.2820      2.3987   -999.2500     -8.2755    -50.0000   -999.2500    -15.4680     -8.2755      1.2711      1.0000      1.0000      0.2004      0.4009      0.4009      0.8108
   2123.5000      0.1924      0.3904   -999.2500      1.3210      0.8076      2.7212      0.1924      0.1648      0.3904      0.4464      1.3210      2.3854   -999.2500     -8.6030    -50.0000   -999.2500    -15.7960     -8.6030      1.2540      1.0000      1.0000      0.1980      0.3960      0.3960      0.8076
   2124.0000      0.1993      0.3921   -999.2500      1.2810      0.8007      2.7165      0.1993      0.1653      0.3921      0.4491      1.2810      2.3580   -999.2500     -9.2885    -50.0000   -999.2500    -16.4820     -9.2885      1.2636      1.0000      1.0000      0.1928      0.3857      0.3857      0.8007
   2124.5000      0.2007      0.3925   -999.2500      1.2450      0.7993      2.7154      0.2007      0.1654      0.3925      0.4497      1.2450      2.3521   -999.2500     -9.4360    -50.0000   -999.2500    -16.6300     -9.4360      1.2763      1.0000      1.0000      0.1917      0.3835      0.3835      0.7993
   2125.0000      0.1975      0.3917   -999.2500      1.1940      0.8025      2.7176      0.1975      0.1652      0.3917      0.4484      1.1940      2.3647   -999.2500     -9.1185    -50.0000   -999.2500    -16.3130     -9.1185      1.2994      1.0000      1.0000      0.1941      0.3882      0.3882      0.8025
   2125.5000      0.1929      0.3905   -999.2500      1.1720      0.8071      2.7208      0.1929      0.1648      0.3905      0.4466      1.1720      2.3830   -999.2500     -8.6580    -50.0000   -999.2500    -15.8530     -8.6580      1.3124      1.0000      1.0000      0.1976      0.3951      0.3951      0.8071
   2126.0000      0.1908      0.3900   -999.2500      1.1430      0.8092      2.7223      0.1908      0.1647      0.3900      0.4457      1.1430      2.3914   -999.2500     -8.4485    -50.0000   -999.2500    -15.6440     -8.4485      1.3267      1.0000      1.0000      0.1991      0.3983      0.3983      0.8092
   2126.5000      0.1959      0.3912   -999.2500      1.1320      0.8041      2.7188      0.1959      0.1650      0.3912      0.4477      1.1320      2.3711   -999.2500     -8.9541    -50.0000   -999.2500    -16.1500     -8.9541      1.3275      1.0000      1.0000      0.1953      0.3907      0.3907      0.8041
   2127.0000      0.1995      0.3921   -999.2500      1.1460      0.8005      2.7163      0.1995      0.1653      0.3921      0.4492      1.1460      2.3566   -999.2500     -9.3176    -50.0000   -999.2500    -16.5140     -9.3176      1.3184      1.0000      1.0000      0.1926      0.3852      0.3852      0.8005
   2127.5000      0.1917      0.3902   -999.2500      1.1670      0.8083      2.7217      0.1917      0.1647      0.3902      0.4460      1.1670      2.3878   -999.2500     -8.5341    -50.0000   -999.2500    -15.7310     -8.5341      1.3155      1.0000      1.0000      0.1985      0.3970      0.3970      0.8083
