~V
VERS. 2.00: Ver 2.00
WRAP.   NO:        
~W
 STRT.FT 29:
 STOP.FT 4770:
 STEP.FT 0.5:
 NULL. -999.250000:
 COMP. Standard (Chevron):Company
 WELL. KCL 44-32:Well
 FLD. Pioneer:Field
 LOC. S32 T11N R22W:Location
 STAT. CA:State
 SRVC. :Service Company
 SON. :Service Order #
 DATE. :Log Date
 UWI. 0940700:Unique Well ID
~C
 DEPT.FT :
 BVES. :
 BVTS. :
 FACE. :
 GRS.RE/T :
 ILD.OHMM :
 LTHE. :
 MM. :
 NEUT.CPS :
 PHES. :
 PHMX. :
 PHTS. :
 PHZC. :
 RD.OHMM :
 ROS. :
 RS.OHMM :
 SBL.MV :
 SCLN. :
 SN.OHMM :
 SP.MV :
 SPN. :
 STUS. :
 SWES. :
 SWTS. :
 VCDS. :
 VCLY. :
 VCWS. :
 VSHS. :
~P
~A
# ...
   4180.0000      0.0100      0.3600      4.0000      7.5258      2.1620      0.8500   -999.2500    193.0870      0.1500 49090916870222007100000000000.0000      0.5000 270000019174388625000000000000.0000      2.1620      0.4825   -999.2500   -999.2500   -999.2500   -999.2500   -999.2500   -999.2500      0.3894      0.0667      0.7200      0.3500   -999.2500      0.7000      0.8500
   4180.5000      0.0100      0.3600      4.0000      7.5370      2.1730      0.8500   -999.2500    192.3920      0.1500 49090916870222007100000000000.0000      0.5000 270000019174388625000000000000.0000      2.1730      0.4824   -999.2500   -999.2500   -999.2500   -999.2500   -999.2500   -999.2500      0.3881      0.0667      0.7200      0.3500   -999.2500      0.7000      0.8500
   4181.0000      0.0100      0.3600      4.0000      7.5531      2.1910      0.8500   -999.2500    192.5040      0.1500 49090916870222007100000000000.0000      0.5000 270000019174388625000000000000.0000      2.1910      0.4824   -999.2500   -999.2500   -999.2500   -999.2500   -999.2500   -999.2500      0.3859      0.0667      0.7200      0.3500   -999.2500      0.7000      0.8500
   4181.5000      0.0100      0.3600      4.0000      7.5601      2.2020      0.8500   -999.2500    192.5060      0.1500 49090916870222007100000000000.0000      0.5000 270000019174388625000000000000.0000      2.2020      0.4824   -999.2500   -999.2500   -999.2500   -999.2500   -999.2500   -999.2500      0.3845      0.0667      0.7200      0.3500   -999.2500      0.7000      0.8500
   4182.0000      0.0100      0.3600      4.0000      7.5587      2.1670      0.8500   -999.2500    192.5070      0.1500 49090916870222007100000000000.0000      0.5000 270000019174388625000000000000.0000      2.1670      0.4823   -999.2500   -999.2500   -999.2500   -999.2500   -999.2500   -999.2500      0.3887      0.0667      0.7200      0.3500   -999.2500      0.7000      0.8500
   4182.5000      0.0100      0.3600      4.0000      7.5314      2.1130      0.8500   -999.2500    192.2960      0.1500 49090916870222007100000000000.0000      0.5000 270000019174388625000000000000.0000      2.1130      0.4823   -999.2500   -999.2500   -999.2500   -999.2500   -999.2500   -999.2500      0.3954      0.0667      0.7200      0.3500   -999.2500      0.7000      0.8500
   4183.0000      0.0100      0.3600      4.0000      7.5195      2.0240      0.8500   -999.2500    192.1910      0.1500 49090916870222007100000000000.0000      0.5000 270000019174388625000000000000.0000      2.0240      0.4823   -999.2500   -999.2500   -999.2500   -999.2500   -999.2500   -999.2500      0.4070      0.0667      0.7200      0.3500   -999.2500      0.7000      0.8500
   4183.5000      0.0100      0.3600      4.0000      7.5013      1.9240      0.8500   -999.2500    191.9510      0.1500 49090916870222007100000000000.0000      0.5000 270000019174388625000000000000.0000      1.9240      0.4822   -999.2500   -999.2500   -999.2500   -999.2500   -999.2500   -999.2500      0.4211      0.0667      0.7200      0.3500   -999.2500      0.7000      0.8500
   4184.0000      0.0100      0.3600      4.0000      7.4803      1.7950      0.8500   -999.2500    191.7110      0.1500 49090916870222007100000000000.0000      0.5000 270000019174388625000000000000.0000      1.7950      0.4822   -999.2500   -999.2500   -999.2500   -999.2500   -999.2500   -999.2500      0.4410      0.0667      0.7200      0.3500   -999.2500      0.7000      0.8500
   4184.5000      0.0100      0.3600      4.0000      7.5062      1.7200      0.8500   -999.2500    191.4470      0.1500 49090916870222007100000000000.0000      0.5000 270000019174388625000000000000.0000      1.7200      0.4822   -999.2500   -999.2500   -999.2500   -999.2500   -999.2500   -999.2500      0.4536      0.0667      0.7200      0.3500   -999.2500      0.7000      0.8500
   4185.0000      0.0100      0.3600      4.0000      7.5321      1.6490      0.8500   -999.2500    191.1800      0.1500 49090916870222007100000000000.0000      0.5000 270000019174388625000000000000.0000      1.6490      0.4821   -999.2500   -999.2500   -999.2500   -999.2500   -999.2500   -999.2500      0.4663      0.0667      0.7200      0.3500   -999.2500      0.7000      0.8500
   4185.5000      0.0100      0.3600      4.0000      7.5321      1.5700      0.8500   -999.2500    190.9130      0.1500 49090916870222007100000000000.0000      0.5000 270000019174388625000000000000.0000      1.5700      0.4821   -999.2500   -999.2500   -999.2500   -999.2500   -999.2500   -999.2500      0.4816      0.0667      0.7200      0.3500   -999.2500      0.7000      0.8500
   4186.0000      0.0100      0.3600      4.0000      7.5482      1.5420      0.8500   -999.2500    190.3280      0.1500 49090916870222007100000000000.0000      0.5000 270000019174388625000000000000.0000      1.5420      0.4820   -999.2500   -999.2500   -999.2500   -999.2500   -999.2500   -999.2500      0.4873      0.0667      0.7200      0.3500   -999.2500      0.7000      0.8500
   4186.5000      0.0100      0.3600      4.0000      7.5629      1.5630      0.8500   -999.2500    190.0070      0.1500 49090916870222007100000000000.0000      0.5000 270000019174388625000000000000.0000      1.5630      0.4820   -999.2500   -999.2500   -999.2500   -999.2500   -999.2500   -999.2500      0.4829      0.0667      0.7200      0.3500   -999.2500      0.7000      0.8500
   4187.0000      0.0100      0.3600      4.0000      7.5412      1.6530      0.8500   -999.2500    189.5520      0.1500 49090916870222007100000000000.0000      0.5000 270000019174388625000000000000.0000      1.6530      0.4820   -999.2500   -999.2500   -999.2500   -999.2500   -999.2500   -999.2500      0.4655      0.0667      0.7200      0.3500   -999.2500      0.7000      0.8500
   4187.5000      0.0100      0.3600      4.0000      7.3662      1.8970      0.8500   -999.2500    189.0980      0.1500 49090916870222007100000000000.0000      0.5000 270000019174388625000000000000.0000      1.8970      0.4819   -999.2500   -999.2500   -999.2500   -999.2500   -999.2500   -999.2500      0.4249      0.0667      0.7200      0.3500   -999.2500      0.7000      0.8500
   4188.0000      0.0100      0.3600      4.0000      7.3340      2.0610      0.8500   -999.2500    187.6530      0.1500 49090916870222007100000000000.0000      0.5000 270000019174388625000000000000.0000      2.0610      0.4819   -999.2500   -999.2500   -999.2500   -999.2500   -999.2500   -999.2500      0.4018      0.0667      0.7200      0.3500   -999.2500      0.7000      0.8500
   4188.5000      0.0100      0.3600      4.0000      7.3823      2.2330      0.8500   -999.2500    186.6350      0.1500 49090916870222007100000000000.0000      0.5000 270000019174388625000000000000.0000      2.2330      0.4819   -999.2500   -999.2500   -999.2500   -999.2500   -999.2500   -999.2500      0.3806      0.0667      0.7200      0.3500   -999.2500      0.7000      0.8500
   4189.0000      0.0100      0.3600      4.0000      7.4005      2.3120      0.8500   -999.2500    185.6710      0.1500 49090916870222007100000000000.0000      0.5000 270000019174388625000000000000.0000      2.3120      0.4818   -999.2500   -999.2500   -999.2500   -999.2500   -999.2500   -999.2500      0.3716      0.0667      0.7200      0.3500   -999.2500      0.7000      0.8500
   4189.5000      0.0100      0.3600      4.0000      7.3774      2.3660      0.8500   -999.2500    186.5320      0.1500 49090916870222007100000000000.0000      0.5000 270000019174388625000000000000.0000      2.3660      0.4818   -999.2500   -999.2500   -999.2500   -999.2500   -999.2500   -999.2500      0.3658      0.0667      0.7200      0.3500   -999.2500      0.7000      0.8500
   4190.0000      0.0100      0.3600      4.0000      7.3473      2.3950      0.8500   -999.2500    187.3930      0.1500 49090916870222007100000000000.0000      0.5000 270000019174388625000000000000.0000      2.3950      0.4818   -999.2500   -999.2500   -999.2500   -999.2500   -999.2500   -999.2500      0.3627      0.0667      0.7200      0.3500   -999.2500      0.7000      0.8500
