~V
VERS. 2.00: Ver 2.00
WRAP.   NO:        
~W
 STRT.FT 20:
 STOP.FT 4330:
 STEP.FT 0.5:
 NULL. -999.250000:
 COMP. Standard (Chevron):Company
 WELL. KCL 44-25:Well
 FLD. Pioneer:Field
 LOC. S32 T11N R22W:Location
 STAT. CA:State
 SRVC. :Service Company
 SON. :Service Order #
 DATE. :Log Date
 UWI. 0940600:Unique Well ID
~C
 DEPT.FT :
 BVES. :
 BVTS. :
 FACE. :
 GR.RE/T :
 GRS.RE/T :
 ILD.OHMM :
 LTHE. :
 MM. :
 NEUS.CPS :
 NEUT.CPS :
 PHES. :
 PHMX. :
 PHTS. :
 PHZC. :
 RD.OHMM :
 ROS. :
 RS.OHMM :
 SBL.MV :
 SCLN. :
 SN.OHMM :
 SP.MV :
 SPN. :
 STUS. :
 SWES. :
 SWTS. :
 VCDS. :
 VCLY. :
 VCWS. :
 VSHS. :
~P
~A
# ...
   2978.5000      0.1334      0.2824      3.0000   -999.2500   -999.2500      3.9930      0.7633      2.5716   -999.2500   -999.2500      0.2367      0.1662      0.3856      0.4540      3.9930      1.9219      4.9790    -10.0434    -76.0030      4.9790     -8.1830    -12.5543      0.7322      0.5637      0.7322      0.1490      0.2979      0.2979      0.7633
   2979.0000      0.1332      0.2822      3.0000   -999.2500   -999.2500      4.0000      0.7635      2.5723   -999.2500   -999.2500      0.2365      0.1662      0.3856      0.4540      4.0000      1.9234      5.0220    -10.0221    -75.9991      5.0220     -8.1490    -12.5276      0.7319      0.5630      0.7319      0.1491      0.2981      0.2981      0.7635
   2979.5000      0.1329      0.2806      3.0000   -999.2500   -999.2500      4.0180      0.7617      2.5636   -999.2500   -999.2500      0.2383      0.1663      0.3860      0.4547      4.0180      1.9049      5.0330    -10.2878    -75.9952      5.0330     -8.4020    -12.8598      0.7269      0.5577      0.7269      0.1477      0.2954      0.2954      0.7617
   2980.0000      0.1380      0.2824      3.0000   -999.2500   -999.2500      3.8780      0.7574      2.5429   -999.2500   -999.2500      0.2426      0.1666      0.3870      0.4564      3.8780      1.8622      4.6510    -10.9145    -75.9913      4.6510     -9.0160    -13.6431      0.7297      0.5688      0.7297      0.1445      0.2889      0.2889      0.7574
   2980.5000      0.1414      0.2795      3.0000   -999.2500   -999.2500      3.8130      0.7490      2.5021   -999.2500   -999.2500      0.2510      0.1672      0.3891      0.4599      3.8130      1.7812      4.5610    -12.1532    -75.9874      4.5610    -10.2420    -15.1915      0.7183      0.5634      0.7183      0.1381      0.2761      0.2761      0.7490
   2981.0000      0.1440      0.2766      3.0000   -999.2500   -999.2500      3.7690      0.7418      2.4671   -999.2500   -999.2500      0.2582      0.1678      0.3908      0.4628      3.7690      1.7155      4.4100    -13.2129    -75.9836      4.4100    -11.2890    -16.5161      0.7077      0.5576      0.7077      0.1326      0.2652      0.2652      0.7418
   2981.5000      0.1460      0.2740      3.0000   -999.2500   -999.2500      3.7350      0.7358      2.4381   -999.2500   -999.2500      0.2642      0.1682      0.3922      0.4653      3.7350      1.6632      4.2550    -14.0926    -75.9797      4.2550    -12.1560    -17.6157      0.6987      0.5526      0.6987      0.1281      0.2561      0.2561      0.7358
   2982.0000      0.1483      0.2698      3.0000   -999.2500   -999.2500      3.7010      0.7272      2.3961   -999.2500   -999.2500      0.2728      0.1689      0.3943      0.4688      3.7010      1.5910      4.1900    -15.3672    -75.9758      4.1900    -13.4180    -19.2091      0.6843      0.5437      0.6843      0.1215      0.2430      0.2430      0.7272
   2982.5000      0.1535      0.2679      3.0000   -999.2500   -999.2500      3.5850      0.7178      2.3505   -999.2500   -999.2500      0.2822      0.1696      0.3966      0.4726      3.5850      1.5171      4.1390    -16.7499    -75.9719      4.1390    -14.7880    -20.9374      0.6755      0.5440      0.6755      0.1144      0.2287      0.2287      0.7178
   2983.0000      0.1587      0.2663      3.0000   -999.2500   -999.2500      3.4700      0.7089      2.3072   -999.2500   -999.2500      0.2911      0.1702      0.3987      0.4763      3.4700      1.4509      4.1390    -18.0616    -75.9680      4.1390    -16.0870    -22.5770      0.6679      0.5451      0.6679      0.1076      0.2152      0.2152      0.7089
   2983.5000      0.1618      0.2664      3.0000   -999.2500   -999.2500      3.3960      0.7049      2.2877   -999.2500   -999.2500      0.2951      0.1705      0.3996      0.4779      3.3960      1.4223      4.1100    -18.6533    -75.9641      4.1100    -16.6660    -23.3166      0.6666      0.5485      0.6666      0.1045      0.2091      0.2091      0.6969
   2984.0000      0.1641      0.2721      3.0000   -999.2500   -999.2500      3.3220      0.7094      2.3098   -999.2500   -999.2500      0.2906      0.1702      0.3985      0.4760      3.3220      1.4547      4.0630    -17.9840    -75.9602      4.0630    -15.9840    -22.4800      0.6827      0.5648      0.6827      0.1080      0.2160      0.2160      0.7094
   2984.5000      0.1687      0.2794      3.0000   -999.2500   -999.2500      3.1960      0.7131      2.3275   -999.2500   -999.2500      0.2869      0.1699      0.3977      0.4745      3.1960      1.4814      4.0090    -17.4470    -75.9563      4.0090    -15.4470    -21.8088      0.7026      0.5878      0.7026      0.1107      0.2215      0.2215      0.7131
   2985.0000      0.1705      0.2743      3.0000   -999.2500   -999.2500      3.1280      0.7040      2.2835   -999.2500   -999.2500      0.2960      0.1706      0.3998      0.4782      3.1280      1.4161      3.9330    -18.7820    -75.9525      3.9330    -16.7820    -23.4775      0.6862      0.5761      0.6862      0.1039      0.2077      0.2077      0.6924
   2985.5000      0.1731      0.2823      3.0000   -999.2500   -999.2500      3.0950      0.7111      2.3178   -999.2500   -999.2500      0.2889      0.1701      0.3981      0.4753      3.0950      1.4667      3.8540    -17.7400    -75.9486      3.8540    -15.7400    -22.1750      0.7091      0.5991      0.7091      0.1092      0.2184      0.2184      0.7111
   2986.0000      0.1725      0.2941      3.0000   -999.2500   -999.2500      3.0630      0.7275      2.3973   -999.2500   -999.2500      0.2725      0.1688      0.3942      0.4686      3.0630      1.5928      3.8360    -15.3310    -75.9447      3.8360    -13.3310    -19.1637      0.7462      0.6329      0.7462      0.1216      0.2433      0.2433      0.7275
   2986.5000      0.1731      0.2971      3.0000   -999.2500   -999.2500      3.0410      0.7306      2.4126   -999.2500   -999.2500      0.2694      0.1686      0.3934      0.4673      3.0410      1.6187      3.8290    -14.8670    -75.9408      3.8290    -12.8670    -18.5838      0.7551      0.6424      0.7551      0.1240      0.2480      0.2480      0.7306
   2987.0000      0.1724      0.3023      3.0000   -999.2500   -999.2500      3.0330      0.7384      2.4506   -999.2500   -999.2500      0.2616      0.1680      0.3915      0.4641      3.0330      1.6851      3.9040    -13.7170    -75.9369      3.9040    -11.7170    -17.1463      0.7722      0.6590      0.7722      0.1299      0.2599      0.2599      0.7384
   2987.5000      0.1713      0.3074      3.0000   -999.2500   -999.2500      3.0310      0.7465      2.4897   -999.2500   -999.2500      0.2535      0.1674      0.3895      0.4608      3.0310      1.7573      3.9330    -12.5320    -75.9330      3.9330    -10.5320    -15.6650      0.7891      0.6759      0.7891      0.1360      0.2721      0.2721      0.7465
   2988.0000      0.1715      0.3073      3.0000   -999.2500   -999.2500      3.0290      0.7462      2.4884   -999.2500   -999.2500      0.2538      0.1674      0.3896      0.4609      3.0290      1.7548      3.9610    -12.5710    -75.9291      3.9610    -10.5710    -15.7138      0.7888      0.6757      0.7888      0.1358      0.2717      0.2717      0.7462
   2988.5000      0.1710      0.3007      3.0000   -999.2500   -999.2500      3.0650      0.7381      2.4491   -999.2500   -999.2500      0.2619      0.1680      0.3916      0.4642      3.0650      1.6825      4.0150    -13.7610    -75.9252      4.0150    -11.7610    -17.2013      0.7679      0.6530      0.7679      0.1297      0.2594      0.2594      0.7381
   2989.0000      0.1696      0.2950      3.0000   -999.2500   -999.2500      3.1150      0.7325      2.4217   -999.2500   -999.2500      0.2675      0.1685      0.3929      0.4665      3.1150      1.6342      4.0220    -14.5920    -75.9214      4.0220    -12.5920    -18.2400      0.7508      0.6340      0.7508      0.1254      0.2508      0.2508      0.7325
   2989.5000      0.1696      0.2905      3.0000   -999.2500   -999.2500      3.1330      0.7266      2.3931   -999.2500   -999.2500      0.2734      0.1689      0.3943      0.4689      3.1330      1.5857      4.0250    -15.4590    -75.9175      4.0250    -13.4590    -19.3237      0.7368      0.6203      0.7368      0.1209      0.2419      0.2419      0.7266
