~V
VERS. 2.00: Ver 2.00
WRAP.   NO:        
~W
 STRT.FT 40:
 STOP.FT 4330:
 STEP.FT 0.5:
 NULL. -999.250000:
 COMP. Standard (Chevron):Company
 WELL. KCL 44-45:Well
 FLD. Pioneer:Field
 LOC. S32 T11N R22W:Location
 STAT. CA:State
 SRVC. :Service Company
 SON. :Service Order #
 DATE. :Log Date
 UWI. 0941000:Unique Well ID
~C
 DEPT.FT :
 BVES. :
 BVTS. :
 FACE. :
 GR.RE/T :
 GRS.RE/T :
 ILD.OHMM :
 LTHE. :
 MM. :
 NEUS.CPS :
 NEUT.CPS :
 PHES. :
 PHMX. :
 PHTS. :
 PHZC. :
 RD.OHMM :
 ROS. :
 RS.OHMM :
 SBL.MV :
 SCLN. :
 SN.OHMM :
 SP.MV :
 SPN. :
 STUS. :
 SWES. :
 SWTS. :
 VCDS. :
 VCLY. :
 VCWS. :
 VSHS. :
~P
~A
# ...
   4319.0000      0.0100      0.3600      4.0000      4.9070      4.8160      3.9580      0.8500   -999.2500    279.8290    268.9570      0.1500 49090916870222007100000000000.0000      0.5000 270000019174388625000000000000.0000      3.9580      0.4726   -999.2500   -999.2500   -999.2500   -999.2500   -999.2500   -999.2500      0.2495      0.0667      0.7200      0.3500   -999.2500      0.7000      0.8500
   4319.5000      0.0100      0.3600      4.0000      4.8860      4.7940      4.2281      0.8500   -999.2500    282.0340    272.3500      0.1500 49090916870222007100000000000.0000      0.5000 270000019174388625000000000000.0000      4.2281      0.4726   -999.2500   -999.2500   -999.2500   -999.2500   -999.2500   -999.2500      0.2376      0.0667      0.7200      0.3500   -999.2500      0.7000      0.8500
   4320.0000      0.0100      0.3600      4.0000      4.8650      4.9250      4.4115      0.8500 -1000000166163193670000000000000.0000    282.8630    274.7180      0.1500 49090916870222007100000000000.0000      0.5000 270000019174388625000000000000.0000      4.4115      0.4726   -999.2500   -999.2500   -999.2500   -999.2500   -999.2500   -999.2500      0.2302      0.0667      0.7200      0.3500   -999.2500      0.7000      0.8500
   4320.5000      0.0000      0.5000      4.0000      4.8380      4.9670   -999.2500      1.0000   -999.2500    283.6920    277.6780      0.0000 49090916870222007100000000000.0000      0.5000 270000019174388625000000000000.0000   -999.2500      0.4725   -999.2500   -999.2500   -999.2500   -999.2500   -999.2500   -999.2500      0.2302      1.0000      1.0000      0.3500   -999.2500      0.7000      1.0000
   4321.0000      0.0000      0.5000      4.0000      4.8160      5.0080   -999.2500      1.0000   -999.2500    286.1090    279.8290      0.0000 49090916870222007100000000000.0000      0.5000 270000019174388625000000000000.0000   -999.2500      0.4725   -999.2500   -999.2500   -999.2500   -999.2500   -999.2500   -999.2500      0.2302      1.0000      1.0000      0.3500   -999.2500      0.7000      1.0000
   4321.5000      0.0000      0.5000      4.0000      4.7940      5.1100   -999.2500      1.0000   -999.2500    287.8270    282.0340      0.0000 49090916870222007100000000000.0000      0.5000 270000019174388625000000000000.0000   -999.2500      0.4725   -999.2500   -999.2500   -999.2500   -999.2500   -999.2500   -999.2500      0.2302      1.0000      1.0000      0.3500   -999.2500      0.7000      1.0000
   4322.0000      0.0000      0.5000      4.0000      4.9250      5.2030   -999.2500      1.0000   -999.2500    288.9510    282.8630      0.0000 49090916870222007100000000000.0000      0.5000 270000019174388625000000000000.0000   -999.2500      0.4724   -999.2500   -999.2500   -999.2500   -999.2500   -999.2500   -999.2500      0.2302      1.0000      1.0000      0.3500   -999.2500      0.7000      1.0000
   4322.5000      0.0000      0.5000      4.0000      4.9670      5.2660   -999.2500      1.0000   -999.2500    289.4290    283.6920      0.0000 49090916870222007100000000000.0000      0.5000 270000019174388625000000000000.0000   -999.2500      0.4724   -999.2500   -999.2500   -999.2500   -999.2500   -999.2500   -999.2500      0.2302      1.0000      1.0000      0.3500   -999.2500      0.7000      1.0000
   4323.0000      0.0000      0.5000      4.0000      5.0080      5.3660   -999.2500      1.0000   -999.2500    289.9070    286.1090      0.0000 49090916870222007100000000000.0000      0.5000 270000019174388625000000000000.0000   -999.2500      0.4724   -999.2500   -999.2500   -999.2500   -999.2500   -999.2500   -999.2500      0.2302      1.0000      1.0000      0.3500   -999.2500      0.7000      1.0000
   4323.5000      0.0000      0.5000      4.0000      5.1100      5.5970   -999.2500      1.0000   -999.2500    290.7590    287.8270      0.0000 49090916870222007100000000000.0000      0.5000 270000019174388625000000000000.0000   -999.2500      0.4723   -999.2500   -999.2500   -999.2500   -999.2500   -999.2500   -999.2500      0.2302      1.0000      1.0000      0.3500   -999.2500      0.7000      1.0000
   4324.0000      0.0000      0.5000      4.0000      5.2030      5.7200   -999.2500      1.0000   -999.2500    290.5860    288.9510      0.0000 49090916870222007100000000000.0000      0.5000 270000019174388625000000000000.0000   -999.2500      0.4723   -999.2500   -999.2500   -999.2500   -999.2500   -999.2500   -999.2500      0.2302      1.0000      1.0000      0.3500   -999.2500      0.7000      1.0000
   4324.5000      0.0000      0.5000      4.0000      5.2660      5.8310   -999.2500      1.0000   -999.2500    289.3330    289.4290      0.0000 49090916870222007100000000000.0000      0.5000 270000019174388625000000000000.0000   -999.2500      0.4723   -999.2500   -999.2500   -999.2500   -999.2500   -999.2500   -999.2500      0.2302      1.0000      1.0000      0.3500   -999.2500      0.7000      1.0000
   4325.0000      0.0000      0.5000      4.0000      5.3660      5.9720   -999.2500      1.0000   -999.2500    287.8640    289.9070      0.0000 49090916870222007100000000000.0000      0.5000 270000019174388625000000000000.0000   -999.2500      0.4722   -999.2500   -999.2500   -999.2500   -999.2500   -999.2500   -999.2500      0.2302      1.0000      1.0000      0.3500   -999.2500      0.7000      1.0000
   4325.5000      0.0000      0.5000      4.0000      5.5970      6.1050   -999.2500      1.0000   -999.2500    286.1790    290.7590      0.0000 49090916870222007100000000000.0000      0.5000 270000019174388625000000000000.0000   -999.2500      0.4722   -999.2500   -999.2500   -999.2500   -999.2500   -999.2500   -999.2500      0.2302      1.0000      1.0000      0.3500   -999.2500      0.7000      1.0000
   4326.0000      0.0000      0.5000      4.0000      5.7200      6.3040   -999.2500      1.0000   -999.2500    284.2780    290.5860      0.0000 49090916870222007100000000000.0000      0.5000 270000019174388625000000000000.0000   -999.2500      0.4722   -999.2500   -999.2500   -999.2500   -999.2500   -999.2500   -999.2500      0.2302      1.0000      1.0000      0.3500   -999.2500      0.7000      1.0000
   4326.5000      0.0000      0.5000      4.0000      5.8310      6.8000   -999.2500      1.0000   -999.2500    281.7800    289.3330      0.0000 49090916870222007100000000000.0000      0.5000 270000019174388625000000000000.0000   -999.2500      0.4721   -999.2500   -999.2500   -999.2500   -999.2500   -999.2500   -999.2500      0.2302      1.0000      1.0000      0.3500   -999.2500      0.7000      1.0000
   4327.0000      0.0000      0.5000      4.0000      5.9720      7.0670   -999.2500      1.0000   -999.2500    280.8540    287.8640      0.0000 49090916870222007100000000000.0000      0.5000 270000019174388625000000000000.0000   -999.2500      0.4721   -999.2500   -999.2500   -999.2500   -999.2500   -999.2500   -999.2500      0.2302      1.0000      1.0000      0.3500   -999.2500      0.7000      1.0000
   4327.5000      0.0000      0.5000      4.0000      6.1050      7.1920   -999.2500      1.0000   -999.2500    278.7880    286.1790      0.0000 49090916870222007100000000000.0000      0.5000 270000019174388625000000000000.0000   -999.2500      0.4721   -999.2500   -999.2500   -999.2500   -999.2500   -999.2500   -999.2500      0.2302      1.0000      1.0000      0.3500   -999.2500      0.7000      1.0000
   4328.0000      0.0000      0.5000      4.0000      6.3040      7.2730   -999.2500      1.0000   -999.2500    279.3190    284.2780      0.0000 49090916870222007100000000000.0000      0.5000 270000019174388625000000000000.0000   -999.2500      0.4720   -999.2500   -999.2500   -999.2500   -999.2500   -999.2500   -999.2500      0.2302      1.0000      1.0000      0.3500   -999.2500      0.7000      1.0000
   4328.5000      0.0000      0.5000      4.0000      6.8000   -999.2500   -999.2500      1.0000   -999.2500   -999.2500    281.7800      0.0000 49090916870222007100000000000.0000      0.5000 270000019174388625000000000000.0000   -999.2500      0.4720   -999.2500   -999.2500   -999.2500   -999.2500   -999.2500   -999.2500      0.2302      1.0000      1.0000      0.3500   -999.2500      0.7000      1.0000
