~V
VERS. 2.00: Ver 2.00
WRAP.   NO:        
~W
 STRT.FT 40:
 STOP.FT 4330:
 STEP.FT 0.5:
 NULL. -999.250000:
 COMP. Standard (Chevron):Company
 WELL. KCL 44-45:Well
 FLD. Pioneer:Field
 LOC. S32 T11N R22W:Location
 STAT. CA:State
 SRVC. :Service Company
 SON. :Service Order #
 DATE. :Log Date
 UWI. 0941000:Unique Well ID
~C
 DEPT.FT :
 BVES. :
 BVTS. :
 FACE. :
 GR.RE/T :
 GRS.RE/T :
 ILD.OHMM :
 LTHE. :
 MM. :
 NEUS.CPS :
 NEUT.CPS :
 PHES. :
 PHMX. :
 PHTS. :
 PHZC. :
 RD.OHMM :
 ROS. :
 RS.OHMM :
 SBL.MV :
 SCLN. :
 SN.OHMM :
 SP.MV :
 SPN. :
 STUS. :
 SWES. :
 SWTS. :
 VCDS. :
 VCLY. :
 VCWS. :
 VSHS. :
~P
~A
# ...
   1533.0000      0.3239      0.4333      3.0000   -999.2500   -999.2500      1.3754      0.6761      2.2805   -999.2500   -999.2500      0.3239      0.1758      0.4333      0.5072      1.3754      1.4918      2.4934    -20.8075    -67.9800      2.4934    -33.7463    -27.7434      1.0343      1.0000      1.0000      0.1095      0.2189      0.2189      0.6761
   1533.5000      0.3152      0.4281      3.0000   -999.2500   -999.2500      1.5577      0.6806      2.3022   -999.2500   -999.2500      0.3194      0.1755      0.4323      0.5053      1.5577      1.5245      2.7215    -20.3481    -67.9800      2.7215    -33.2934    -27.1308      0.9903      0.9869      0.9903      0.1128      0.2257      0.2257      0.6806
   1534.0000      0.2951      0.4098      3.0000   -999.2500   -999.2500      1.7311      0.6831      2.3143   -999.2500   -999.2500      0.3169      0.1753      0.4316      0.5043      1.7311      1.5432      3.0165    -20.0906    -67.9800      3.0165    -33.0424    -26.7874      0.9494      0.9311      0.9494      0.1147      0.2295      0.2295      0.6831
   1534.5000      0.2770      0.3889      3.0000   -999.2500   -999.2500      1.9147      0.6794      2.2961   -999.2500   -999.2500      0.3206      0.1756      0.4325      0.5058      1.9147      1.5151      3.3354    -20.4770    -67.9800      3.3354    -33.4354    -27.3027      0.8991      0.8638      0.8991      0.1119      0.2238      0.2238      0.6794
   1535.0000      0.2591      0.3623      3.0000   -999.2500   -999.2500      2.1288      0.6679      2.2403   -999.2500   -999.2500      0.3321      0.1765      0.4353      0.5105      2.1288      1.4331      3.9056    -21.6629    -67.9800      3.9056    -34.6278    -28.8838      0.8323      0.7802      0.8323      0.1032      0.2063      0.2063      0.6679
   1535.5000      0.2429      0.3284      2.0000   -999.2500   -999.2500      2.3571      0.6448      2.1276   -999.2500   -999.2500      0.3552      0.1782      0.4407      0.5200      2.3571      1.2839      4.4427    -24.0554    -67.9800      4.4427    -37.0269    -32.0739      0.7452      0.6838      0.7452      0.0856      0.1711      0.1711      0.5705
   1536.0000      0.2308      0.3161      2.0000   -999.2500   -999.2500      2.5459      0.6445      2.1261   -999.2500   -999.2500      0.3555      0.1782      0.4408      0.5201      2.5459      1.2820      4.6753    -24.0885    -67.9800      4.6753    -37.0666    -32.1180      0.7171      0.6491      0.7171      0.0853      0.1707      0.1707      0.5688
   1536.5000      0.2220      0.3096      2.0000   -999.2500   -999.2500      2.6957      0.6475      2.1405   -999.2500   -999.2500      0.3525      0.1780      0.4401      0.5189      2.6957      1.2999      4.7880    -23.7819    -67.9800      4.7880    -36.7665    -31.7092      0.7034      0.6298      0.7034      0.0876      0.1752      0.1752      0.5839
   1537.0000      0.2152      0.3046      2.0000   -999.2500   -999.2500      2.8202      0.6499      2.1523   -999.2500   -999.2500      0.3501      0.1778      0.4395      0.5179      2.8202      1.3146      4.7660    -23.5327    -67.9800      4.7660    -36.5239    -31.3770      0.6931      0.6147      0.6931      0.0894      0.1788      0.1788      0.5961
   1537.5000      0.2114      0.3027      3.0000   -999.2500   -999.2500      2.8924      0.6524      2.1642   -999.2500   -999.2500      0.3476      0.1776      0.4389      0.5169      2.8924      1.3300      3.8584    -23.2781    -67.9800      3.8584    -36.2758    -31.0375      0.6897      0.6082      0.6897      0.0913      0.1826      0.1826      0.6086
   1538.0000      0.2124      0.3053      3.0000   -999.2500   -999.2500      2.8723      0.6546      2.1751   -999.2500   -999.2500      0.3454      0.1774      0.4384      0.5160      2.8723      1.3440      2.9635    -23.0480    -67.9800      2.9635    -36.0522    -30.7307      0.6965      0.6148      0.6965      0.0930      0.1860      0.1860      0.6199
   1538.5000      0.2769      0.3645      2.0000   -999.2500   -999.2500      1.9227      0.6476      2.1406   -999.2500   -999.2500      0.3524      0.1780      0.4400      0.5189      1.9227      1.2999      2.5763    -23.7797    -67.9800      2.5763    -36.7905    -31.7063      0.8284      0.7857      0.8284      0.0876      0.1752      0.1752      0.5840
   1539.0000      0.3252      0.4092      2.0000   -999.2500   -999.2500      1.4844      0.6428      2.1173   -999.2500   -999.2500      0.3572      0.1783      0.4412      0.5208      1.4844      1.2710      2.3378    -24.2748    -67.9800      2.3378    -37.2921    -32.3664      0.9275      0.9105      0.9275      0.0840      0.1679      0.1679      0.5597
   1539.5000      0.3532      0.4342      2.0000   -999.2500   -999.2500      1.2952      0.6390      2.0987   -999.2500   -999.2500      0.3610      0.1786      0.4420      0.5224      1.2952      1.2486      2.1832    -24.6696    -67.9800      2.1832    -37.6934    -32.8928      0.9823      0.9783      0.9823      0.0811      0.1621      0.1621      0.5404
   1540.0000      0.3660      0.4432      2.0000   -999.2500   -999.2500      1.2037      0.6340      2.0742   -999.2500   -999.2500      0.3660      0.1790      0.4432      0.5244      1.2037      1.2198      2.0703    -25.1914    -67.9800      2.0703    -38.2218    -33.5885      1.0063      1.0000      1.0000      0.0772      0.1544      0.1544      0.5148
   1540.5000      0.3530      0.4401      2.0000   -999.2500   -999.2500      1.1499      0.6470      2.1375   -999.2500   -999.2500      0.3530      0.1780      0.4401      0.5191      1.1499      1.2958      1.9852    -23.8465    -67.9800      1.9852    -36.8835    -31.7954      1.0563      1.0000      1.0000      0.0871      0.1742      0.1742      0.5807
   1541.0000      0.3397      0.4370      3.0000   -999.2500   -999.2500      1.0968      0.6603      2.2023   -999.2500   -999.2500      0.3397      0.1770      0.4370      0.5136      1.0968      1.3800      1.9234    -22.4686    -67.9800      1.9234    -35.5120    -29.9581      1.1065      1.0000      1.0000      0.0972      0.1945      0.1945      0.6483
   1541.5000      0.3249      0.4334      3.0000   -999.2500   -999.2500      1.0537      0.6751      2.2745   -999.2500   -999.2500      0.3249      0.1759      0.4334      0.5075      1.0537      1.4821      1.8615    -20.9361    -67.9800      1.8615    -33.9861    -27.9147      1.1655      1.0000      1.0000      0.1085      0.2170      0.2170      0.6751
   1542.0000      0.3099      0.4298      3.0000   -999.2500   -999.2500      1.0115      0.6901      2.3475   -999.2500   -999.2500      0.3099      0.1748      0.4298      0.5013      1.0115      1.5953      1.8274    -19.3858    -67.9800      1.8274    -32.4424    -25.8477      1.2189      1.0000      1.0000      0.1199      0.2398      0.2398      0.6901
   1542.5000      0.3030      0.4281      3.0000   -999.2500   -999.2500      0.9738      0.6970      2.3809   -999.2500   -999.2500      0.3030      0.1743      0.4281      0.4985      0.9738      1.6508      1.7948    -18.6747    -67.9800      1.7948    -31.7378    -24.8996      1.2535      1.0000      1.0000      0.1251      0.2503      0.2503      0.6970
   1543.0000      0.3034      0.4282      3.0000   -999.2500   -999.2500      0.9844      0.6966      2.3791   -999.2500   -999.2500      0.3034      0.1743      0.4282      0.4986      0.9844      1.6477      1.7590    -18.7132    -67.9800      1.7590    -31.7828    -24.9509      1.2469      1.0000      1.0000      0.1249      0.2497      0.2497      0.6966
   1543.5000      0.2970      0.4267      3.0000   -999.2500   -999.2500      1.0009      0.7030      2.4100   -999.2500   -999.2500      0.2970      0.1738      0.4267      0.4960      1.0009      1.7010      1.7216    -18.0564    -67.9800      1.7216    -31.1327    -24.0753      1.2512      1.0000      1.0000      0.1297      0.2594      0.2594      0.7030
   1544.0000      0.2908      0.4252      3.0000   -999.2500   -999.2500      1.0216      0.7092      2.4400   -999.2500   -999.2500      0.2908      0.1734      0.4252      0.4935      1.0216      1.7547      1.6973    -17.4207    -67.9800      1.6973    -30.5035    -23.2277      1.2531      1.0000      1.0000      0.1344      0.2687      0.2687      0.7092
