~V
VERS. 2.00: Ver 2.00
WRAP.   NO:        
~W
 STRT.FT 29:
 STOP.FT 4770:
 STEP.FT 0.5:
 NULL. -999.250000:
 COMP. Standard (Chevron):Company
 WELL. KCL 44-32:Well
 FLD. Pioneer:Field
 LOC. S32 T11N R22W:Location
 STAT. CA:State
 SRVC. :Service Company
 SON. :Service Order #
 DATE. :Log Date
 UWI. 0940700:Unique Well ID
~C
 DEPT.FT :
 BVES. :
 BVTS. :
 FACE. :
 GRS.RE/T :
 ILD.OHMM :
 LTHE. :
 MM. :
 NEUT.CPS :
 PHES. :
 PHMX. :
 PHTS. :
 PHZC. :
 RD.OHMM :
 ROS. :
 RS.OHMM :
 SBL.MV :
 SCLN. :
 SN.OHMM :
 SP.MV :
 SPN. :
 STUS. :
 SWES. :
 SWTS. :
 VCDS. :
 VCLY. :
 VCWS. :
 VSHS. :
~P
~A
# ...
   2321.0000      0.3096      0.4153      3.0000   -999.2500      1.3380      0.6904      2.2567   -999.2500      0.3096      0.1731      0.4153      0.4918      1.3380      1.4060      1.3230    -18.2740    -87.4257      1.3230    -57.6140    -36.5479      1.0209      1.0000      1.0000      0.1057      0.2115      0.2115      0.6904
   2321.5000      0.3033      0.4138      3.0000   -999.2500      1.3200      0.6967      2.2872   -999.2500      0.3033      0.1726      0.4138      0.4893      1.3200      1.4499      1.3170    -17.7193    -87.4323      1.3170    -57.0720    -35.4386      1.0390      1.0000      1.0000      0.1105      0.2210      0.2210      0.6967
   2322.0000      0.3019      0.4134      3.0000   -999.2500      1.3030      0.6981      2.2939   -999.2500      0.3019      0.1725      0.4134      0.4887      1.3030      1.4597      1.2890    -17.5986    -87.4390      1.2890    -56.9640    -35.1973      1.0472      1.0000      1.0000      0.1115      0.2231      0.2231      0.6981
   2322.5000      0.3107      0.4155      3.0000   -999.2500      1.2860      0.6893      2.2510   -999.2500      0.3107      0.1731      0.4155      0.4923      1.2860      1.3980      1.2750    -18.3810    -87.4457      1.2750    -57.7590    -36.7619      1.0356      1.0000      1.0000      0.1049      0.2097      0.2097      0.6893
   2323.0000      0.3256      0.4191      3.0000   -999.2500      1.2650      0.6744      2.1785   -999.2500      0.3256      0.1743      0.4191      0.4984      1.2650      1.3011      1.2650    -19.7043    -87.4524      1.2650    -59.0950    -39.4086      1.0125      1.0000      1.0000      0.0935      0.1870      0.1870      0.6234
   2323.5000      0.3345      0.4142      2.0000   -999.2500      1.2480      0.6563      2.0901   -999.2500      0.3437      0.1756      0.4234      0.5058      1.2480      1.1943      1.2410    -21.3167    -87.4590      1.2410    -60.7200    -42.6333      0.9784      0.9734      0.9784      0.0797      0.1594      0.1594      0.5313
   2324.0000      0.3366      0.4104      2.0000   -999.2500      1.2360      0.6487      2.0525   -999.2500      0.3513      0.1762      0.4252      0.5090      1.2360      1.1523      1.2230    -22.2060    -87.4657      1.2230    -61.6220    -44.4120      0.9653      0.9580      0.9653      0.0738      0.1477      0.1477      0.4922
   2324.5000      0.3386      0.4096      2.0000   -999.2500      1.2240      0.6450      2.0346   -999.2500      0.3550      0.1765      0.4260      0.5105      1.2240      1.1330      1.2170    -23.0243    -87.4724      1.2170    -62.4530    -46.0486      0.9616      0.9539      0.9616      0.0710      0.1421      0.1421      0.4736
   2325.0000      0.3399      0.4136      2.0000   -999.2500      1.2160      0.6485      2.0516   -999.2500      0.3515      0.1762      0.4252      0.5091      1.2160      1.1512      1.2070    -22.2537    -87.4791      1.2070    -61.6950    -44.5073      0.9728      0.9671      0.9728      0.0737      0.1474      0.1474      0.4912
   2325.5000      0.3414      0.4213      2.0000   -999.2500      1.2070      0.6566      2.0912   -999.2500      0.3434      0.1756      0.4233      0.5057      1.2070      1.1955      1.2000    -21.3020    -87.4857      1.2000    -60.7560    -42.6040      0.9953      0.9942      0.9953      0.0799      0.1598      0.1598      0.5325
   2326.0000      0.3327      0.4207      2.0000   -999.2500      1.1970      0.6673      2.1435   -999.2500      0.3327      0.1748      0.4207      0.5013      1.1970      1.2573      1.2150    -20.3503    -87.4924      1.2150    -59.8170    -40.7007      1.0225      1.0000      1.0000      0.0881      0.1761      0.1761      0.5870
   2326.5000      0.3243      0.4187      3.0000   -999.2500      1.2090      0.6757      2.1840   -999.2500      0.3243      0.1742      0.4187      0.4979      1.2090      1.3080      1.2290    -19.6147    -87.4991      1.2290    -59.0940    -39.2293      1.0352      1.0000      1.0000      0.0944      0.1887      0.1887      0.6292
   2327.0000      0.3165      0.4168      3.0000   -999.2500      1.2100      0.6835      2.2224   -999.2500      0.3165      0.1736      0.4168      0.4946      1.2100      1.3585      1.2420    -18.9160    -87.5058      1.2420    -58.4080    -37.8320      1.0508      1.0000      1.0000      0.1004      0.2007      0.2007      0.6692
   2327.5000      0.3090      0.4150      3.0000   -999.2500      1.2000      0.6910      2.2588   -999.2500      0.3090      0.1730      0.4150      0.4915      1.2000      1.4087      1.2610    -18.2533    -87.5125      1.2610    -57.7580    -36.5067      1.0760      1.0000      1.0000      0.1061      0.2121      0.2121      0.6910
   2328.0000      0.3047      0.4140      3.0000   -999.2500      1.1970      0.6953      2.2794   -999.2500      0.3047      0.1727      0.4140      0.4898      1.1970      1.4381      1.2790    -17.8797    -87.5191      1.2790    -57.3970    -35.7594      1.0865      1.0000      1.0000      0.1093      0.2186      0.2186      0.6953
   2328.5000      0.2948      0.4116      3.0000   -999.2500      1.1900      0.7052      2.3276   -999.2500      0.2948      0.1719      0.4116      0.4857      1.1900      1.5103      1.2940    -17.0010    -87.5258      1.2940    -56.5310    -34.0020      1.1112      1.0000      1.0000      0.1168      0.2336      0.2336      0.7052
   2329.0000      0.2861      0.4095      3.0000   -999.2500      1.2020      0.7139      2.3700   -999.2500      0.2861      0.1713      0.4095      0.4821      1.2020      1.5775      1.3270    -16.2294    -87.5325      1.3270    -55.7720    -32.4587      1.1251      1.0000      1.0000      0.1234      0.2469      0.2469      0.7139
   2329.5000      0.2745      0.4067      3.0000   -999.2500      1.2200      0.7255      2.4262   -999.2500      0.2745      0.1704      0.4067      0.4774      1.2200      1.6726      1.3460    -15.2057    -87.5392      1.3460    -54.7610    -30.4114      1.1426      1.0000      1.0000      0.1322      0.2644      0.2644      0.7255
   2330.0000      0.2633      0.4040      3.0000   -999.2500      1.2360      0.7367      2.4804   -999.2500      0.2633      0.1696      0.4040      0.4728      1.2360      1.7713      1.3580    -14.2180    -87.5458      1.3580    -53.7860    -28.4361      1.1598      1.0000      1.0000      0.1407      0.2814      0.2814      0.7367
   2330.5000      0.2566      0.4024      3.0000   -999.2500      1.2530      0.7434      2.5128   -999.2500      0.2566      0.1691      0.4024      0.4700      1.2530      1.8337      1.3640    -13.6284    -87.5525      1.3640    -53.2090    -27.2567      1.1671      1.0000      1.0000      0.1458      0.2915      0.2915      0.7434
   2331.0000      0.2675      0.4050      3.0000   -999.2500      1.2600      0.7325      2.4601   -999.2500      0.2675      0.1699      0.4050      0.4745      1.2600      1.7334      1.3640    -14.5907    -87.5592      1.3640    -54.1840    -29.1814      1.1418      1.0000      1.0000      0.1375      0.2750      0.2750      0.7325
   2331.5000      0.2640      0.4041      3.0000   -999.2500      1.2670      0.7360      2.4767   -999.2500      0.2640      0.1696      0.4041      0.4730      1.2670      1.7642      1.3460    -14.2890    -87.5659      1.3460    -53.8950    -28.5781      1.1464      1.0000      1.0000      0.1401      0.2802      0.2802      0.7360
   2332.0000      0.2704      0.4057      3.0000   -999.2500      1.2740      0.7296      2.4458   -999.2500      0.2704      0.1701      0.4057      0.4756      1.2740      1.7073      1.3240    -14.8544    -87.5725      1.3240    -54.4730    -29.7088      1.1304      1.0000      1.0000      0.1353      0.2706      0.2706      0.7296
   2332.5000      0.2743      0.4066      3.0000   -999.2500      1.2520      0.7257      2.4268   -999.2500      0.2743      0.1704      0.4066      0.4772      1.2520      1.6734      1.3090    -15.2027    -87.5792      1.3090    -54.8340    -30.4054      1.1304      1.0000      1.0000      0.1323      0.2646      0.2646      0.7257
