~V
VERS. 2.00: Ver 2.00
WRAP.   NO:        
~W
 STRT.FT 10:
 STOP.FT 5350:
 STEP.FT 0.5:
 NULL. -999.250000:
 COMP. Standard (Chevron):Company
 WELL. KCL 44-12:Well
 FLD. Pioneer:Field
 LOC. S32 T11N R22W:Location
 STAT. CA:State
 SRVC. :Service Company
 SON. :Service Order #
 DATE. :Log Date
 UWI. 0940400:Unique Well ID
~C
 DEPT.FT :
 GRS.RE/T :
 ILD.OHMM :
 LTHE. :
 MM. :
 NEUT.CPS :
 PHES. :
 PHMX. :
 PHTS. :
 PHZC. :
 RD.OHMM :
 ROS. :
 RS.OHMM :
 SBL.MV :
 SCLN. :
 SN.OHMM :
 SP.MV :
 SPN. :
 VCDS. :
 VCLY. :
 VCWS. :
 VSHS. :
~P
~A
# ...
   3376.5000      3.6430      2.3660      0.8500   -999.2500    228.4230      0.1500 49090916870222007100000000000.0000      0.5000 270000019174388625000000000000.0000      2.3660      0.5485      4.2250    -41.5687   -999.2500      4.2250    -72.9790   -118.7678      0.3500   -999.2500      0.7000      0.8500
   3377.0000      3.5980      2.3920      0.8500   -999.2500    228.3390      0.1500 49090916870222007100000000000.0000      0.5000 270000019174388625000000000000.0000      2.3920      0.5484      4.0340    -40.8986   -999.2500      4.0340    -72.2960   -116.8530      0.3500   -999.2500      0.7000      0.8500
   3377.5000      3.5980      2.3870      0.8500 -1000000015047466220000000000000.0000    228.2550      0.1500 49090916870222007100000000000.0000      0.5000 270000019174388625000000000000.0000      2.3870      0.5484      3.8760    -39.9774   -999.2500      3.8760    -71.3620   -114.2211      0.3500   -999.2500      0.7000      0.8500
   3378.0000      3.5980      2.3820      0.8500   -999.2500    228.2500      0.1500 49090916870222007100000000000.0000      0.5000 270000019174388625000000000000.0000      2.3820      0.5483      3.8220    -38.8782   -999.2500      3.8220    -70.2500   -111.0806      0.3500   -999.2500      0.7000      0.8500
   3378.5000      3.6500      2.3600      0.8500   -999.2500    228.9980      0.1500 49090916870222007100000000000.0000      0.5000 270000019174388625000000000000.0000      2.3600      0.5483      3.7680    -38.4770   -999.2500      3.7680    -69.8360   -109.9344      0.3500   -999.2500      0.7000      0.8500
   3379.0000      3.6780      2.3390      0.8500   -999.2500    229.5050      0.1500 49090916870222007100000000000.0000      0.5000 270000019174388625000000000000.0000      2.3390      0.5483      3.7610    -38.0758   -999.2500      3.7610    -69.4220   -108.7881      0.3500   -999.2500      0.7000      0.8500
   3379.5000      3.6760      2.2960      0.8500   -999.2500    230.0120      0.1500 49090916870222007100000000000.0000      0.5000 270000019174388625000000000000.0000      2.2960      0.5482      3.8910    -37.0477   -999.2500      3.8910    -68.3810   -105.8505      0.3500   -999.2500      0.7000      0.8500
   3380.0000      3.6330      2.2920      0.8500   -999.2500    230.4910      0.1500 49090916870222007100000000000.0000      0.5000 270000019174388625000000000000.0000      2.2920      0.5482      4.0210    -36.6995   -999.2500      4.0210    -68.0200   -104.8557      0.3500   -999.2500      0.7000      0.8500
   3380.5000      3.5630      2.2890      0.8500   -999.2500    231.1860      0.1500 49090916870222007100000000000.0000      0.5000 270000019174388625000000000000.0000      2.2890      0.5481      4.2120    -36.3523   -999.2500      4.2120    -67.6600   -103.8638      0.3500   -999.2500      0.7000      0.8500
   3381.0000      3.5200      2.3110      0.8500   -999.2500    230.9670      0.1500 49090916870222007100000000000.0000      0.5000 270000019174388625000000000000.0000      2.3110      0.5481      4.2370    -36.0401   -999.2500      4.2370    -67.3350   -102.9718      0.3500   -999.2500      0.7000      0.8500
   3381.5000      3.5070      2.3270      0.8500   -999.2500    231.8230      0.1500 49090916870222007100000000000.0000      0.5000 270000019174388625000000000000.0000      2.3270      0.5480      4.2200    -36.8749   -999.2500      4.2200    -68.1570   -105.3570      0.3500   -999.2500      0.7000      0.8500
   3382.0000      3.5200      2.3440      0.8500   -999.2500    232.7860      0.1500 49090916870222007100000000000.0000      0.5000 270000019174388625000000000000.0000      2.3440      0.5480      4.2310    -37.9958   -999.2500      4.2310    -69.2650   -108.5593      0.3500   -999.2500      0.7000      0.8500
   3382.5000      3.5440      2.3840      0.8500   -999.2500    233.8030      0.1500 49090916870222007100000000000.0000      0.5000 270000019174388625000000000000.0000      2.3840      0.5479      4.2490    -39.4036   -999.2500      4.2490    -70.6600   -112.5817      0.3500   -999.2500      0.7000      0.8500
   3383.0000      3.5680      2.3870      0.8500   -999.2500    234.1220      0.1500 49090916870222007100000000000.0000      0.5000 270000019174388625000000000000.0000      2.3870      0.5479      4.3350    -40.3814   -999.2500      4.3350    -71.6250   -115.3755      0.3500   -999.2500      0.7000      0.8500
   3383.5000      3.5930      2.3910      0.8500   -999.2500    232.8020      0.1500 49090916870222007100000000000.0000      0.5000 270000019174388625000000000000.0000      2.3910      0.5478      4.4580    -40.3922   -999.2500      4.4580    -71.6230   -115.4064      0.3500   -999.2500      0.7000      0.8500
   3384.0000      3.5160      2.4240      0.8500   -999.2500    231.4830      0.1500 49090916870222007100000000000.0000      0.5000 270000019174388625000000000000.0000      2.4240      0.5478      4.6420    -40.1521   -999.2500      4.6420    -71.3700   -114.7202      0.3500   -999.2500      0.7000      0.8500
   3384.5000      3.4740      2.4740      0.8500   -999.2500    229.6520      0.1500 49090916870222007100000000000.0000      0.5000 270000019174388625000000000000.0000      2.4740      0.5477      4.5850    -39.9129   -999.2500      4.5850    -71.1180   -114.0368      0.3500   -999.2500      0.7000      0.8500
   3385.0000      3.5490      2.5430      0.8500   -999.2500    228.7350      0.1500 49090916870222007100000000000.0000      0.5000 270000019174388625000000000000.0000      2.5430      0.5477      4.4340    -37.0927   -999.2500      4.4340    -68.2850   -105.9791      0.3500   -999.2500      0.7000      0.8500
   3385.5000      3.6510      2.6040      0.8500   -999.2500    227.8180      0.1500 49090916870222007100000000000.0000      0.5000 270000019174388625000000000000.0000      2.6040      0.5476      4.1960    -34.2025   -999.2500      4.1960    -65.3820    -97.7215      0.3500   -999.2500      0.7000      0.8500
   3386.0000      3.7160      2.6050      0.8500   -999.2500    226.6860      0.1500 49090916870222007100000000000.0000      0.5000 270000019174388625000000000000.0000      2.6050      0.5476      3.8540    -32.0993   -999.2500      3.8540    -63.2660    -91.7124      0.3500   -999.2500      0.7000      0.8500
   3386.5000      3.7280      2.5870      0.8500   -999.2500    225.5550      0.1500 49090916870222007100000000000.0000      0.5000 270000019174388625000000000000.0000      2.5870      0.5476      3.5630    -29.8532   -999.2500      3.5630    -61.0070    -85.2947      0.3500   -999.2500      0.7000      0.8500
   3387.0000      3.7300      2.5370      0.8500   -999.2500    223.5080      0.1500 49090916870222007100000000000.0000      0.5000 270000019174388625000000000000.0000      2.5370      0.5475      3.3000    -26.9980   -999.2500      3.3000    -58.1390    -77.1371      0.3500   -999.2500      0.7000      0.8500
   3387.5000      3.7320      2.4690      0.8500   -999.2500    222.5650      0.1500 49090916870222007100000000000.0000      0.5000 270000019174388625000000000000.0000      2.4690      0.5475      3.1350    -25.9698   -999.2500      3.1350    -57.0980    -74.1994      0.3500   -999.2500      0.7000      0.8500
   3388.0000      3.7390      2.3930      0.8500   -999.2500    221.6210      0.1500 49090916870222007100000000000.0000      0.5000 270000019174388625000000000000.0000      2.3930      0.5474      3.0810    -24.9416   -999.2500      3.0810    -56.0570    -71.2618      0.3500   -999.2500      0.7000      0.8500
   3388.5000      3.7470      2.2890      0.8500   -999.2500    220.7580      0.1500 49090916870222007100000000000.0000      0.5000 270000019174388625000000000000.0000      2.2890      0.5474      3.0920    -25.5264   -999.2500      3.0920    -56.6290    -72.9327      0.3500   -999.2500      0.7000      0.8500
   3389.0000      3.7870      2.2480      0.8500   -999.2500    219.8950      0.1500 49090916870222007100000000000.0000      0.5000 270000019174388625000000000000.0000      2.2480      0.5473      3.1640    -26.1103   -999.2500      3.1640    -57.2000    -74.6007      0.3500   -999.2500      0.7000      0.8500
