~V
VERS. 2.00: Ver 2.00
WRAP.   NO:        
~W
 STRT.FT 30:
 STOP.FT 4840:
 STEP.FT 0.5:
 NULL. -999.250000:
 COMP. Standard (Chevron):Company
 WELL. KCL 44-23:Well
 FLD. Pioneer:Field
 LOC. S32 T11N R22W:Location
 STAT. CA:State
 SRVC. :Service Company
 SON. :Service Order #
 DATE. :Log Date
 UWI. 0940500:Unique Well ID
~C
 DEPT.FT :
 BVES. :
 BVTS. :
 FACE. :
 GR.RE/T :
 GRS.RE/T :
 ILD.OHMM :
 LTHE. :
 MM. :
 NEUT.CPS :
 PHES. :
 PHMX. :
 PHTS. :
 PHZC. :
 RD.OHMM :
 ROS. :
 RS.OHMM :
 SBL.MV :
 SCLN. :
 SN.OHMM :
 SP.MV :
 SPN.RE/T :
 STUS. :
 SWES. :
 SWTS. :
 VCDS. :
 VCLY. :
 VCWS. :
 VSHS. :
~P
~A
     30.0000      0.0000      0.5000      4.0000   -999.2500   -999.2500   -999.2500      1.0000   -999.2500   -999.2500      0.0000 49090916870222007100000000000.0000      0.5000 270000019174388625000000000000.0000   -999.2500      1.2750   -999.2500   -999.2500   -999.2500   -999.2500   -999.2500   -999.2500      0.2451      1.0000      1.0000      0.3500   -999.2500      0.7000      1.0000
     30.5000      0.0000      0.5000      4.0000   -999.2500   -999.2500   -999.2500      1.0000   -999.2500   -999.2500      0.0000 49090916870222007100000000000.0000      0.5000 270000019174388625000000000000.0000   -999.2500      1.2747   -999.2500      5.5860   -999.2500   -999.2500     -0.4140      7.4480      0.2451      1.0000      1.0000      0.3500   -999.2500      0.7000      1.0000
     31.0000      0.0000      0.5000      4.0000   -999.2500   -999.2500   -999.2500      1.0000   -999.2500   -999.2500      0.0000 49090916870222007100000000000.0000      0.5000 270000019174388625000000000000.0000   -999.2500      1.2745   -999.2500      2.9250   -999.2500   -999.2500     -3.0750      3.9000      0.2451      1.0000      1.0000      0.3500   -999.2500      0.7000      1.0000
     31.5000      0.0000      0.5000      4.0000   -999.2500   -999.2500   -999.2500      1.0000   -999.2500   -999.2500      0.0000 49090916870222007100000000000.0000      0.5000 270000019174388625000000000000.0000   -999.2500      1.2742   -999.2500      0.8390   -999.2500   -999.2500     -5.1610      1.1187      0.2451      1.0000      1.0000      0.3500   -999.2500      0.7000      1.0000
     32.0000      0.0000      0.5000      4.0000   -999.2500   -999.2500   -999.2500      1.0000   -999.2500   -999.2500      0.0000 49090916870222007100000000000.0000      0.5000 270000019174388625000000000000.0000   -999.2500      1.2740   -999.2500     -1.2820   -999.2500   -999.2500     -7.2820     -1.7093      0.2451      1.0000      1.0000      0.3500   -999.2500      0.7000      1.0000
     32.5000      0.0000      0.5000      4.0000   -999.2500   -999.2500   -999.2500      1.0000   -999.2500   -999.2500      0.0000 49090916870222007100000000000.0000      0.5000 270000019174388625000000000000.0000   -999.2500      1.2737   -999.2500     -2.9720   -999.2500   -999.2500     -8.9720     -3.9627      0.2451      1.0000      1.0000      0.3500   -999.2500      0.7000      1.0000
     33.0000      0.0000      0.5000      4.0000   -999.2500   -999.2500   -999.2500      1.0000   -999.2500   -999.2500      0.0000 49090916870222007100000000000.0000      0.5000 270000019174388625000000000000.0000   -999.2500      1.2735   -999.2500     -6.1730   -999.2500   -999.2500    -12.1730     -8.2307      0.2451      1.0000      1.0000      0.3500   -999.2500      0.7000      1.0000
     33.5000      0.0000      0.5000      4.0000   -999.2500   -999.2500   -999.2500      1.0000   -999.2500   -999.2500      0.0000 49090916870222007100000000000.0000      0.5000 270000019174388625000000000000.0000   -999.2500      1.2732   -999.2500     -8.7620   -999.2500   -999.2500    -14.7620    -11.6827      0.2451      1.0000      1.0000      0.3500   -999.2500      0.7000      1.0000
     34.0000      0.0000      0.5000      4.0000   -999.2500   -999.2500   -999.2500      1.0000   -999.2500   -999.2500      0.0000 49090916870222007100000000000.0000      0.5000 270000019174388625000000000000.0000   -999.2500      1.2730   -999.2500    -12.1780   -999.2500   -999.2500    -18.1780    -16.2373      0.2451      1.0000      1.0000      0.3500   -999.2500      0.7000      1.0000
     34.5000      0.0000      0.5000      4.0000   -999.2500   -999.2500   -999.2500      1.0000   -999.2500   -999.2500      0.0000 49090916870222007100000000000.0000      0.5000 270000019174388625000000000000.0000   -999.2500      1.2727   -999.2500    -13.5080   -999.2500   -999.2500    -19.5080    -18.0107      0.2451      1.0000      1.0000      0.3500   -999.2500      0.7000      1.0000
     35.0000      0.0000      0.5000      4.0000   -999.2500   -999.2500   -999.2500      1.0000   -999.2500   -999.2500      0.0000 49090916870222007100000000000.0000      0.5000 270000019174388625000000000000.0000   -999.2500      1.2725   -999.2500    -11.3880   -999.2500   -999.2500    -17.3880    -15.1840      0.2451      1.0000      1.0000      0.3500   -999.2500      0.7000      1.0000
     35.5000      0.0000      0.5000      4.0000   -999.2500   -999.2500   -999.2500      1.0000   -999.2500   -999.2500      0.0000 49090916870222007100000000000.0000      0.5000 270000019174388625000000000000.0000   -999.2500      1.2722   -999.2500     -9.7700   -999.2500   -999.2500    -15.7700    -13.0267      0.2451      1.0000      1.0000      0.3500   -999.2500      0.7000      1.0000
     36.0000      0.0000      0.5000      4.0000   -999.2500   -999.2500   -999.2500      1.0000   -999.2500   -999.2500      0.0000 49090916870222007100000000000.0000      0.5000 270000019174388625000000000000.0000   -999.2500      1.2720   -999.2500     -8.4400   -999.2500   -999.2500    -14.4400    -11.2533      0.2451      1.0000      1.0000      0.3500   -999.2500      0.7000      1.0000
     36.5000      0.0000      0.5000      4.0000   -999.2500   -999.2500   -999.2500      1.0000   -999.2500   -999.2500      0.0000 49090916870222007100000000000.0000      0.5000 270000019174388625000000000000.0000   -999.2500      1.2717      0.4610     -5.7800   -999.2500      0.4610    -11.7800     -7.7067      0.2451      1.0000      1.0000      0.3500   -999.2500      0.7000      1.0000
     37.0000      0.0000      0.5000      4.0000   -999.2500   -999.2500   -999.2500      1.0000   -999.2500   -999.2500      0.0000 49090916870222007100000000000.0000      0.5000 270000019174388625000000000000.0000   -999.2500      1.2715      1.3930     -3.1920   -999.2500      1.3930     -9.1920     -4.2560      0.2451      1.0000      1.0000      0.3500   -999.2500      0.7000      1.0000
     37.5000      0.0000      0.5000      4.0000   -999.2500   -999.2500   -999.2500      1.0000   -999.2500   -999.2500      0.0000 49090916870222007100000000000.0000      0.5000 270000019174388625000000000000.0000   -999.2500      1.2712      7.9010     -1.7190   -999.2500      7.9010     -7.7190     -2.2920      0.2451      1.0000      1.0000      0.3500   -999.2500      0.7000      1.0000
     38.0000      0.0000      0.5000      4.0000   -999.2500   -999.2500   -999.2500      1.0000   -999.2500   -999.2500      0.0000 49090916870222007100000000000.0000      0.5000 270000019174388625000000000000.0000   -999.2500      1.2710     14.4090     -0.3170   -999.2500     14.4090     -6.3170     -0.4227      0.2451      1.0000      1.0000      0.3500   -999.2500      0.7000      1.0000
     38.5000      0.0000      0.5000      4.0000   -999.2500   -999.2500   -999.2500      1.0000   -999.2500   -999.2500      0.0000 49090916870222007100000000000.0000      0.5000 270000019174388625000000000000.0000   -999.2500      1.2707     18.6390      0.9400   -999.2500     18.6390     -5.0600      1.2533      0.2451      1.0000      1.0000      0.3500   -999.2500      0.7000      1.0000
     39.0000      0.0000      0.5000      4.0000   -999.2500   -999.2500   -999.2500      1.0000   -999.2500   -999.2500      0.0000 49090916870222007100000000000.0000      0.5000 270000019174388625000000000000.0000   -999.2500      1.2705     27.1380      1.5150   -999.2500     27.1380     -4.4850      2.0200      0.2451      1.0000      1.0000      0.3500   -999.2500      0.7000      1.0000
     39.5000      0.0000      0.5000      4.0000   -999.2500   -999.2500   -999.2500      1.0000   -999.2500   -999.2500      0.0000 49090916870222007100000000000.0000      0.5000 270000019174388625000000000000.0000   -999.2500      1.2702     34.4160      2.0180   -999.2500     34.4160     -3.9820      2.6907      0.2451      1.0000      1.0000      0.3500   -999.2500      0.7000      1.0000
     40.0000      0.0000      0.5000      4.0000   -999.2500   -999.2500   -999.2500      1.0000   -999.2500   -999.2500      0.0000 49090916870222007100000000000.0000      0.5000 270000019174388625000000000000.0000   -999.2500      1.2700     41.4080      0.4000   -999.2500     41.4080     -5.6000      0.5333      0.2451      1.0000      1.0000      0.3500   -999.2500      0.7000      1.0000
