~V
VERS. 2.00: Ver 2.00
WRAP.   NO:        
~W
 STRT.FT 30:
 STOP.FT 4840:
 STEP.FT 0.5:
 NULL. -999.250000:
 COMP. Standard (Chevron):Company
 WELL. KCL 44-23:Well
 FLD. Pioneer:Field
 LOC. S32 T11N R22W:Location
 STAT. CA:State
 SRVC. :Service Company
 SON. :Service Order #
 DATE. :Log Date
 UWI. 0940500:Unique Well ID
~C
 DEPT.FT :
 BVES. :
 BVTS. :
 FACE. :
 GR.RE/T :
 GRS.RE/T :
 ILD.OHMM :
 LTHE. :
 MM. :
 NEUT.CPS :
 PHES. :
 PHMX. :
 PHTS. :
 PHZC. :
 RD.OHMM :
 ROS. :
 RS.OHMM :
 SBL.MV :
 SCLN. :
 SN.OHMM :
 SP.MV :
 SPN.RE/T :
 STUS. :
 SWES. :
 SWTS. :
 VCDS. :
 VCLY. :
 VCWS. :
 VSHS. :
~P
~A
# ...
   4530.5000      0.0100      0.3600      4.0000      4.5390      4.5219      2.7780      0.8500   -999.2500    236.1730      0.1500 49090916870222007100000000000.0000      0.5000 270000019174388625000000000000.0000      2.7780      0.4584   -999.2500   -999.2500   -999.2500   -999.2500   -999.2500    -19.5613      0.3130      0.0667      0.7200      0.3500   -999.2500      0.7000      0.8500
   4531.0000      0.0100      0.3600      4.0000      4.5550      4.4849      2.7380      0.8500   -999.2500    235.3670      0.1500 49090916870222007100000000000.0000      0.5000 270000019174388625000000000000.0000      2.7380      0.4584   -999.2500   -999.2500   -999.2500   -999.2500   -999.2500    -20.3022      0.3162      0.0667      0.7200      0.3500   -999.2500      0.7000      0.8500
   4531.5000      0.0100      0.3600      4.0000      4.5710      4.4677      2.7130      0.8500   -999.2500    234.5610      0.1500 49090916870222007100000000000.0000      0.5000 270000019174388625000000000000.0000      2.7130      0.4583   -999.2500   -999.2500   -999.2500   -999.2500   -999.2500    -20.6456      0.3182      0.0667      0.7200      0.3500   -999.2500      0.7000      0.8500
   4532.0000      0.0100      0.3600      4.0000      4.5640      4.4633      2.7100      0.8500   -999.2500    234.0220      0.1500 49090916870222007100000000000.0000      0.5000 270000019174388625000000000000.0000      2.7100      0.4583   -999.2500   -999.2500   -999.2500   -999.2500   -999.2500    -20.7347      0.3184      0.0667      0.7200      0.3500   -999.2500      0.7000      0.8500
   4532.5000      0.0100      0.3600      4.0000      4.5560      4.4747      2.7250      0.8500   -999.2500    234.2070      0.1500 49090916870222007100000000000.0000      0.5000 270000019174388625000000000000.0000      2.7250      0.4583   -999.2500   -999.2500   -999.2500   -999.2500   -999.2500    -20.5052      0.3172      0.0667      0.7200      0.3500   -999.2500      0.7000      0.8500
   4533.0000      0.0100      0.3600      4.0000      4.5360      4.4952      2.7410      0.8500   -999.2500    234.3920      0.1500 49090916870222007100000000000.0000      0.5000 270000019174388625000000000000.0000      2.7410      0.4583   -999.2500   -999.2500   -999.2500   -999.2500   -999.2500    -20.0962      0.3158      0.0667      0.7200      0.3500   -999.2500      0.7000      0.8500
   4533.5000      0.0100      0.3600      4.0000      4.5250      4.5201      2.8020      0.8500   -999.2500    234.7110      0.1500 49090916870222007100000000000.0000      0.5000 270000019174388625000000000000.0000      2.8020      0.4582   -999.2500   -999.2500   -999.2500   -999.2500   -999.2500    -19.5972      0.3109      0.0667      0.7200      0.3500   -999.2500      0.7000      0.8500
   4534.0000      0.0100      0.3600      4.0000      4.5130      4.5429      2.8800      0.8500   -999.2500    234.7080      0.1500 49090916870222007100000000000.0000      0.5000 270000019174388625000000000000.0000      2.8800      0.4582   -999.2500   -999.2500   -999.2500   -999.2500   -999.2500    -19.1420      0.3049      0.0667      0.7200      0.3500   -999.2500      0.7000      0.8500
   4534.5000      0.0100      0.3600      4.0000      4.5090      4.5589      2.9190      0.8500   -999.2500    234.9200      0.1500 49090916870222007100000000000.0000      0.5000 270000019174388625000000000000.0000      2.9190      0.4582   -999.2500   -999.2500   -999.2500   -999.2500   -999.2500    -18.8227      0.3020      0.0667      0.7200      0.3500   -999.2500      0.7000      0.8500
   4535.0000      0.0100      0.3600      4.0000      4.5050      4.5693      2.9550      0.8500   -999.2500    235.5060      0.1500 49090916870222007100000000000.0000      0.5000 270000019174388625000000000000.0000      2.9550      0.4581   -999.2500   -999.2500   -999.2500   -999.2500   -999.2500    -18.6136      0.2993      0.0667      0.7200      0.3500   -999.2500      0.7000      0.8500
   4535.5000      0.0100      0.3600      4.0000      4.5090      4.5621      2.9900      0.8500   -999.2500    235.3430      0.1500 49090916870222007100000000000.0000      0.5000 270000019174388625000000000000.0000      2.9900      0.4581   -999.2500   -999.2500   -999.2500   -999.2500   -999.2500    -18.7580      0.2968      0.0667      0.7200      0.3500   -999.2500      0.7000      0.8500
   4536.0000      0.0100      0.3600      4.0000      4.5120      4.5513      3.0690      0.8500   -999.2500    233.3580      0.1500 49090916870222007100000000000.0000      0.5000 270000019174388625000000000000.0000      3.0690      0.4581   -999.2500   -999.2500   -999.2500   -999.2500   -999.2500    -18.9743      0.2912      0.0667      0.7200      0.3500   -999.2500      0.7000      0.8500
   4536.5000      0.0100      0.3600      4.0000      4.5200      4.5334      3.0990      0.8500   -999.2500    232.6590      0.1500 49090916870222007100000000000.0000      0.5000 270000019174388625000000000000.0000      3.0990      0.4580   -999.2500   -999.2500   -999.2500   -999.2500   -999.2500    -19.3315      0.2892      0.0667      0.7200      0.3500   -999.2500      0.7000      0.8500
   4537.0000      0.0100      0.3600      4.0000      4.5280      4.5222      3.1290      0.8500   -999.2500    232.2550      0.1500 49090916870222007100000000000.0000      0.5000 270000019174388625000000000000.0000      3.1290      0.4580   -999.2500   -999.2500   -999.2500   -999.2500   -999.2500    -19.5557      0.2872      0.0667      0.7200      0.3500   -999.2500      0.7000      0.8500
   4537.5000      0.0100      0.3600      4.0000      4.5420      4.5121      3.1540      0.8500   -999.2500    231.8510      0.1500 49090916870222007100000000000.0000      0.5000 270000019174388625000000000000.0000      3.1540      0.4580   -999.2500   -999.2500   -999.2500   -999.2500   -999.2500    -19.7584      0.2855      0.0667      0.7200      0.3500   -999.2500      0.7000      0.8500
   4538.0000      0.0100      0.3600      4.0000      4.5440      4.5081      3.1640      0.8500   -999.2500    232.2760      0.1500 49090916870222007100000000000.0000      0.5000 270000019174388625000000000000.0000      3.1640      0.4579   -999.2500   -999.2500   -999.2500   -999.2500   -999.2500    -19.8382      0.2848      0.0667      0.7200      0.3500   -999.2500      0.7000      0.8500
   4538.5000      0.0100      0.3600      4.0000      4.5480      4.5059      3.1620      0.8500   -999.2500    232.8360      0.1500 49090916870222007100000000000.0000      0.5000 270000019174388625000000000000.0000      3.1620      0.4579   -999.2500   -999.2500   -999.2500   -999.2500   -999.2500    -19.8819      0.2850      0.0667      0.7200      0.3500   -999.2500      0.7000      0.8500
   4539.0000      0.0100      0.3600      4.0000      4.5530      4.5097      3.1610      0.8500   -999.2500    233.3960      0.1500 49090916870222007100000000000.0000      0.5000 270000019174388625000000000000.0000      3.1610      0.4579   -999.2500   -999.2500   -999.2500   -999.2500   -999.2500    -19.8066      0.2850      0.0667      0.7200      0.3500   -999.2500      0.7000      0.8500
   4539.5000      0.0100      0.3600      4.0000      4.5520      4.5138      3.1480      0.8500   -999.2500    234.8930      0.1500 49090916870222007100000000000.0000      0.5000 270000019174388625000000000000.0000      3.1480      0.4578   -999.2500   -999.2500   -999.2500   -999.2500   -999.2500    -19.7244      0.2858      0.0667      0.7200      0.3500   -999.2500      0.7000      0.8500
   4540.0000      0.0100      0.3600      4.0000      4.5450      4.5218      3.1350      0.8500   -999.2500    235.7470      0.1500 49090916870222007100000000000.0000      0.5000 270000019174388625000000000000.0000      3.1350      0.4578   -999.2500   -999.2500   -999.2500   -999.2500   -999.2500    -19.5648      0.2867      0.0667      0.7200      0.3500   -999.2500      0.7000      0.8500
   4540.5000      0.0100      0.3600      4.0000      4.5270      4.5311      3.1030      0.8500   -999.2500    236.6020      0.1500 49090916870222007100000000000.0000      0.5000 270000019174388625000000000000.0000      3.1030      0.4578   -999.2500   -999.2500   -999.2500   -999.2500   -999.2500    -19.3789      0.2888      0.0667      0.7200      0.3500   -999.2500      0.7000      0.8500
