~V
VERS. 2.00: Ver 2.00
WRAP.   NO:        
~W
 STRT.FT 20:
 STOP.FT 4330:
 STEP.FT 0.5:
 NULL. -999.250000:
 COMP. Standard (Chevron):Company
 WELL. KCL 44-25:Well
 FLD. Pioneer:Field
 LOC. S32 T11N R22W:Location
 STAT. CA:State
 SRVC. :Service Company
 SON. :Service Order #
 DATE. :Log Date
 UWI. 0940600:Unique Well ID
~C
 DEPT.FT :
 BVES. :
 BVTS. :
 FACE. :
 GR.RE/T :
 GRS.RE/T :
 ILD.OHMM :
 LTHE. :
 MM. :
 NEUS.CPS :
 NEUT.CPS :
 PHES. :
 PHMX. :
 PHTS. :
 PHZC. :
 RD.OHMM :
 ROS. :
 RS.OHMM :
 SBL.MV :
 SCLN. :
 SN.OHMM :
 SP.MV :
 SPN. :
 STUS. :
 SWES. :
 SWTS. :
 VCDS. :
 VCLY. :
 VCWS. :
 VSHS. :
~P
~A
# ...
   2058.5000      0.3011      0.4181      3.0000   -999.2500   -999.2500      1.2740      0.6989      2.3287   -999.2500   -999.2500      0.3011      0.1730      0.4181      0.4915      1.2740      1.5266      1.5370    -16.7924    -77.7491      1.5370    -50.1470    -20.9906      1.0830      1.0000      1.0000      0.1170      0.2340      0.2340      0.6989
   2059.0000      0.3036      0.4187      3.0000   -999.2500   -999.2500      1.2130      0.6964      2.3168   -999.2500   -999.2500      0.3036      0.1732      0.4187      0.4925      1.2130      1.5082      1.5470    -17.1628    -77.7531      1.5470    -50.4980    -21.4536      1.1013      1.0000      1.0000      0.1151      0.2302      0.2302      0.6964
   2059.5000      0.2895      0.4153      3.0000   -999.2500   -999.2500      1.2020      0.7105      2.3852   -999.2500   -999.2500      0.2895      0.1721      0.4153      0.4868      1.2020      1.6176      1.5580    -15.0492    -77.7571      1.5580    -48.3650    -18.8115      1.1360      1.0000      1.0000      0.1258      0.2516      0.2516      0.7105
   2060.0000      0.2766      0.4122      3.0000   -999.2500   -999.2500      1.1870      0.7234      2.4477   -999.2500   -999.2500      0.2766      0.1712      0.4122      0.4815      1.1870      1.7265      1.5320    -13.1166    -77.7611      1.5320    -46.4130    -16.3958      1.1693      1.0000      1.0000      0.1356      0.2712      0.2712      0.7234
   2060.5000      0.2731      0.4113      3.0000   -999.2500   -999.2500      1.1560      0.7269      2.4645   -999.2500   -999.2500      0.2731      0.1709      0.4113      0.4800      1.1560      1.7573      1.4970    -12.5980    -77.7651      1.4970    -45.8750    -15.7475      1.1895      1.0000      1.0000      0.1382      0.2764      0.2764      0.7269
   2061.0000      0.2989      0.4175      3.0000   -999.2500   -999.2500      1.1390      0.7011      2.3393   -999.2500   -999.2500      0.2989      0.1728      0.4175      0.4906      1.1390      1.5431      1.4730    -16.4704    -77.7691      1.4730    -49.7280    -20.5880      1.1425      1.0000      1.0000      0.1186      0.2373      0.2373      0.7011
   2061.5000      0.3115      0.4205      3.0000   -999.2500   -999.2500      1.1470      0.6885      2.2782   -999.2500   -999.2500      0.3115      0.1738      0.4205      0.4957      1.1470      1.4504      1.4780    -18.3628    -77.7732      1.4780    -51.6010    -22.9535      1.1117      1.0000      1.0000      0.1091      0.2182      0.2182      0.6885
   2062.0000      0.3133      0.4210      3.0000   -999.2500   -999.2500      1.1590      0.6867      2.2694   -999.2500   -999.2500      0.3133      0.1739      0.4210      0.4965      1.1590      1.4377      1.5010    -18.6362    -77.7772      1.5010    -51.8550    -23.2953      1.1025      1.0000      1.0000      0.1077      0.2154      0.2154      0.6867
   2062.5000      0.2825      0.4136      3.0000   -999.2500   -999.2500      1.1710      0.7175      2.4189   -999.2500   -999.2500      0.2825      0.1716      0.4136      0.4838      1.1710      1.6750      1.4980    -14.0136    -77.7812      1.4980    -47.2130    -17.5170      1.1635      1.0000      1.0000      0.1311      0.2621      0.2621      0.7175
   2063.0000      0.2723      0.4111      3.0000   -999.2500   -999.2500      1.1830      0.7277      2.4682   -999.2500   -999.2500      0.2723      0.1708      0.4111      0.4797      1.1830      1.7641      1.4780    -12.4880    -77.7852      1.4780    -45.6680    -15.6100      1.1797      1.0000      1.0000      0.1388      0.2776      0.2776      0.7277
   2063.5000      0.2532      0.4064      3.0000   -999.2500   -999.2500      1.1950      0.7468      2.5607   -999.2500   -999.2500      0.2532      0.1694      0.4064      0.4719      1.1950      1.9476      1.4570     -9.6294    -77.7892      1.4570    -42.7900    -12.0368      1.2138      1.0000      1.0000      0.1532      0.3065      0.3065      0.7468
   2064.0000      0.2384      0.4028      3.0000   -999.2500   -999.2500      1.2350      0.7616      2.6322   -999.2500   -999.2500      0.2384      0.1683      0.4028      0.4658      1.2350      2.1061      1.4350     -7.4188    -77.7933      1.4350    -40.5600     -9.2735      1.2344      1.0000      1.0000      0.1644      0.3288      0.3288      0.7616
   2064.5000      0.2296      0.4007      3.0000   -999.2500   -999.2500      1.2540      0.7704      2.6746   -999.2500   -999.2500      0.2296      0.1677      0.4007      0.4622      1.2540      2.2077      1.4130     -6.1082    -77.7973      1.4130    -39.2300     -7.6353      1.2455      1.0000      1.0000      0.1710      0.3421      0.3421      0.7704
   2065.0000      0.2206      0.3984      3.0000   -999.2500   -999.2500      1.2610      0.7794      2.7026   -999.2500   -999.2500      0.2206      0.1670      0.3984      0.4585      1.2610      2.2857      1.3560     -4.7616    -77.8013      1.3560    -37.8640     -5.9520      1.2567      1.0000      1.0000      0.1778      0.3557      0.3557      0.7794
   2065.5000      0.2190      0.3981      3.0000   -999.2500   -999.2500      1.2670      0.7810      2.7037   -999.2500   -999.2500      0.2190      0.1669      0.3981      0.4579      1.2670      2.2915      1.4220     -4.5310    -77.8053      1.4220    -37.6140     -5.6637      1.2556      1.0000      1.0000      0.1790      0.3580      0.3580      0.7810
   2066.0000      0.2642      0.4091      3.0000   -999.2500   -999.2500      1.2770      0.7358      2.5074   -999.2500   -999.2500      0.2642      0.1702      0.4091      0.4763      1.2770      1.8388      1.4840    -11.2834    -77.8093      1.4840    -44.3470    -14.1042      1.1596      1.0000      1.0000      0.1449      0.2898      0.2898      0.7358
   2066.5000      0.2739      0.4114      3.0000   -999.2500   -999.2500      1.2870      0.7261      2.4602   -999.2500   -999.2500      0.2739      0.1710      0.4114      0.4803      1.2870      1.7490      1.4960    -12.7438    -77.8134      1.4960    -45.7880    -15.9297      1.1357      1.0000      1.0000      0.1375      0.2751      0.2751      0.7261
   2067.0000      0.2838      0.4138      3.0000   -999.2500   -999.2500      1.2920      0.7162      2.4118   -999.2500   -999.2500      0.2838      0.1717      0.4138      0.4843      1.2920      1.6625      1.4860    -14.2412    -77.8174      1.4860    -47.2660    -17.8015      1.1129      1.0000      1.0000      0.1300      0.2600      0.2600      0.7162
   2067.5000      0.2863      0.4144      3.0000   -999.2500   -999.2500      1.2970      0.7137      2.3996   -999.2500   -999.2500      0.2863      0.1719      0.4144      0.4854      1.2970      1.6414      1.4620    -14.6216    -77.8214      1.4620    -47.6270    -18.2770      1.1057      1.0000      1.0000      0.1281      0.2561      0.2561      0.7137
   2068.0000      0.2704      0.4105      3.0000   -999.2500   -999.2500      1.2800      0.7296      2.4769   -999.2500   -999.2500      0.2704      0.1707      0.4105      0.4788      1.2800      1.7799      1.4600    -12.2320    -77.8254      1.4600    -45.2180    -15.2900      1.1454      1.0000      1.0000      0.1401      0.2803      0.2803      0.7296
   2068.5000      0.2655      0.4093      3.0000   -999.2500   -999.2500      1.2490      0.7345      2.5006   -999.2500   -999.2500      0.2655      0.1703      0.4093      0.4768      1.2490      1.8255      1.4610    -11.4974    -77.8294      1.4610    -44.4640    -14.3717      1.1672      1.0000      1.0000      0.1438      0.2877      0.2877      0.7345
   2069.0000      0.2687      0.4101      3.0000   -999.2500   -999.2500      1.2140      0.7313      2.4849   -999.2500   -999.2500      0.2687      0.1706      0.4101      0.4781      1.2140      1.7951      1.4580    -11.9858    -77.8335      1.4580    -44.9330    -14.9822      1.1741      1.0000      1.0000      0.1414      0.2828      0.2828      0.7313
   2069.5000      0.2873      0.4146      3.0000   -999.2500   -999.2500      1.1930      0.7127      2.3946   -999.2500   -999.2500      0.2873      0.1720      0.4146      0.4857      1.1930      1.6329      1.4560    -14.7792    -77.8375      1.4560    -47.7070    -18.4740      1.1437      1.0000      1.0000      0.1273      0.2546      0.2546      0.7127
