~V
VERS. 2.00: Ver 2.00
WRAP.   NO:        
~W
 STRT.FT 35:
 STOP.FT 5500:
 STEP.FT 0.5:
 NULL. -999.250000:
 COMP. Standard (Chevron):Company
 WELL. KCL 45-56:Well
 FLD. :Field
 LOC. S30 T11N R22W:Location
 STAT. CA:State
 SRVC. :Service Company
 SON. :Service Order #
 DATE. :Log Date
 UWI. 0369100:Unique Well ID
~C
 DEPT.FT :
 BVES. :
 BVTS. :
 ILD.OHMM :
 LLD.OHMM :
 LTHE. :
 MM. :
 PHES. :
 PHMX. :
 PHTS. :
 PHZC. :
 RD.OHMM :
 ROS. :
 RS.OHMM :
 SBL.MV :
 SCLN. :
 SN.OHMM :
 SP.MV :
 SPN. :
 STUS. :
 SWES. :
 SWTS. :
 VCDS. :
 VCLY. :
 VCWS. :
 VSHS. :
~P
~A
# ...
   2505.0000      0.1270      0.3515   -999.2500      2.8530      0.8522      2.7461      0.1478      0.1607      0.3723      0.4236      2.8530      2.5054   -999.2500     -5.0628    -50.0000   -999.2500    -12.6250     -5.0628      0.9440      0.8590      0.9440      0.2245      0.4491      0.4491      0.8522
   2505.5000      0.1285      0.3495   -999.2500      2.9240      0.8475      2.7429      0.1525      0.1610      0.3735      0.4255      2.9240      2.4855   -999.2500     -5.5293    -50.0000   -999.2500    -13.0920     -5.5293      0.9357      0.8426      0.9357      0.2210      0.4421      0.4421      0.8475
   2506.0000      0.1240      0.3423   -999.2500      3.0750      0.8439      2.7405      0.1561      0.1613      0.3744      0.4270      3.0750      2.4703   -999.2500     -5.8889    -50.0000   -999.2500    -13.4520     -5.8889      0.9144      0.7945      0.9144      0.2183      0.4367      0.4367      0.8439
   2506.5000      0.1183      0.3344   -999.2500      3.2540      0.8411      2.7385      0.1589      0.1615      0.3751      0.4281      3.2540      2.4583   -999.2500     -6.1764    -50.0000   -999.2500    -13.7400     -6.1764      0.8916      0.7441      0.8916      0.2162      0.4324      0.4324      0.8411
   2507.0000      0.1158      0.3298   -999.2500      3.3650      0.8382      2.7366      0.1618      0.1617      0.3758      0.4293      3.3650      2.4465   -999.2500     -6.4639    -50.0000   -999.2500    -14.0280     -6.4639      0.8777      0.7158      0.8777      0.2140      0.4280      0.4280      0.8382
   2507.5000      0.1119      0.3275   -999.2500      3.4220      0.8404      2.7381      0.1596      0.1615      0.3753      0.4284      3.4220      2.4553   -999.2500     -6.2514    -50.0000   -999.2500    -13.8160     -6.2514      0.8729      0.7012      0.8729      0.2156      0.4312      0.4312      0.8404
   2508.0000      0.1084      0.3267   -999.2500      3.4430      0.8439      2.7406      0.1561      0.1613      0.3744      0.4269      3.4430      2.4704   -999.2500     -5.8939    -50.0000   -999.2500    -13.4590     -5.8939      0.8728      0.6948      0.8728      0.2183      0.4366      0.4366      0.8439
   2508.5000      0.1151      0.3369   -999.2500      3.1960      0.8486      2.7439      0.1514      0.1609      0.3732      0.4251      3.1960      2.4901   -999.2500     -5.4294    -50.0000   -999.2500    -12.9950     -5.4294      0.9028      0.7605      0.9028      0.2218      0.4436      0.4436      0.8486
   2509.0000      0.1184      0.3429   -999.2500      3.0630      0.8522      2.7464      0.1478      0.1607      0.3723      0.4236      3.0630      2.5055   -999.2500     -5.0730    -50.0000   -999.2500    -12.6390     -5.0730      0.9210      0.8011      0.9210      0.2245      0.4489      0.4489      0.8522
   2509.5000      0.1228      0.3480   -999.2500      2.9550      0.8531      2.7471      0.1469      0.1606      0.3720      0.4232      2.9550      2.5097   -999.2500     -4.9665    -50.0000   -999.2500    -12.5330     -4.9665      0.9353      0.8362      0.9353      0.2252      0.4503      0.4503      0.8531
   2510.0000      0.1210      0.3449   -999.2500      3.0190      0.8515      2.7459      0.1485      0.1607      0.3724      0.4239      3.0190      2.5024   -999.2500     -5.1470    -50.0000   -999.2500    -12.7140     -5.1470      0.9261      0.8146      0.9261      0.2239      0.4478      0.4478      0.8515
   2510.5000      0.1190      0.3407   -999.2500      3.1090      0.8486      2.7440      0.1514      0.1609      0.3731      0.4250      3.1090      2.4903   -999.2500     -5.4325    -50.0000   -999.2500    -13.0000     -5.4325      0.9132      0.7860      0.9132      0.2218      0.4435      0.4435      0.8486
   2511.0000      0.1185      0.3379   -999.2500      3.1730      0.8454      2.7418      0.1546      0.1611      0.3739      0.4263      3.1730      2.4766   -999.2500     -5.7550    -50.0000   -999.2500    -13.3230     -5.7550      0.9036      0.7667      0.9036      0.2193      0.4387      0.4387      0.8454
   2511.5000      0.1189      0.3359   -999.2500      3.2190      0.8422      2.7396      0.1578      0.1614      0.3747      0.4276      3.2190      2.4632   -999.2500     -6.0765    -50.0000   -999.2500    -13.6450     -6.0765      0.8963      0.7537      0.8963      0.2169      0.4339      0.4339      0.8422
   2512.0000      0.1187      0.3373   -999.2500      3.1860      0.8444      2.7412      0.1556      0.1612      0.3742      0.4267      3.1860      2.4723   -999.2500     -5.8611    -50.0000   -999.2500    -13.4300     -5.8611      0.9014      0.7630      0.9014      0.2185      0.4371      0.4371      0.8444
   2512.5000      0.1196      0.3384   -999.2500      3.1600      0.8447      2.7414      0.1553      0.1612      0.3741      0.4266      3.1600      2.4739   -999.2500     -5.8256    -50.0000   -999.2500    -13.3950     -5.8256      0.9047      0.7703      0.9047      0.2188      0.4376      0.4376      0.8447
   2513.0000      0.1220      0.3395   -999.2500      3.1350      0.8430      2.7402      0.1570      0.1613      0.3745      0.4273      3.1350      2.4664   -999.2500     -6.0041    -50.0000   -999.2500    -13.5740     -6.0041      0.9065      0.7771      0.9065      0.2175      0.4349      0.4349      0.8430
   2513.5000      0.1242      0.3400   -999.2500      3.1230      0.8408      2.7388      0.1592      0.1615      0.3750      0.4281      3.1230      2.4575   -999.2500     -6.2186    -50.0000   -999.2500    -13.7890     -6.2186      0.9067      0.7801      0.9067      0.2159      0.4317      0.4317      0.8408
   2514.0000      0.1230      0.3386   -999.2500      3.1550      0.8405      2.7386      0.1595      0.1615      0.3751      0.4283      3.1550      2.4561   -999.2500     -6.2531    -50.0000   -999.2500    -13.8240     -6.2531      0.9027      0.7711      0.9027      0.2156      0.4312      0.4312      0.8405
   2514.5000      0.1197      0.3369   -999.2500      3.1940      0.8427      2.7401      0.1573      0.1613      0.3746      0.4274      3.1940      2.4652   -999.2500     -6.0386    -50.0000   -999.2500    -13.6100     -6.0386      0.8994      0.7606      0.8994      0.2172      0.4344      0.4344      0.8427
   2515.0000      0.1171      0.3359   -999.2500      3.2170      0.8448      2.7417      0.1552      0.1612      0.3740      0.4265      3.2170      2.4743   -999.2500     -5.8232    -50.0000   -999.2500    -13.3950     -5.8232      0.8981      0.7544      0.8981      0.2188      0.4377      0.4377      0.8448
   2515.5000   -999.2500   -999.2500   -999.2500      3.2400   -999.2500   -999.2500   -999.2500   -999.2500   -999.2500   -999.2500      3.2400   -999.2500   -999.2500     -5.9657   -999.2500   -999.2500    -13.5380     -5.9657   -999.2500   -999.2500   -999.2500   -999.2500   -999.2500   -999.2500   -999.2500
   2516.0000   -999.2500   -999.2500   -999.2500      3.3790   -999.2500   -999.2500   -999.2500   -999.2500   -999.2500   -999.2500      3.3790   -999.2500   -999.2500     -6.0012   -999.2500   -999.2500    -13.5740     -6.0012   -999.2500   -999.2500   -999.2500   -999.2500   -999.2500   -999.2500   -999.2500
   2516.5000   -999.2500   -999.2500   -999.2500      3.5760   -999.2500   -999.2500   -999.2500   -999.2500   -999.2500   -999.2500      3.5760   -999.2500   -999.2500     -5.8927   -999.2500   -999.2500    -13.4660     -5.8927   -999.2500   -999.2500   -999.2500   -999.2500   -999.2500   -999.2500   -999.2500
   2517.0000   -999.2500   -999.2500   -999.2500      3.8080   -999.2500   -999.2500   -999.2500   -999.2500   -999.2500   -999.2500      3.8080   -999.2500   -999.2500     -5.6422   -999.2500   -999.2500    -13.2160     -5.6422   -999.2500   -999.2500   -999.2500   -999.2500   -999.2500   -999.2500   -999.2500
   2517.5000   -999.2500   -999.2500   -999.2500      3.9760   -999.2500   -999.2500   -999.2500   -999.2500   -999.2500   -999.2500      3.9760   -999.2500   -999.2500     -5.3187   -999.2500   -999.2500    -12.8930     -5.3187   -999.2500   -999.2500   -999.2500   -999.2500   -999.2500   -999.2500   -999.2500
