~V
VERS. 2.00: Ver 2.00
WRAP.   NO:        
~W
 STRT.FT 10:
 STOP.FT 5350:
 STEP.FT 0.5:
 NULL. -999.250000:
 COMP. Standard (Chevron):Company
 WELL. KCL 44-12:Well
 FLD. Pioneer:Field
 LOC. S32 T11N R22W:Location
 STAT. CA:State
 SRVC. :Service Company
 SON. :Service Order #
 DATE. :Log Date
 UWI. 0940400:Unique Well ID
~C
 DEPT.FT :
 GRS.RE/T :
 ILD.OHMM :
 LTHE. :
 MM. :
 NEUT.CPS :
 PHES. :
 PHMX. :
 PHTS. :
 PHZC. :
 RD.OHMM :
 ROS. :
 RS.OHMM :
 SBL.MV :
 SCLN. :
 SN.OHMM :
 SP.MV :
 SPN. :
 VCDS. :
 VCLY. :
 VCWS. :
 VSHS. :
~P
~A
# ...
   1898.0000   -999.2500      1.3440      0.7453      2.5730   -999.2500      0.2547      0.1699      0.4099      0.4745      1.3440      1.9866      1.3190    -10.0997   -138.2180      1.3190    -55.2630    -28.8563      0.1552      0.3103      0.3103      0.7453
   1898.5000   -999.2500      1.3480      0.7413      2.5536   -999.2500      0.2587      0.1702      0.4108      0.4761      1.3480      1.9453      1.3190    -10.5336   -138.2212      1.3190    -55.6920    -30.0960      0.1521      0.3043      0.3043      0.7413
   1899.0000   -999.2500      1.3530      0.7373      2.5342   -999.2500      0.2627      0.1705      0.4118      0.4777      1.3530      1.9050      1.3190    -10.9685   -138.2244      1.3190    -56.1220    -31.3385      0.1491      0.2982      0.2982      0.7373
   1899.5000   -999.2500      1.3580      0.7346      2.5211   -999.2500      0.2654      0.1707      0.4124      0.4788      1.3580      1.8784      1.3260    -11.2614   -138.2277      1.3260    -56.4100    -32.1754      0.1470      0.2941      0.2941      0.7346
   1900.0000   -999.2500      1.3690      0.7362      2.5288   -999.2500      0.2638      0.1706      0.4120      0.4781      1.3690      1.8939      1.3360    -11.0893   -138.2309      1.3360    -56.2330    -31.6836      0.1483      0.2965      0.2965      0.7362
   1900.5000   -999.2500      1.3790      0.7411      2.5526   -999.2500      0.2589      0.1702      0.4108      0.4761      1.3790      1.9430      1.3830    -10.5582   -138.2342      1.3830    -55.6970    -30.1662      0.1520      0.3039      0.3039      0.7411
   1901.0000   -999.2500      1.4040      0.7454      2.5731   -999.2500      0.2546      0.1699      0.4098      0.4744      1.4040      1.9865      1.4300    -10.1001   -138.2374      1.4300    -55.2340    -28.8573      0.1552      0.3103      0.3103      0.7454
   1901.5000   -999.2500      1.4260      0.7417      2.5552   -999.2500      0.2583      0.1702      0.4107      0.4759      1.4260      1.9484      1.4910    -10.5000   -138.2407      1.4910    -55.6290    -29.9999      0.1524      0.3048      0.3048      0.7417
   1902.0000   -999.2500      1.4440      0.7347      2.5214   -999.2500      0.2653      0.1707      0.4124      0.4787      1.4440      1.8787      1.5200    -11.2568   -138.2439      1.5200    -56.3810    -32.1624      0.1471      0.2942      0.2942      0.7347
   1902.5000   -999.2500      1.4470      0.7284      2.4907   -999.2500      0.2716      0.1711      0.4139      0.4813      1.4470      1.8183      1.5230    -11.9427   -138.2471      1.5230    -57.0620    -34.1221      0.1423      0.2846      0.2846      0.7284
   1903.0000   -999.2500      1.4430      0.7208      2.4536   -999.2500      0.2792      0.1717      0.4157      0.4844      1.4430      1.7484      1.4980    -12.7716   -138.2504      1.4980    -57.8860    -36.4904      0.1365      0.2730      0.2730      0.7208
   1903.5000   -999.2500      1.4430      0.7155      2.4277   -999.2500      0.2845      0.1721      0.4170      0.4866      1.4430      1.7017      1.4830    -13.3505   -138.2536      1.4830    -58.4600    -38.1443      0.1325      0.2649      0.2649      0.7155
   1904.0000   -999.2500      1.4300      0.7115      2.4083   -999.2500      0.2885      0.1724      0.4180      0.4882      1.4300      1.6675      1.4650    -13.7864   -138.2569      1.4650    -58.8910    -39.3897      0.1294      0.2588      0.2588      0.7115
   1904.5000   -999.2500      1.4180      0.7131      2.4160   -999.2500      0.2869      0.1723      0.4176      0.4876      1.4180      1.6809      1.4390    -13.6143   -138.2601      1.4390    -58.7140    -38.8980      0.1306      0.2612      0.2612      0.7131
   1905.0000   -999.2500      1.3960      0.7183      2.4414   -999.2500      0.2817      0.1719      0.4163      0.4854      1.3960      1.7260      1.4160    -13.0472   -138.2633      1.4160    -58.1420    -37.2777      0.1346      0.2692      0.2692      0.7183
   1905.5000   -999.2500      1.3740      0.7285      2.4907   -999.2500      0.2715      0.1711      0.4138      0.4812      1.3740      1.8180      1.3920    -11.9451   -138.2666      1.3920    -57.0350    -34.1288      0.1423      0.2846      0.2846      0.7285
   1906.0000   -999.2500      1.3450      0.7314      2.5048   -999.2500      0.2686      0.1709      0.4131      0.4800      1.3450      1.8455      1.3770    -11.6300   -138.2698      1.3770    -56.7150    -33.2285      0.1445      0.2890      0.2890      0.7314
   1906.5000   -999.2500      1.3230      0.7251      2.4741   -999.2500      0.2749      0.1714      0.4146      0.4826      1.3230      1.7864      1.3630    -12.3159   -138.2731      1.3630    -57.3960    -35.1882      0.1397      0.2794      0.2794      0.7251
   1907.0000   -999.2500      1.2970      0.7165      2.4323   -999.2500      0.2835      0.1720      0.4167      0.4861      1.2970      1.7095      1.3230    -13.2518   -138.2763      1.3230    -58.3270    -37.8622      0.1332      0.2663      0.2663      0.7165
   1907.5000   -999.2500      1.2790      0.7092      2.3968   -999.2500      0.2908      0.1726      0.4184      0.4891      1.2790      1.6475      1.3150    -14.0457   -138.2796      1.3150    -59.1160    -40.1305      0.1276      0.2552      0.2552      0.7092
   1908.0000   -999.2500      1.2650      0.7144      2.4222   -999.2500      0.2856      0.1722      0.4172      0.4870      1.2650      1.6915      1.3080    -13.4786   -138.2828      1.3080    -58.5440    -38.5102      0.1316      0.2632      0.2632      0.7144
   1908.5000   -999.2500      1.2500      0.7180      2.4395   -999.2500      0.2820      0.1719      0.4163      0.4855      1.2500      1.7223      1.2900    -13.0924   -138.2860      1.2900    -58.1530    -37.4070      0.1343      0.2686      0.2686      0.7180
   1909.0000   -999.2500      1.2280      0.7127      2.4136   -999.2500      0.2873      0.1723      0.4176      0.4877      1.2280      1.6764      1.2860    -13.6703   -138.2893      1.2860    -58.7260    -39.0581      0.1303      0.2605      0.2605      0.7127
   1909.5000   -999.2500      1.2140      0.7074      2.3878   -999.2500      0.2926      0.1727      0.4188      0.4898      1.2140      1.6321      1.2820    -14.2482   -138.2925      1.2820    -59.2990    -40.7093      0.1262      0.2524      0.2524      0.7074
   1910.0000   -999.2500      1.1990      0.6951      2.3283   -999.2500      0.3049      0.1736      0.4218      0.4948      1.1990      1.5356      1.2750    -15.5791   -138.2958      1.2750    -60.6250    -44.5118      0.1169      0.2338      0.2338      0.6951
   1910.5000   -999.2500      1.1770      0.6948      2.3264   -999.2500      0.3052      0.1736      0.4219      0.4950      1.1770      1.5327      1.2750    -15.6210   -138.2990      1.2750    -60.6620    -44.6315      0.1166      0.2333      0.2333      0.6948
   1911.0000   -999.2500      1.1880      0.6970      2.3373   -999.2500      0.3030      0.1735      0.4213      0.4941      1.1880      1.5497      1.2750    -15.3779   -138.3023      1.2750    -60.4140    -43.9369      0.1183      0.2367      0.2367      0.6970
   1911.5000   -999.2500      1.2200      0.6993      2.3483   -999.2500      0.3007      0.1733      0.4207      0.4931      1.2200      1.5671      1.2740    -15.1338   -138.3055      1.2740    -60.1650    -43.2395      0.1200      0.2401      0.2401      0.6993
   1912.0000   -999.2500      1.2450      0.7039      2.3704   -999.2500      0.2961      0.1730      0.4196      0.4912      1.2450      1.6030      1.2780    -14.6387   -138.3087      1.2780    -59.6650    -41.8249      0.1235      0.2470      0.2470      0.7039
   1912.5000   -999.2500      1.2560      0.7127      2.4134   -999.2500      0.2873      0.1723      0.4175      0.4876      1.2560      1.6757      1.2880    -13.6786   -138.3120      1.2880    -58.7000    -39.0817      0.1302      0.2604      0.2604      0.7127
   1913.0000   -999.2500      1.2670      0.7275      2.4851   -999.2500      0.2725      0.1712      0.4139      0.4815      1.2670      1.8067      1.2990    -12.0755   -138.3152      1.2990    -57.0920    -34.5014      0.1414      0.2828      0.2828      0.7275
