~V
VERS. 2.00: Ver 2.00
WRAP.   NO:        
~W
 STRT.FT 30:
 STOP.FT 4840:
 STEP.FT 0.5:
 NULL. -999.250000:
 COMP. Standard (Chevron):Company
 WELL. KCL 44-23:Well
 FLD. Pioneer:Field
 LOC. S32 T11N R22W:Location
 STAT. CA:State
 SRVC. :Service Company
 SON. :Service Order #
 DATE. :Log Date
 UWI. 0940500:Unique Well ID
~C
 DEPT.FT :
 BVES. :
 BVTS. :
 FACE. :
 GR.RE/T :
 GRS.RE/T :
 ILD.OHMM :
 LTHE. :
 MM. :
 NEUT.CPS :
 PHES. :
 PHMX. :
 PHTS. :
 PHZC. :
 RD.OHMM :
 ROS. :
 RS.OHMM :
 SBL.MV :
 SCLN. :
 SN.OHMM :
 SP.MV :
 SPN.RE/T :
 STUS. :
 SWES. :
 SWTS. :
 VCDS. :
 VCLY. :
 VCWS. :
 VSHS. :
~P
~A
# ...
    976.0000      0.2902      0.3819      3.0000   -999.2500   -999.2500      1.9870      0.6391      2.1669   -999.2500      0.3609      0.1798      0.4526      0.5290      1.9870      1.3845      2.3270    -10.0600    -47.3819      2.3270    -65.1810    -13.4133      0.8439      0.8042      0.8439      0.0917      0.1834      0.1834      0.6113
    976.5000      0.2852      0.3772      3.0000   -999.2500   -999.2500      2.0430      0.6395      2.1688   -999.2500      0.3605      0.1798      0.4525      0.5288      2.0430      1.3870      2.4590    -10.0288    -47.3993      2.4590    -65.1390    -13.3718      0.8338      0.7913      0.8338      0.0920      0.1840      0.1840      0.6133
    977.0000      0.2798      0.3724      3.0000   -999.2500   -999.2500      2.1070      0.6403      2.1725   -999.2500      0.3597      0.1797      0.4523      0.5285      2.1070      1.3920      2.5620     -9.9627    -47.4167      2.5620    -65.0620    -13.2836      0.8234      0.7779      0.8234      0.0926      0.1851      0.1851      0.6171
    977.5000      0.2766      0.3712      3.0000   -999.2500   -999.2500      2.1460      0.6430      2.1854   -999.2500      0.3570      0.1795      0.4516      0.5274      2.1460      1.4096      2.7050     -9.7156    -47.4342      2.7050    -64.8040    -12.9541      0.8220      0.7748      0.8220      0.0946      0.1892      0.1892      0.6307
    978.0000      0.2730      0.3739      3.0000   -999.2500   -999.2500      2.1920      0.6513      2.2261   -999.2500      0.3487      0.1789      0.4496      0.5240      2.1920      1.4670      2.8690     -8.9284    -47.4516      2.8690    -64.0060    -11.9046      0.8317      0.7829      0.8317      0.1009      0.2019      0.2019      0.6513
    978.5000      0.2694      0.3741      3.0000   -999.2500   -999.2500      2.2380      0.6563      2.2501   -999.2500      0.3437      0.1785      0.4484      0.5219      2.2380      1.5024      3.0110     -8.4643    -47.4690      3.0110    -63.5310    -11.2857      0.8342      0.7837      0.8342      0.1047      0.2094      0.2094      0.6563
    979.0000      0.2524      0.3644      3.0000   -999.2500   -999.2500      2.4740      0.6658      2.2963   -999.2500      0.3342      0.1778      0.4462      0.5180      2.4740      1.5733      3.2860     -7.5691    -47.4865      3.2860    -62.6250    -10.0922      0.8166      0.7553      0.8166      0.1119      0.2238      0.2238      0.6658
    979.5000      0.2382      0.3561      3.0000   -999.2500   -999.2500      2.6990      0.6737      2.3350   -999.2500      0.3263      0.1772      0.4442      0.5147      2.6990      1.6361      3.3790     -6.8170    -47.5039      3.3790    -61.8620     -9.0893      0.8017      0.7299      0.8017      0.1180      0.2359      0.2359      0.6737
    980.0000      0.2221      0.3291      3.0000   -999.2500   -999.2500      3.0060      0.6593      2.2649   -999.2500      0.3407      0.1783      0.4477      0.5207      3.0060      1.5245      3.5470     -8.1919    -47.5214      3.5470    -63.2260    -10.9225      0.7352      0.6520      0.7352      0.1070      0.2140      0.2140      0.6593
    980.5000      0.2207      0.3116      3.0000   -999.2500   -999.2500      3.0400      0.6382      2.1616   -999.2500      0.3618      0.1799      0.4527      0.5294      3.0400      1.3770      3.6890    -10.2157    -47.5388      3.6890    -65.2390    -13.6210      0.6882      0.6099      0.6882      0.0909      0.1818      0.1818      0.6059
    981.0000      0.2190      0.3056      2.0000   -999.2500   -999.2500      3.0730      0.6325      2.1340   -999.2500      0.3675      0.1803      0.4540      0.5317      3.0730      1.3406      3.8360    -10.7616    -47.5562      3.8360    -65.7740    -14.3488      0.6731      0.5960      0.6731      0.0866      0.1731      0.1731      0.5771
    981.5000      0.2163      0.3011      2.0000   -999.2500   -999.2500      3.1300      0.6303      2.1230   -999.2500      0.3697      0.1805      0.4546      0.5326      3.1300      1.3264      3.7550    -10.9825    -47.5737      3.7550    -65.9840    -14.6433      0.6625      0.5851      0.6625      0.0848      0.1697      0.1697      0.5657
    982.0000      0.2158      0.3013      2.0000   -999.2500   -999.2500      3.1400      0.6311      2.1267   -999.2500      0.3689      0.1804      0.4544      0.5323      3.1400      1.3311      3.6740    -10.9163    -47.5911      3.6740    -65.9070    -14.5551      0.6630      0.5850      0.6630      0.0854      0.1709      0.1709      0.5695
    982.5000      0.2206      0.3095      2.0000   -999.2500   -999.2500      3.0390      0.6356      2.1489   -999.2500      0.3644      0.1801      0.4533      0.5304      3.0390      1.3599      3.1040    -10.4892    -47.6085      3.1040    -65.4690    -13.9856      0.6829      0.6055      0.6829      0.0889      0.1778      0.1778      0.5926
    983.0000      0.2311      0.3237      3.0000   -999.2500   -999.2500      2.8350      0.6405      2.1729   -999.2500      0.3595      0.1797      0.4521      0.5284      2.8350      1.3919      2.8880    -10.0261    -47.6260      2.8880    -64.9950    -13.3681      0.7160      0.6429      0.7160      0.0926      0.1853      0.1853      0.6176
    983.5000      0.2377      0.3358      3.0000   -999.2500   -999.2500      2.7160      0.6477      2.2079   -999.2500      0.3523      0.1792      0.4504      0.5254      2.7160      1.4403      2.7700     -9.3469    -47.6434      2.7700    -64.3050    -12.4626      0.7456      0.6747      0.7456      0.0981      0.1962      0.1962      0.6477
    984.0000      0.2447      0.3446      3.0000   -999.2500   -999.2500      2.5970      0.6500      2.2190   -999.2500      0.3500      0.1790      0.4498      0.5244      2.5970      1.4561      2.6810     -9.1348    -47.6609      2.6810    -64.0820    -12.1797      0.7660      0.6992      0.7660      0.0998      0.1997      0.1997      0.6500
    984.5000      0.2613      0.3628      3.0000   -999.2500   -999.2500      2.3460      0.6523      2.2300   -999.2500      0.3477      0.1788      0.4493      0.5235      2.3460      1.4721      2.5930     -8.9236    -47.6783      2.5930    -63.8600    -11.8982      0.8076      0.7514      0.8076      0.1016      0.2031      0.2031      0.6523
    985.0000      0.2714      0.3740      3.0000   -999.2500   -999.2500      2.2090      0.6536      2.2365   -999.2500      0.3464      0.1787      0.4489      0.5229      2.2090      1.4815      2.4240     -8.8025    -47.6957      2.4240    -63.7280    -11.7367      0.8330      0.7836      0.8330      0.1026      0.2052      0.2052      0.6536
    985.5000      0.2846      0.3882      3.0000   -999.2500   -999.2500      2.0480      0.6550      2.2430   -999.2500      0.3450      0.1786      0.4486      0.5224      2.0480      1.4910      2.3340     -8.6814    -47.7132      2.3340    -63.5960    -11.5752      0.8652      0.8248      0.8652      0.1036      0.2072      0.2072      0.6550
    986.0000      0.2933      0.3974      3.0000   -999.2500   -999.2500      1.9500      0.6556      2.2458   -999.2500      0.3444      0.1786      0.4485      0.5221      1.9500      1.4950      2.2550     -8.6322    -47.7306      2.2550    -63.5360    -11.5096      0.8861      0.8516      0.8861      0.1040      0.2081      0.2081      0.6556
    986.5000      0.2994      0.4039      3.0000   -999.2500   -999.2500      1.8860      0.6561      2.2485   -999.2500      0.3439      0.1785      0.4483      0.5219      1.8860      1.4990      2.2080     -8.5841    -47.7480      2.2080    -63.4770    -11.4455      0.9008      0.8707      0.9008      0.1045      0.2089      0.2089      0.6561
    987.0000      0.3059      0.4081      3.0000   -999.2500   -999.2500      1.8210      0.6531      2.2338   -999.2500      0.3469      0.1787      0.4490      0.5231      1.8210      1.4773      2.1390     -8.8780    -47.7655      2.1390    -63.7600    -11.8373      0.9088      0.8819      0.9088      0.1022      0.2043      0.2043      0.6531
