~V
VERS. 2.00: Ver 2.00
WRAP.   NO:        
~W
 STRT.FT 40:
 STOP.FT 4330:
 STEP.FT 0.5:
 NULL. -999.250000:
 COMP. Standard (Chevron):Company
 WELL. KCL 44-45:Well
 FLD. Pioneer:Field
 LOC. S32 T11N R22W:Location
 STAT. CA:State
 SRVC. :Service Company
 SON. :Service Order #
 DATE. :Log Date
 UWI. 0941000:Unique Well ID
~C
 DEPT.FT :
 BVES. :
 BVTS. :
 FACE. :
 GR.RE/T :
 GRS.RE/T :
 ILD.OHMM :
 LTHE. :
 MM. :
 NEUS.CPS :
 NEUT.CPS :
 PHES. :
 PHMX. :
 PHTS. :
 PHZC. :
 RD.OHMM :
 ROS. :
 RS.OHMM :
 SBL.MV :
 SCLN. :
 SN.OHMM :
 SP.MV :
 SPN. :
 STUS. :
 SWES. :
 SWTS. :
 VCDS. :
 VCLY. :
 VCWS. :
 VSHS. :
~P
~A
# ...
   3016.5000      0.1815      0.3545      3.0000      5.2660      5.4320      2.6375      0.7962      2.7289    213.1020    208.9640      0.2038      0.1637      0.3769      0.4402      2.6375      2.2941      3.1321    -16.2905    -91.0751      3.1321    -40.2905    -21.7206      0.9406      0.8902      0.9406      0.1731      0.3461      0.3461      0.7962
   3017.0000      0.1769      0.3640      3.0000      5.3210      5.4580      2.5120      0.8148      2.7526    214.0710    209.8260      0.1852      0.1623      0.3723      0.4326      2.5120      2.3871      3.0274    -13.7253    -91.0760      3.0274    -37.7253    -18.3004      0.9778      0.9553      0.9778      0.1871      0.3743      0.3743      0.8148
   3017.5000      0.1747      0.3697      3.0000      5.3480      5.4840      2.3001      0.8253      2.7599    215.3810    210.3070      0.1747      0.1615      0.3697      0.4283      2.3001      2.4276      2.9381    -12.2929    -91.0769      2.9381    -36.2929    -16.3906      1.0148      1.0000      1.0000      0.1950      0.3900      0.3900      0.8253
   3018.0000      0.1657      0.3675      4.0000      5.3600      5.5350      2.4025      0.8343      2.7662    216.6920    210.7890      0.1657      0.1608      0.3675      0.4246      2.4025      2.4634      3.2395    -11.0621    -91.0778      3.2395    -35.0621    -14.7495      1.0068      1.0000      1.0000      0.2018      0.4035      0.4035      0.8343
   3018.5000      0.1566      0.3616      4.0000      5.3710      5.5580      2.5555      0.8385      2.7691    218.0020    211.4610      0.1615      0.1605      0.3664      0.4229      2.5555      2.4806      3.5386    -10.4830    -91.0788      3.5386    -34.4830    -13.9774      0.9869      0.9702      0.9869      0.2050      0.4099      0.4099      0.8385
   3019.0000      0.1436      0.3497      4.0000      5.4010      5.5800      2.7555      0.8401      2.7702    220.1010    212.1330      0.1599      0.1604      0.3660      0.4223      2.7555      2.4870      3.8671    -10.2746    -91.0797      3.8671    -34.2746    -13.6994      0.9553      0.8977      0.9553      0.2061      0.4122      0.4122      0.8401
   3019.5000      0.1425      0.3363      3.0000      5.4320      5.6180      3.0612      0.8237      2.7589    221.0710    213.1020      0.1763      0.1616      0.3701      0.4289      3.0612      2.4214      4.2053    -12.5212    -91.0806      4.2053    -36.5212    -16.6949      0.9086      0.8082      0.9086      0.1938      0.3875      0.3875      0.8237
   3020.0000      0.1454      0.3220      3.0000      5.4580      5.6550      3.4107      0.8008      2.7430    222.0410    214.0710      0.1992      0.1633      0.3757      0.4382      3.4107      2.3351      4.4987    -15.6643    -91.0815      4.4987    -39.6643    -20.8858      0.8569      0.7302      0.8569      0.1765      0.3530      0.3530      0.8008
   3020.5000      0.1390      0.3006      3.0000      5.4840      5.6780      3.7157      0.7811      2.6558    223.6570    215.3810      0.2189      0.1648      0.3805      0.4463      3.7157      2.1101      4.7591    -18.3810    -91.0800      4.7591    -42.3810    -24.5079      0.7900      0.6351      0.7900      0.1616      0.3232      0.3232      0.7811
   3021.0000      0.1376      0.2868      3.0000      5.5350      5.7010      3.8460      0.7646      2.5764    225.2720    216.6920      0.2354      0.1660      0.3845      0.4530      3.8460      1.9306      4.9614    -20.6384    -91.0546      4.9614    -44.6384    -27.5179      0.7457      0.5846      0.7457      0.1492      0.2983      0.2983      0.7646
   3021.5000      0.1358      0.2755      3.0000      5.5580      5.7280      3.9690      0.7522      2.5160    226.2410    218.0020      0.2478      0.1669      0.3875      0.4581      3.9690      1.8069      5.1123    -22.3514    -91.0292      5.1123    -46.3514    -29.8019      0.7110      0.5481      0.7110      0.1397      0.2795      0.2795      0.7522
   3022.0000      0.1346      0.2686      3.0000      5.5800      5.7440      4.0512      0.7446      2.4794    227.2100    220.1010      0.2554      0.1675      0.3894      0.4612      4.0512      1.7368      5.1882    -23.3867    -91.0038      5.1882    -47.3867    -31.1823      0.6898      0.5270      0.6898      0.1340      0.2680      0.2680      0.7446
   3022.5000      0.1332      0.2665      3.0000      5.6180      5.7330      4.1047      0.7437      2.4749    227.5820    221.0710      0.2563      0.1675      0.3896      0.4615      4.1047      1.7284      5.2203    -23.5094    -90.9785      5.2203    -47.5094    -31.3458      0.6840      0.5196      0.6840      0.1333      0.2666      0.2666      0.7437
   3023.0000      0.1310      0.2697      3.0000      5.6550      5.6810      4.1377      0.7508      2.5094    227.4680    222.0410      0.2492      0.1670      0.3878      0.4586      4.1377      1.7940      5.1509    -22.5234    -90.9531      5.1509    -46.5234    -30.0311      0.6954      0.5259      0.6954      0.1387      0.2774      0.2774      0.7508
   3023.5000      0.1279      0.2828      3.0000      5.6780      5.6000      4.1163      0.7722      2.6131    227.2470    223.6570      0.2278      0.1654      0.3826      0.4498      4.1163      2.0110      4.8549    -19.5710    -90.9277      4.8549    -43.5710    -26.0947      0.7391      0.5617      0.7391      0.1549      0.3098      0.3098      0.7722
   3024.0000      0.1271      0.2943      3.0000      5.7010      5.5180      4.0432      0.7886      2.6920    226.7580    225.2720      0.2114      0.1642      0.3786      0.4432      4.0432      2.1985      4.5098    -17.3266    -90.9023      4.5098    -41.3266    -23.1022      0.7773      0.6011      0.7773      0.1672      0.3344      0.3344      0.7886
   3024.5000      0.1278      0.3037      3.0000      5.7280      5.4470      3.9277      0.8002      2.7429    225.6710    226.2410      0.1998      0.1634      0.3758      0.4384      3.9277      2.3333      4.1829    -15.7277    -90.8769      4.1829    -39.7277    -20.9702      0.8083      0.6395      0.8083      0.1760      0.3519      0.3519      0.8002
   3025.0000      0.1282      0.3100      3.0000      5.7440      5.4710      3.7328      0.8080      2.7483    224.6410    227.2100      0.1920      0.1628      0.3738      0.4353      3.7328      2.3620      3.8946    -14.6578    -90.8515      3.8946    -38.6578    -19.5437      0.8293      0.6677      0.8293      0.1818      0.3637      0.3637      0.8080
   3025.5000      0.1359      0.3196      3.0000      5.7330      5.4940      3.4663      0.8105      2.7501    222.3690    227.5820      0.1895      0.1626      0.3732      0.4342      3.4663      2.3715      3.7162    -14.3110    -90.8261      3.7162    -38.3110    -19.0814      0.8564      0.7171      0.8564      0.1837      0.3674      0.3674      0.8105
   3026.0000      0.1485      0.3292      3.0000      5.6810      5.5600      3.2281      0.8064      2.7473    219.1760    227.4680      0.1936      0.1629      0.3742      0.4359      3.2281      2.3562      3.6273    -14.8723    -90.8007      3.6273    -38.8723    -19.8298      0.8796      0.7672      0.8796      0.1806      0.3612      0.3612      0.8064
   3026.5000      0.1652      0.3403      3.0000      5.6000      5.5960      2.9783      0.7990      2.7422    217.6060    227.2470      0.2010      0.1634      0.3760      0.4389      2.9783      2.3293      3.5821    -15.8766    -90.7753      3.5821    -39.8766    -21.1687      0.9050      0.8222      0.9050      0.1751      0.3501      0.3501      0.7990
   3027.0000      0.1770      0.3437      3.0000      5.5180      5.5790      2.7745      0.7879      2.6886    216.2510    226.7580      0.2121      0.1643      0.3787      0.4434      2.7745      2.1900      3.5443    -17.3993    -90.7500      3.5443    -41.3993    -23.1990      0.9074      0.8346      0.9074      0.1666      0.3333      0.3333      0.7879
   3027.5000      0.1784      0.3498      3.0000      5.4470      5.5470      2.7290      0.7942      2.7192    215.3800    225.6710      0.2058      0.1638      0.3772      0.4408      2.7290      2.2680      3.5187    -16.5299    -90.7246      3.5187    -40.5299    -22.0398      0.9273      0.8668      0.9273      0.1714      0.3428      0.3428      0.7942
