~V
VERS. 2.00: Ver 2.00
WRAP.   NO:        
~W
 STRT.FT 30:
 STOP.FT 4840:
 STEP.FT 0.5:
 NULL. -999.250000:
 COMP. Standard (Chevron):Company
 WELL. KCL 44-23:Well
 FLD. Pioneer:Field
 LOC. S32 T11N R22W:Location
 STAT. CA:State
 SRVC. :Service Company
 SON. :Service Order #
 DATE. :Log Date
 UWI. 0940500:Unique Well ID
~C
 DEPT.FT :
 BVES. :
 BVTS. :
 FACE. :
 GR.RE/T :
 GRS.RE/T :
 ILD.OHMM :
 LTHE. :
 MM. :
 NEUT.CPS :
 PHES. :
 PHMX. :
 PHTS. :
 PHZC. :
 RD.OHMM :
 ROS. :
 RS.OHMM :
 SBL.MV :
 SCLN. :
 SN.OHMM :
 SP.MV :
 SPN.RE/T :
 STUS. :
 SWES. :
 SWTS. :
 VCDS. :
 VCLY. :
 VCWS. :
 VSHS. :
~P
~A
# ...
   1988.0000      0.2999      0.4191      3.0000   -999.2500   -999.2500      1.2610      0.7001      2.3430   -999.2500      0.2999      0.1731      0.4191      0.4919      1.2610      1.5536      1.3200    -16.7396    -82.6755      1.3200    -59.4390    -22.3195      1.0956      1.0000      1.0000      0.1192      0.2384      0.2384      0.7001
   1988.5000      0.3044      0.4202      3.0000   -999.2500   -999.2500      1.2720      0.6956      2.3214   -999.2500      0.3044      0.1734      0.4202      0.4937      1.2720      1.5197      1.3290    -17.4053    -82.6930      1.3290    -60.1200    -23.2071      1.0818      1.0000      1.0000      0.1158      0.2317      0.2317      0.6956
   1989.0000      0.3070      0.4208      3.0000   -999.2500   -999.2500      1.2750      0.6930      2.3085   -999.2500      0.3070      0.1736      0.4208      0.4948      1.2750      1.5000      1.3360    -17.8031    -82.7104      1.3360    -60.5330    -23.7374      1.0749      1.0000      1.0000      0.1138      0.2277      0.2277      0.6930
   1989.5000      0.3096      0.4214      3.0000   -999.2500   -999.2500      1.2760      0.6904      2.2957   -999.2500      0.3096      0.1738      0.4214      0.4958      1.2760      1.4806      1.3440    -18.2008    -82.7279      1.3440    -60.9460    -24.2677      1.0688      1.0000      1.0000      0.1118      0.2236      0.2236      0.6904
   1990.0000      0.3119      0.4220      3.0000   -999.2500   -999.2500      1.2760      0.6881      2.2846   -999.2500      0.3119      0.1740      0.4220      0.4968      1.2760      1.4641      1.3510    -18.5455    -82.7453      1.3510    -61.3060    -24.7274      1.0582      1.0000      1.0000      0.1101      0.2202      0.2202      0.6881
   1990.5000      0.3127      0.4222      3.0000   -999.2500   -999.2500      1.2680      0.6873      2.2805   -999.2500      0.3127      0.1740      0.4222      0.4971      1.2680      1.4581      1.3580    -18.6742    -82.7627      1.3580    -61.4500    -24.8990      1.0594      1.0000      1.0000      0.1095      0.2189      0.2189      0.6873
   1991.0000      0.3167      0.4231      3.0000   -999.2500   -999.2500      1.2610      0.6833      2.2612   -999.2500      0.3167      0.1743      0.4231      0.4987      1.2610      1.4302      1.3620    -19.2690    -82.7802      1.3620    -62.0600    -25.6920      1.0541      1.0000      1.0000      0.1064      0.2129      0.2129      0.6833
   1991.5000      0.3233      0.4247      3.0000   -999.2500   -999.2500      1.2540      0.6767      2.2290   -999.2500      0.3233      0.1748      0.4247      0.5014      1.2540      1.3851      1.3620    -20.2587    -82.7976      1.3620    -63.0650    -27.0116      1.0435      1.0000      1.0000      0.1014      0.2028      0.2028      0.6761
   1992.0000      0.3298      0.4262      3.0000   -999.2500   -999.2500      1.2450      0.6702      2.1969   -999.2500      0.3298      0.1753      0.4262      0.5041      1.2450      1.3419      1.3620    -21.2474    -82.8150      1.3620    -64.0690    -28.3299      1.0333      1.0000      1.0000      0.0964      0.1928      0.1928      0.6426
   1992.5000      0.3323      0.4268      3.0000   -999.2500   -999.2500      1.2360      0.6677      2.1846   -999.2500      0.3323      0.1755      0.4268      0.5051      1.2360      1.3259      1.3650    -21.6271    -82.8325      1.3650    -64.4640    -28.8362      1.0315      1.0000      1.0000      0.0945      0.1889      0.1889      0.6298
   1993.0000      0.3306      0.4264      3.0000   -999.2500   -999.2500      1.2360      0.6694      2.1929   -999.2500      0.3306      0.1754      0.4264      0.5044      1.2360      1.3366      1.3650    -21.3799    -82.8499      1.3650    -64.2320    -28.5065      1.0349      1.0000      1.0000      0.0958      0.1915      0.1915      0.6384
   1993.5000      0.3289      0.4260      3.0000   -999.2500   -999.2500      1.2330      0.6711      2.2012   -999.2500      0.3289      0.1752      0.4260      0.5037      1.2330      1.3475      1.3650    -21.1326    -82.8674      1.3650    -64.0000    -28.1768      1.0395      1.0000      1.0000      0.0971      0.1941      0.1941      0.6471
   1994.0000      0.3216      0.4242      3.0000   -999.2500   -999.2500      1.2330      0.6784      2.2369   -999.2500      0.3216      0.1747      0.4242      0.5007      1.2330      1.3959      1.3650    -20.0453    -82.8848      1.3650    -62.9280    -26.7271      1.0542      1.0000      1.0000      0.1026      0.2053      0.2053      0.6784
   1994.5000      0.3173      0.4232      3.0000   -999.2500   -999.2500      1.2330      0.6827      2.2575   -999.2500      0.3173      0.1744      0.4232      0.4990      1.2330      1.4247      1.3620    -19.4211    -82.9022      1.3620    -62.3190    -25.8947      1.0626      1.0000      1.0000      0.1059      0.2117      0.2117      0.6827
   1995.0000      0.3148      0.4226      3.0000   -999.2500   -999.2500      1.2380      0.6852      2.2698   -999.2500      0.3148      0.1742      0.4226      0.4979      1.2380      1.4424      1.3580    -19.0488    -82.9197      1.3580    -61.9620    -25.3984      1.0657      1.0000      1.0000      0.1078      0.2156      0.2156      0.6852
   1995.5000      0.3151      0.4227      3.0000   -999.2500   -999.2500      1.2440      0.6849      2.2681   -999.2500      0.3151      0.1742      0.4227      0.4980      1.2440      1.4399      1.3550    -19.1065    -82.9371      1.3550    -62.0350    -25.4753      1.0628      1.0000      1.0000      0.1075      0.2150      0.2150      0.6849
   1996.0000      0.3145      0.4225      3.0000   -999.2500   -999.2500      1.2480      0.6855      2.2711   -999.2500      0.3145      0.1741      0.4225      0.4978      1.2480      1.4441      1.3550    -19.0212    -82.9545      1.3550    -61.9650    -25.3616      1.0626      1.0000      1.0000      0.1080      0.2160      0.2160      0.6855
   1996.5000      0.3110      0.4216      3.0000   -999.2500   -999.2500      1.2510      0.6890      2.2881   -999.2500      0.3110      0.1739      0.4216      0.4963      1.2510      1.4690      1.3510    -18.5050    -82.9720      1.3510    -61.4640    -24.6733      1.0747      1.0000      1.0000      0.1106      0.2213      0.2213      0.6890
   1997.0000      0.3017      0.4194      3.0000   -999.2500   -999.2500      1.2510      0.6983      2.3332   -999.2500      0.3017      0.1732      0.4194      0.4925      1.2510      1.5375      1.3510    -17.1297    -82.9894      1.3510    -60.1040    -22.8396      1.0949      1.0000      1.0000      0.1177      0.2354      0.2354      0.6983
   1997.5000      0.2946      0.4177      3.0000   -999.2500   -999.2500      1.2510      0.7054      2.3677   -999.2500      0.2946      0.1727      0.4177      0.4896      1.2510      1.5928      1.3550    -16.0774    -83.0069      1.3550    -59.0670    -21.4365      1.1102      1.0000      1.0000      0.1231      0.2462      0.2462      0.7054
   1998.0000      0.3050      0.4202      3.0000   -999.2500   -999.2500      1.2460      0.6950      2.3169   -999.2500      0.3050      0.1734      0.4202      0.4939      1.2460      1.5122      1.3620    -17.6391    -83.0243      1.3620    -60.6440    -23.5188      1.0895      1.0000      1.0000      0.1151      0.2303      0.2303      0.6950
   1998.5000      0.3109      0.4216      3.0000   -999.2500   -999.2500      1.2410      0.6891      2.2883   -999.2500      0.3109      0.1739      0.4216      0.4963      1.2410      1.4691      1.3750    -18.5209    -83.0417      1.3750    -61.5410    -24.6945      1.0786      1.0000      1.0000      0.1107      0.2213      0.2213      0.6891
   1999.0000      0.3124      0.4219      3.0000   -999.2500   -999.2500      1.2370      0.6876      2.2808   -999.2500      0.3124      0.1740      0.4219      0.4969      1.2370      1.4580      1.3870    -18.7566    -83.0592      1.3870    -61.7920    -25.0088      1.0768      1.0000      1.0000      0.1095      0.2190      0.2190      0.6876
