~V
VERS. 2.00: Ver 2.00
WRAP.   NO:        
~W
 STRT.FT 20:
 STOP.FT 4330:
 STEP.FT 0.5:
 NULL. -999.250000:
 COMP. Standard (Chevron):Company
 WELL. KCL 44-25:Well
 FLD. Pioneer:Field
 LOC. S32 T11N R22W:Location
 STAT. CA:State
 SRVC. :Service Company
 SON. :Service Order #
 DATE. :Log Date
 UWI. 0940600:Unique Well ID
~C
 DEPT.FT :
 BVES. :
 BVTS. :
 FACE. :
 GR.RE/T :
 GRS.RE/T :
 ILD.OHMM :
 LTHE. :
 MM. :
 NEUS.CPS :
 NEUT.CPS :
 PHES. :
 PHMX. :
 PHTS. :
 PHZC. :
 RD.OHMM :
 ROS. :
 RS.OHMM :
 SBL.MV :
 SCLN. :
 SN.OHMM :
 SP.MV :
 SPN. :
 STUS. :
 SWES. :
 SWTS. :
 VCDS. :
 VCLY. :
 VCWS. :
 VSHS. :
~P
~A
# ...
   3790.0000      0.0100      0.3600      4.0000      6.5950      6.7640      4.0560      0.8500   -999.2500    207.8110    207.6580      0.1500 49090916870222007100000000000.0000      0.5000 270000019174388625000000000000.0000      4.0560      0.5124   -999.2500   -999.2500   -999.2500   -999.2500   -999.2500   -999.2500      0.2654      0.0667      0.7200      0.3500   -999.2500      0.7000      0.8500
   3790.5000      0.0100      0.3600      4.0000      6.5240      6.5950      4.0160      0.8500 -1000000015047466220000000000000.0000    207.6580    207.5420      0.1500 49090916870222007100000000000.0000      0.5000 270000019174388625000000000000.0000      4.0160      0.5124   -999.2500   -999.2500   -999.2500   -999.2500   -999.2500   -999.2500      0.2672      0.0667      0.7200      0.3500   -999.2500      0.7000      0.8500
   3791.0000      0.0100      0.3600      4.0000      6.4990      6.5240      3.9810      0.8500   -999.2500    207.5420    207.5880      0.1500 49090916870222007100000000000.0000      0.5000 270000019174388625000000000000.0000      3.9810      0.5123   -999.2500   -999.2500   -999.2500   -999.2500   -999.2500   -999.2500      0.2689      0.0667      0.7200      0.3500   -999.2500      0.7000      0.8500
   3791.5000      0.0100      0.3600      4.0000      6.5200      6.4990      3.9660      0.8500   -999.2500    207.5880    207.6870      0.1500 49090916870222007100000000000.0000      0.5000 270000019174388625000000000000.0000      3.9660      0.5123   -999.2500   -999.2500   -999.2500   -999.2500   -999.2500   -999.2500      0.2696      0.0667      0.7200      0.3500   -999.2500      0.7000      0.8500
   3792.0000      0.0100      0.3600      4.0000      6.5370      6.5200      3.9540      0.8500   -999.2500    207.6870    208.0560      0.1500 49090916870222007100000000000.0000      0.5000 270000019174388625000000000000.0000      3.9540      0.5122   -999.2500   -999.2500   -999.2500   -999.2500   -999.2500   -999.2500      0.2702      0.0667      0.7200      0.3500   -999.2500      0.7000      0.8500
   3792.5000      0.0100      0.3600      4.0000      6.5080      6.5370      3.9420      0.8500   -999.2500    208.0560    208.4250      0.1500 49090916870222007100000000000.0000      0.5000 270000019174388625000000000000.0000      3.9420      0.5122   -999.2500   -999.2500   -999.2500   -999.2500   -999.2500   -999.2500      0.2707      0.0667      0.7200      0.3500   -999.2500      0.7000      0.8500
   3793.0000      0.0100      0.3600      4.0000      6.4830      6.5080      3.9130      0.8500   -999.2500    208.4250    210.4600      0.1500 49090916870222007100000000000.0000      0.5000 270000019174388625000000000000.0000      3.9130      0.5122   -999.2500   -999.2500   -999.2500   -999.2500   -999.2500   -999.2500      0.2721      0.0667      0.7200      0.3500   -999.2500      0.7000      0.8500
   3793.5000      0.0100      0.3600      4.0000      6.4140      6.4830      3.9060      0.8500   -999.2500    210.4600    211.6350      0.1500 49090916870222007100000000000.0000      0.5000 270000019174388625000000000000.0000      3.9060      0.5121   -999.2500   -999.2500   -999.2500   -999.2500   -999.2500   -999.2500      0.2725      0.0667      0.7200      0.3500   -999.2500      0.7000      0.8500
   3794.0000      0.0100      0.3600      4.0000      6.3500      6.4140      3.9060      0.8500   -999.2500    211.6350    212.2720      0.1500 49090916870222007100000000000.0000      0.5000 270000019174388625000000000000.0000      3.9060      0.5121   -999.2500   -999.2500   -999.2500   -999.2500   -999.2500   -999.2500      0.2724      0.0667      0.7200      0.3500   -999.2500      0.7000      0.8500
   3794.5000      0.0100      0.3600      4.0000      6.3400      6.3500      3.9780      0.8500   -999.2500    212.2720    212.9100      0.1500 49090916870222007100000000000.0000      0.5000 270000019174388625000000000000.0000      3.9780      0.5120   -999.2500   -999.2500   -999.2500   -999.2500   -999.2500   -999.2500      0.2689      0.0667      0.7200      0.3500   -999.2500      0.7000      0.8500
   3795.0000      0.0100      0.3600      4.0000      6.3520      6.3400      4.0930      0.8500   -999.2500    212.9100    214.9450      0.1500 49090916870222007100000000000.0000      0.5000 270000019174388625000000000000.0000      4.0930      0.5120   -999.2500   -999.2500   -999.2500   -999.2500   -999.2500   -999.2500      0.2634      0.0667      0.7200      0.3500   -999.2500      0.7000      0.8500
   3795.5000      0.0100      0.3600      4.0000      6.3270      6.3520      4.2270      0.8500 -1000000166163193670000000000000.0000    214.9450    217.5180      0.1500 49090916870222007100000000000.0000      0.5000 270000019174388625000000000000.0000      4.2270      0.5120   -999.2500   -999.2500   -999.2500   -999.2500   -999.2500   -999.2500      0.2574      0.0667      0.7200      0.3500   -999.2500      0.7000      0.8500
   3796.0000      0.0100      0.3600      4.0000      6.2760      6.3270      4.3710      0.8500   -999.2500    217.5180    220.3060      0.1500 49090916870222007100000000000.0000      0.5000 270000019174388625000000000000.0000      4.3710      0.5119   -999.2500   -999.2500   -999.2500   -999.2500   -999.2500   -999.2500      0.2512      0.0667      0.7200      0.3500   -999.2500      0.7000      0.8500
   3796.5000      0.0100      0.3600      4.0000      6.2440      6.2760      4.5400      0.8500   -999.2500    220.3060    221.4280      0.1500 49090916870222007100000000000.0000      0.5000 270000019174388625000000000000.0000      4.5400      0.5119   -999.2500   -999.2500   -999.2500   -999.2500   -999.2500   -999.2500      0.2444      0.0667      0.7200      0.3500   -999.2500      0.7000      0.8500
   3797.0000      0.0100      0.3600      4.0000      6.1870      6.2440      4.6950      0.8500   -999.2500    221.4280    222.9790      0.1500 49090916870222007100000000000.0000      0.5000 270000019174388625000000000000.0000      4.6950      0.5118   -999.2500   -999.2500   -999.2500   -999.2500   -999.2500   -999.2500      0.2385      0.0667      0.7200      0.3500   -999.2500      0.7000      0.8500
   3797.5000      0.0100      0.3600      4.0000      6.1390      6.1870      4.7780      0.8500   -999.2500    222.9790    223.9930      0.1500 49090916870222007100000000000.0000      0.5000 270000019174388625000000000000.0000      4.7780      0.5118   -999.2500   -999.2500   -999.2500   -999.2500   -999.2500   -999.2500      0.2354      0.0667      0.7200      0.3500   -999.2500      0.7000      0.8500
   3798.0000      0.0100      0.3600      4.0000      6.1320      6.1390      4.8710      0.8500   -999.2500    223.9930    225.7060      0.1500 49090916870222007100000000000.0000      0.5000 270000019174388625000000000000.0000      4.8710      0.5118   -999.2500   -999.2500   -999.2500   -999.2500   -999.2500   -999.2500      0.2321      0.0667      0.7200      0.3500   -999.2500      0.7000      0.8500
   3798.5000      0.0100      0.3600      4.0000      6.1910      6.1320      4.9320      0.8500   -999.2500    225.7060    226.8270      0.1500 49090916870222007100000000000.0000      0.5000 270000019174388625000000000000.0000      4.9320      0.5117   -999.2500   -999.2500   -999.2500   -999.2500   -999.2500   -999.2500      0.2300      0.0667      0.7200      0.3500   -999.2500      0.7000      0.8500
   3799.0000      0.0100      0.3600      4.0000      6.1960      6.1910      5.0120      0.8500   -999.2500    226.8270    227.5720      0.1500 49090916870222007100000000000.0000      0.5000 270000019174388625000000000000.0000      5.0120      0.5117   -999.2500   -999.2500   -999.2500   -999.2500   -999.2500   -999.2500      0.2273      0.0667      0.7200      0.3500   -999.2500      0.7000      0.8500
   3799.5000      0.0100      0.3600      4.0000      6.1450      6.1960      5.0690      0.8500   -999.2500    227.5720    228.0480      0.1500 49090916870222007100000000000.0000      0.5000 270000019174388625000000000000.0000      5.0690      0.5116   -999.2500   -999.2500   -999.2500   -999.2500   -999.2500   -999.2500      0.2254      0.0667      0.7200      0.3500   -999.2500      0.7000      0.8500
