~V
VERS. 2.00: Ver 2.00
WRAP.   NO:        
~W
 STRT.FT 40:
 STOP.FT 4330:
 STEP.FT 0.5:
 NULL. -999.250000:
 COMP. Standard (Chevron):Company
 WELL. KCL 44-45:Well
 FLD. Pioneer:Field
 LOC. S32 T11N R22W:Location
 STAT. CA:State
 SRVC. :Service Company
 SON. :Service Order #
 DATE. :Log Date
 UWI. 0941000:Unique Well ID
~C
 DEPT.FT :
 BVES. :
 BVTS. :
 FACE. :
 GR.RE/T :
 GRS.RE/T :
 ILD.OHMM :
 LTHE. :
 MM. :
 NEUS.CPS :
 NEUT.CPS :
 PHES. :
 PHMX. :
 PHTS. :
 PHZC. :
 RD.OHMM :
 ROS. :
 RS.OHMM :
 SBL.MV :
 SCLN. :
 SN.OHMM :
 SP.MV :
 SPN. :
 STUS. :
 SWES. :
 SWTS. :
 VCDS. :
 VCLY. :
 VCWS. :
 VSHS. :
~P
~A
     40.0000      0.0000      0.4244      4.0000   -999.2500   -999.2500   -999.2500      1.0000      2.7692   -999.2500   -999.2500      0.0000      0.1680      0.4244      0.4641   -999.2500      3.3726      6.2257     29.7543   -999.2500      6.2257      5.7543     39.6724      0.1867      1.0000      1.0000      0.2500      0.5000      0.5000      1.0000
     40.5000      0.0000      0.4244      4.0000   -999.2500   -999.2500   -999.2500      1.0000      2.7692   -999.2500   -999.2500      0.0000      0.1680      0.4244      0.4641   -999.2500      3.3723      6.4910     31.0162   -999.2500      6.4910      7.0162     41.3549      0.1867      1.0000      1.0000      0.2500      0.5000      0.5000      1.0000
     41.0000      0.0100      0.2600      4.0000   -999.2500   -999.2500     80.0446      0.8256      2.7692   -999.2500   -999.2500      0.1744      0.1680      0.4244      0.4641     80.0446      3.3719      6.7068     31.6083   -999.2500      6.7068      7.6083     42.1444      0.3246      0.0573      0.6126      0.2500      0.5000      0.5000      0.8256
     41.5000      0.0100      0.2600      4.0000   -999.2500   -999.2500     81.7640      0.8256      2.7692   -999.2500   -999.2500      0.1744      0.1680      0.4244      0.4641     81.7640      3.3716      6.9160     31.8172   -999.2500      6.9160      7.8172     42.4230      0.3221      0.0573      0.6127      0.2500      0.5000      0.5000      0.8256
     42.0000      0.0100      0.2600      4.0000   -999.2500   -999.2500     81.9352      0.8256      2.7692   -999.2500   -999.2500      0.1744      0.1680      0.4244      0.4641     81.9352      3.3713      7.0900     27.1123   -999.2500      7.0900      3.1123     36.1497      0.3219      0.0574      0.6127      0.2500      0.5000      0.5000      0.8256
     42.5000      0.0100      0.2600      4.0000   -999.2500   -999.2500     79.9388      0.8256      2.7692   -999.2500   -999.2500      0.1744      0.1680      0.4244      0.4641     79.9388      3.3710      7.2628     21.1622   -999.2500      7.2628     -2.8378     28.2162      0.3247      0.0574      0.6127      0.2500      0.5000      0.5000      0.8256
     43.0000      0.0100      0.2600      4.0000   -999.2500   -999.2500     77.2200      0.8257      2.7692   -999.2500   -999.2500      0.1743      0.1680      0.4243      0.4641     77.2200      3.3706      7.3865     17.5561   -999.2500      7.3865     -6.4439     23.4081      0.3287      0.0574      0.6127      0.2500      0.5000      0.5000      0.8257
     43.5000      0.0100      0.2600      4.0000   -999.2500   -999.2500     73.3814      0.8257      2.7692   -999.2500   -999.2500      0.1743      0.1680      0.4243      0.4640     73.3814      3.3703      7.4970     14.2663   -999.2500      7.4970     -9.7337     19.0218      0.3348      0.0574      0.6127      0.2500      0.5000      0.5000      0.8257
     44.0000      0.0100      0.2600      4.0000   -999.2500   -999.2500     68.9888      0.8257      2.7692   -999.2500   -999.2500      0.1743      0.1680      0.4243      0.4640     68.9888      3.3700      7.6094     11.8798   -999.2500      7.6094    -12.1202     15.8398      0.3422      0.0574      0.6128      0.2500      0.5000      0.5000      0.8257
     44.5000      0.0100      0.2600      4.0000   -999.2500   -999.2500     63.7256      0.8257      2.7692   -999.2500   -999.2500      0.1743      0.1680      0.4243      0.4640     63.7256      3.3697      7.7059     10.5166   -999.2500      7.7059    -13.4834     14.0221      0.3520      0.0574      0.6128      0.2500      0.5000      0.5000      0.8257
     45.0000      0.0100      0.2600      4.0000   -999.2500   -999.2500     58.9217      0.8257      2.7692   -999.2500   -999.2500      0.1743      0.1680      0.4243      0.4640     58.9217      3.3694      7.8075     12.7764   -999.2500      7.8075    -11.2236     17.0352      0.3620      0.0574      0.6128      0.2500      0.5000      0.5000      0.8257
     45.5000      0.0100      0.2600      4.0000   -999.2500   -999.2500     56.8411      0.8257      2.7692   -999.2500   -999.2500      0.1743      0.1680      0.4243      0.4640     56.8411      3.3690      7.7751     13.9282   -999.2500      7.7751    -10.0718     18.5709      0.3666      0.0574      0.6128      0.2500      0.5000      0.5000      0.8257
     46.0000      0.0100      0.2600      4.0000   -999.2500   -999.2500     65.9875      0.8257      2.7692   -999.2500   -999.2500      0.1743      0.1680      0.4243      0.4640     65.9875      3.3687      7.7048     14.1875   -999.2500      7.7048     -9.8125     18.9166      0.3476      0.0574      0.6128      0.2500      0.5000      0.5000      0.8257
     46.5000      0.0100      0.2600      4.0000   -999.2500   -999.2500     87.1138      0.8257      2.7692   -999.2500   -999.2500      0.1743      0.1680      0.4243      0.4640     87.1138      3.3684      7.6083     13.4431   -999.2500      7.6083    -10.5569     17.9241      0.3148      0.0574      0.6128      0.2500      0.5000      0.5000      0.8257
     47.0000      0.0100      0.2600      4.0000   -999.2500   -999.2500     91.4191      0.8258      2.7692   -999.2500   -999.2500      0.1742      0.1680      0.4242      0.4640     91.4191      3.3681      7.5535     11.8090   -999.2500      7.5535    -12.1910     15.7453      0.3094      0.0574      0.6129      0.2500      0.5000      0.5000      0.8258
     47.5000      0.0100      0.2600      4.0000   -999.2500   -999.2500     93.2379      0.8258      2.7692   -999.2500   -999.2500      0.1742      0.1680      0.4242      0.4640     93.2379      3.3677      7.7248      9.8579   -999.2500      7.7248    -14.1421     13.1439      0.3072      0.0574      0.6129      0.2500      0.5000      0.5000      0.8258
     48.0000      0.0100      0.2600      4.0000   -999.2500   -999.2500     83.0224      0.8258      2.7692   -999.2500   -999.2500      0.1742      0.1680      0.4242      0.4639     83.0224      3.3674      7.8029      8.2997   -999.2500      7.8029    -15.7003     11.0662      0.3202      0.0574      0.6129      0.2500      0.5000      0.5000      0.8258
     48.5000      0.0100      0.2600      4.0000   -999.2500   -999.2500     70.7476      0.8258      2.7692   -999.2500   -999.2500      0.1742      0.1680      0.4242      0.4639     70.7476      3.3671      7.8088      7.1843   -999.2500      7.8088    -16.8157      9.5791      0.3390      0.0574      0.6129      0.2500      0.5000      0.5000      0.8258
     49.0000      0.0100      0.2600      4.0000   -999.2500   -999.2500     65.4469      0.8258      2.7692   -999.2500   -999.2500      0.1742      0.1680      0.4242      0.4639     65.4469      3.3668      7.7016      6.4811   -999.2500      7.7016    -17.5189      8.6414      0.3485      0.0574      0.6129      0.2500      0.5000      0.5000      0.8258
     49.5000      0.0100      0.2600      4.0000   -999.2500   -999.2500     61.5199      0.8258      2.7692   -999.2500   -999.2500      0.1742      0.1680      0.4242      0.4639     61.5199      3.3665      7.5373      5.6576   -999.2500      7.5373    -18.3424      7.5435      0.3563      0.0574      0.6129      0.2500      0.5000      0.5000      0.8258
     50.0000      0.0100      0.2600      4.0000   -999.2500   -999.2500     56.7795      0.8258      2.7692   -999.2500   -999.2500      0.1742      0.1680      0.4242      0.4639     56.7795      3.3661      7.2421      4.5103   -999.2500      7.2421    -19.4897      6.0138      0.3666      0.0574      0.6130      0.2500      0.5000      0.5000      0.8258
     50.5000      0.0100      0.2600      4.0000   -999.2500   -999.2500     52.0694      0.8258      2.7692   -999.2500   -999.2500      0.1742      0.1680      0.4242      0.4639     52.0694      3.3658      7.0438      2.4913   -999.2500      7.0438    -21.5087      3.3217      0.3781      0.0574      0.6130      0.2500      0.5000      0.5000      0.8258
     51.0000      0.0100      0.2600      4.0000   -999.2500   -999.2500     48.6629      0.8259      2.7692   -999.2500   -999.2500      0.1741      0.1680      0.4241      0.4639     48.6629      3.3655      6.9726      0.7010   -999.2500      6.9726    -23.2990      0.9346      0.3873      0.0574      0.6130      0.2500      0.5000      0.5000      0.8259
