~V
VERS. 2.00: Ver 2.00
WRAP.   NO:        
~W
 STRT.FT 40:
 STOP.FT 4330:
 STEP.FT 0.5:
 NULL. -999.250000:
 COMP. Standard (Chevron):Company
 WELL. KCL 44-45:Well
 FLD. Pioneer:Field
 LOC. S32 T11N R22W:Location
 STAT. CA:State
 SRVC. :Service Company
 SON. :Service Order #
 DATE. :Log Date
 UWI. 0941000:Unique Well ID
~C
 DEPT.FT :
 BVES. :
 BVTS. :
 FACE. :
 GR.RE/T :
 GRS.RE/T :
 ILD.OHMM :
 LTHE. :
 MM. :
 NEUS.CPS :
 NEUT.CPS :
 PHES. :
 PHMX. :
 PHTS. :
 PHZC. :
 RD.OHMM :
 ROS. :
 RS.OHMM :
 SBL.MV :
 SCLN. :
 SN.OHMM :
 SP.MV :
 SPN. :
 STUS. :
 SWES. :
 SWTS. :
 VCDS. :
 VCLY. :
 VCWS. :
 VSHS. :
~P
~A
# ...
   2717.5000      0.1964      0.3537      3.0000   -999.2500   -999.2500      2.5222      0.7681      2.6042   -999.2500   -999.2500      0.2319      0.1664      0.3892      0.4553      2.5222      2.0041      3.2758    -19.0432    -90.5210      3.2758    -43.0432    -25.3909      0.9086      0.8467      0.9086      0.1573      0.3146      0.3146      0.7681
   2718.0000      0.1921      0.3450      3.0000   -999.2500   -999.2500      2.6112      0.7623      2.5761   -999.2500   -999.2500      0.2377      0.1668      0.3907      0.4576      2.6112      1.9428      3.3929    -19.8392    -90.5219      3.3929    -43.8392    -26.4523      0.8831      0.8080      0.8831      0.1529      0.3058      0.3058      0.7623
   2718.5000      0.1879      0.3398      3.0000   -999.2500   -999.2500      2.6908      0.7610      2.5698   -999.2500   -999.2500      0.2390      0.1669      0.3910      0.4582      2.6908      1.9293      3.4812    -20.0203    -90.5229      3.4812    -44.0203    -26.6937      0.8692      0.7861      0.8692      0.1519      0.3038      0.3038      0.7610
   2719.0000      0.1852      0.3389      3.0000   -999.2500   -999.2500      2.7357      0.7634      2.5814   -999.2500   -999.2500      0.2366      0.1668      0.3904      0.4572      2.7357      1.9542      3.5282    -19.6918    -90.5238      3.5282    -43.6918    -26.2557      0.8682      0.7826      0.8682      0.1537      0.3075      0.3075      0.7634
   2719.5000      0.1829      0.3396      3.0000   -999.2500   -999.2500      2.7683      0.7672      2.5998   -999.2500   -999.2500      0.2328      0.1665      0.3894      0.4556      2.7683      1.9944      3.4653    -19.1719    -90.5247      3.4653    -43.1719    -25.5625      0.8719      0.7858      0.8719      0.1566      0.3132      0.3132      0.7672
   2720.0000      0.1808      0.3411      3.0000   -999.2500   -999.2500      2.7963      0.7721      2.6236   -999.2500   -999.2500      0.2279      0.1661      0.3882      0.4536      2.7963      2.0478      3.3699    -18.5002    -90.5256      3.3699    -42.5002    -24.6670      0.8787      0.7933      0.8787      0.1603      0.3206      0.3206      0.7721
   2720.5000      0.1788      0.3438      3.0000   -999.2500   -999.2500      2.8164      0.7782      2.6533   -999.2500   -999.2500      0.2218      0.1657      0.3867      0.4511      2.8164      2.1170      3.2783    -17.6618    -90.5266      3.2783    -41.6618    -23.5491      0.8890      0.8065      0.8890      0.1649      0.3299      0.3299      0.7782
   2721.0000      0.1792      0.3485      3.0000   -999.2500   -999.2500      2.7926      0.7841      2.6814   -999.2500   -999.2500      0.2159      0.1652      0.3853      0.4487      2.7926      2.1851      3.1871    -16.8699    -90.5275      3.1871    -40.8699    -22.4931      0.9045      0.8297      0.9045      0.1693      0.3386      0.3386      0.7841
   2721.5000      0.1836      0.3569      3.0000   -999.2500   -999.2500      2.6936      0.7894      2.7073   -999.2500   -999.2500      0.2106      0.1648      0.3839      0.4465      2.6936      2.2505      3.1012    -16.1377    -90.5284      3.1012    -40.1377    -21.5169      0.9296      0.8717      0.9296      0.1734      0.3467      0.3467      0.7894
   2722.0000      0.1868      0.3669      3.0000   -999.2500   -999.2500      2.5212      0.7984      2.7225   -999.2500   -999.2500      0.2016      0.1642      0.3817      0.4428      2.5212      2.3022      3.0051    -14.9133    -90.5293      3.0051    -38.9134    -19.8845      0.9611      0.9264      0.9611      0.1801      0.3603      0.3603      0.7984
   2722.5000      0.1847      0.3770      3.0000   -999.2500   -999.2500      2.3735      0.8145      2.7337   -999.2500   -999.2500      0.1855      0.1630      0.3778      0.4363      2.3735      2.3624      2.9010    -12.7189    -90.5303      2.9010    -36.7189    -16.9585      0.9980      0.9959      0.9980      0.1923      0.3845      0.3845      0.8145
   2723.0000      0.1703      0.3740      4.0000   -999.2500   -999.2500      2.2443      0.8297      2.7443   -999.2500   -999.2500      0.1703      0.1618      0.3740      0.4301      2.2443      2.4219      2.8088    -10.6511    -90.5312      2.8088    -34.6511    -14.2015      1.0277      1.0000      1.0000      0.2037      0.4073      0.4073      0.8297
   2723.5000      0.1588      0.3711      4.0000   -999.2500   -999.2500      2.1460      0.8412      2.7523   -999.2500   -999.2500      0.1588      0.1610      0.3711      0.4254      2.1460      2.4689      2.7143     -9.0840    -90.5321      2.7143    -33.0840    -12.1120      1.0515      1.0000      1.0000      0.2123      0.4247      0.4247      0.8412
   2724.0000      0.1470      0.3682      4.0000   -999.2500   -999.2500      2.0679      0.8530      2.7605   -999.2500   -999.2500      0.1470      0.1601      0.3682      0.4207      2.0679      2.5185      2.6089     -7.4869    -90.5331      2.6089    -31.4869     -9.9825      1.0780      1.0000      1.0000      0.2212      0.4423      0.4423      0.8530
   2724.5000      0.1393      0.3662      4.0000   -999.2500   -999.2500      2.0065      0.8607      2.7659   -999.2500   -999.2500      0.1393      0.1596      0.3662      0.4175      2.0065      2.5519      2.5054     -6.2721    -90.5340      2.5054    -30.2721     -8.3628      1.0958      1.0000      1.0000      0.2269      0.4538      0.4538      0.8607
   2725.0000      0.1344      0.3650      4.0000   -999.2500   -999.2500      1.9773      0.8656      2.7693   -999.2500   -999.2500      0.1344      0.1592      0.3650      0.4155      1.9773      2.5736      2.4797     -5.2783    -90.5349      2.4797    -29.2783     -7.0378      1.1054      1.0000      1.0000      0.2306      0.4611      0.4611      0.8656
   2725.5000      0.1328      0.3646      4.0000   -999.2500   -999.2500      1.9577      0.8672      2.7705   -999.2500   -999.2500      0.1328      0.1591      0.3646      0.4149      1.9577      2.5809      2.6951     -4.9481    -90.5358      2.6951    -28.9481     -6.5975      1.1108      1.0000      1.0000      0.2318      0.4636      0.4636      0.8672
   2726.0000      0.1479      0.3683      4.0000   -999.2500   -999.2500      1.9473      0.8521      2.7600   -999.2500   -999.2500      0.1479      0.1602      0.3683      0.4210      1.9473      2.5148      2.8139     -7.6148    -90.5368      2.8139    -31.6148    -10.1531      1.1024      1.0000      1.0000      0.2204      0.4409      0.4409      0.8521
   2726.5000      0.1637      0.3723      4.0000   -999.2500   -999.2500      1.9468      0.8363      2.7491   -999.2500   -999.2500      0.1637      0.1613      0.3723      0.4274      1.9468      2.4489      2.9104     -9.7632    -90.5377      2.9104    -33.7632    -13.0175      1.0916      1.0000      1.0000      0.2086      0.4172      0.4172      0.8363
   2727.0000      0.1753      0.3752      3.0000   -999.2500   -999.2500      2.0937      0.8247      2.7411   -999.2500   -999.2500      0.1753      0.1622      0.3752      0.4321      2.0937      2.4022      2.9777    -11.3510    -90.5386      2.9777    -35.3510    -15.1347      1.0508      1.0000      1.0000      0.1998      0.3996      0.3996      0.8247
   2727.5000      0.1799      0.3763      3.0000   -999.2500   -999.2500      2.2079      0.8201      2.7379   -999.2500   -999.2500      0.1799      0.1625      0.3763      0.4339      2.2079      2.3844      2.9686    -11.9704    -90.5395      2.9686    -35.9704    -15.9605      1.0281      1.0000      1.0000      0.1964      0.3928      0.3928      0.8201
   2728.0000      0.1816      0.3767      3.0000   -999.2500   -999.2500      2.3123      0.8184      2.7368   -999.2500   -999.2500      0.1816      0.1627      0.3767      0.4346      2.3123      2.3779      2.9564    -12.2037    -90.5405      2.9564    -36.2037    -16.2716      1.0078      1.0000      1.0000      0.1951      0.3902      0.3902      0.8184
   2728.5000      0.1821      0.3755      3.0000   -999.2500   -999.2500      2.3942      0.8162      2.7353   -999.2500   -999.2500      0.1838      0.1628      0.3772      0.4355      2.3942      2.3692      2.9290    -12.5131    -90.5414      2.9290    -36.5131    -16.6842      0.9954      0.9906      0.9954      0.1934      0.3868      0.3868      0.8162
