~V
VERS. 2.00: Ver 2.00
WRAP.   NO:        
~W
 STRT.FT 40:
 STOP.FT 4330:
 STEP.FT 0.5:
 NULL. -999.250000:
 COMP. Standard (Chevron):Company
 WELL. KCL 44-45:Well
 FLD. Pioneer:Field
 LOC. S32 T11N R22W:Location
 STAT. CA:State
 SRVC. :Service Company
 SON. :Service Order #
 DATE. :Log Date
 UWI. 0941000:Unique Well ID
~C
 DEPT.FT :
 BVES. :
 BVTS. :
 FACE. :
 GR.RE/T :
 GRS.RE/T :
 ILD.OHMM :
 LTHE. :
 MM. :
 NEUS.CPS :
 NEUT.CPS :
 PHES. :
 PHMX. :
 PHTS. :
 PHZC. :
 RD.OHMM :
 ROS. :
 RS.OHMM :
 SBL.MV :
 SCLN. :
 SN.OHMM :
 SP.MV :
 SPN. :
 STUS. :
 SWES. :
 SWTS. :
 VCDS. :
 VCLY. :
 VCWS. :
 VSHS. :
~P
~A
# ...
   3279.0000      0.0100      0.3600      4.0000      4.0320      4.1248      3.2750      0.8500   -999.2500    247.8686    251.5220      0.1500 49090916870222007100000000000.0000      0.5000 270000019174388625000000000000.0000      3.2750      0.5577   -999.2500   -999.2500   -999.2500   -999.2500   -999.2500   -999.2500      0.3335      0.0667      0.7200      0.3500   -999.2500      0.7000      0.8500
   3279.5000      0.0100      0.3600      4.0000      4.0590      4.1548      3.3252      0.8500   -999.2500    246.6846    250.3820      0.1500 49090916870222007100000000000.0000      0.5000 270000019174388625000000000000.0000      3.3252      0.5577   -999.2500   -999.2500   -999.2500   -999.2500   -999.2500   -999.2500      0.3301      0.0667      0.7200      0.3500   -999.2500      0.7000      0.8500
   3280.0000      0.0100      0.3600      4.0000      4.0950      4.1869      3.3571      0.8500   -999.2500    246.0204    249.1870      0.1500 49090916870222007100000000000.0000      0.5000 270000019174388625000000000000.0000      3.3571      0.5577   -999.2500   -999.2500   -999.2500   -999.2500   -999.2500   -999.2500      0.3279      0.0667      0.7200      0.3500   -999.2500      0.7000      0.8500
   3280.5000      0.0100      0.3600      4.0000      4.1110      4.2349      3.3855      0.8500 -1000000015047466220000000000000.0000    245.4456    248.4800      0.1500 49090916870222007100000000000.0000      0.5000 270000019174388625000000000000.0000      3.3855      0.5576   -999.2500   -999.2500   -999.2500   -999.2500   -999.2500   -999.2500      0.3260      0.0667      0.7200      0.3500   -999.2500      0.7000      0.8500
   3281.0000      0.0100      0.3600      4.0000      4.1270      4.2534      3.4138      0.8500   -999.2500    245.5111    247.7720      0.1500 49090916870222007100000000000.0000      0.5000 270000019174388625000000000000.0000      3.4138      0.5576   -999.2500   -999.2500   -999.2500   -999.2500   -999.2500   -999.2500      0.3242      0.0667      0.7200      0.3500   -999.2500      0.7000      0.8500
   3281.5000      0.0100      0.3600      4.0000      4.1590      4.2692      3.4206      0.8500   -999.2500    245.6649    246.5200      0.1500 49090916870222007100000000000.0000      0.5000 270000019174388625000000000000.0000      3.4206      0.5575   -999.2500   -999.2500   -999.2500   -999.2500   -999.2500   -999.2500      0.3237      0.0667      0.7200      0.3500   -999.2500      0.7000      0.8500
   3282.0000      0.0100      0.3600      4.0000      4.1910      4.2755      3.2683      0.8500 -1000000166163193670000000000000.0000    245.7740    245.9480      0.1500 49090916870222007100000000000.0000      0.5000 270000019174388625000000000000.0000      3.2683      0.5575   -999.2500   -999.2500   -999.2500   -999.2500   -999.2500   -999.2500      0.3338      0.0667      0.7200      0.3500   -999.2500      0.7000      0.8500
   3282.5000      0.0100      0.3600      4.0000      4.2410      4.2805      3.0926      0.8500   -999.2500    246.0068    245.3760      0.1500 49090916870222007100000000000.0000      0.5000 270000019174388625000000000000.0000      3.0926      0.5574   -999.2500   -999.2500   -999.2500   -999.2500   -999.2500   -999.2500      0.3465      0.0667      0.7200      0.3500   -999.2500      0.7000      0.8500
   3283.0000      0.0100      0.3600      4.0000      4.2550      4.2765      2.9285      0.8500   -999.2500    246.2541    245.5290      0.1500 49090916870222007100000000000.0000      0.5000 270000019174388625000000000000.0000      2.9285      0.5574   -999.2500   -999.2500   -999.2500   -999.2500   -999.2500   -999.2500      0.3593      0.0667      0.7200      0.3500   -999.2500      0.7000      0.8500
   3283.5000      0.0100      0.3600      4.0000      4.2710      4.2415      2.8813      0.8500   -999.2500    246.5013    245.6820      0.1500 49090916870222007100000000000.0000      0.5000 270000019174388625000000000000.0000      2.8813      0.5573   -999.2500   -999.2500   -999.2500   -999.2500   -999.2500   -999.2500      0.3632      0.0667      0.7200      0.3500   -999.2500      0.7000      0.8500
   3284.0000      0.0100      0.3600      4.0000      4.2760      4.1997      2.9501      0.8500   -999.2500    246.8471    245.7850      0.1500 49090916870222007100000000000.0000      0.5000 270000019174388625000000000000.0000      2.9501      0.5573   -999.2500   -999.2500   -999.2500   -999.2500   -999.2500   -999.2500      0.3575      0.0667      0.7200      0.3500   -999.2500      0.7000      0.8500
   3284.5000      0.0100      0.3600      4.0000      4.2810      4.1666      3.0375      0.8500   -999.2500    247.2028    246.0320      0.1500 49090916870222007100000000000.0000      0.5000 270000019174388625000000000000.0000      3.0375      0.5572   -999.2500   -999.2500   -999.2500   -999.2500   -999.2500   -999.2500      0.3506      0.0667      0.7200      0.3500   -999.2500      0.7000      0.8500
   3285.0000      0.0100      0.3600      4.0000      4.2760      4.1022      3.1265      0.8500   -999.2500    247.5585    246.2780      0.1500 49090916870222007100000000000.0000      0.5000 270000019174388625000000000000.0000      3.1265      0.5572   -999.2500   -999.2500   -999.2500   -999.2500   -999.2500   -999.2500      0.3438      0.0667      0.7200      0.3500   -999.2500      0.7000      0.8500
   3285.5000      0.0100      0.3600      4.0000      4.2380      4.0404      3.2116      0.8500 -1000000015047466220000000000000.0000    252.6384    246.5240      0.1500 49090916870222007100000000000.0000      0.5000 270000019174388625000000000000.0000      3.2116      0.5571   -999.2500   -999.2500   -999.2500   -999.2500   -999.2500   -999.2500      0.3376      0.0667      0.7200      0.3500   -999.2500      0.7000      0.8500
   3286.0000      0.0100      0.3600      4.0000      4.1960      3.9940      3.2948      0.8500 -1000000166163193670000000000000.0000    255.5969    246.8780      0.1500 49090916870222007100000000000.0000      0.5000 270000019174388625000000000000.0000      3.2948      0.5571   -999.2500   -999.2500   -999.2500   -999.2500   -999.2500   -999.2500      0.3318      0.0667      0.7200      0.3500   -999.2500      0.7000      0.8500
   3286.5000      0.0100      0.3600      4.0000      4.1640      3.9235      3.2767      0.8500   -999.2500    258.5102    247.2320      0.1500 49090916870222007100000000000.0000      0.5000 270000019174388625000000000000.0000      3.2767      0.5570   -999.2500   -999.2500   -999.2500   -999.2500   -999.2500   -999.2500      0.3330      0.0667      0.7200      0.3500   -999.2500      0.7000      0.8500
   3287.0000      0.0100      0.3600      4.0000      4.0970      3.8870      3.2503      0.8500   -999.2500    260.1108    247.5860      0.1500 49090916870222007100000000000.0000      0.5000 270000019174388625000000000000.0000      3.2503      0.5570   -999.2500   -999.2500   -999.2500   -999.2500   -999.2500   -999.2500      0.3348      0.0667      0.7200      0.3500   -999.2500      0.7000      0.8500
   3287.5000      0.0100      0.3600      4.0000      4.0360      3.8253      3.2255      0.8500 -1000000015047466220000000000000.0000    260.9102    253.0340      0.1500 49090916870222007100000000000.0000      0.5000 270000019174388625000000000000.0000      3.2255      0.5569   -999.2500   -999.2500   -999.2500   -999.2500   -999.2500   -999.2500      0.3365      0.0667      0.7200      0.3500   -999.2500      0.7000      0.8500
   3288.0000      0.0100      0.3600      4.0000      3.9910      3.7887      3.2073      0.8500 -1000000166163193670000000000000.0000    261.7667    255.7830      0.1500 49090916870222007100000000000.0000      0.5000 270000019174388625000000000000.0000      3.2073      0.5569   -999.2500   -999.2500   -999.2500   -999.2500   -999.2500   -999.2500      0.3378      0.0667      0.7200      0.3500   -999.2500      0.7000      0.8500
   3288.5000      0.0100      0.3600      4.0000      3.9190      3.7583      3.2612      0.8500   -999.2500    261.9582    258.6930      0.1500 49090916870222007100000000000.0000      0.5000 270000019174388625000000000000.0000      3.2612      0.5568   -999.2500   -999.2500   -999.2500   -999.2500   -999.2500   -999.2500      0.3340      0.0667      0.7200      0.3500   -999.2500      0.7000      0.8500
