~V
VERS. 2.00: Ver 2.00
WRAP.   NO:        
~W
 STRT.FT 30:
 STOP.FT 4840:
 STEP.FT 0.5:
 NULL. -999.250000:
 COMP. Standard (Chevron):Company
 WELL. KCL 44-23:Well
 FLD. Pioneer:Field
 LOC. S32 T11N R22W:Location
 STAT. CA:State
 SRVC. :Service Company
 SON. :Service Order #
 DATE. :Log Date
 UWI. 0940500:Unique Well ID
~C
 DEPT.FT :
 BVES. :
 BVTS. :
 FACE. :
 GR.RE/T :
 GRS.RE/T :
 ILD.OHMM :
 LTHE. :
 MM. :
 NEUT.CPS :
 PHES. :
 PHMX. :
 PHTS. :
 PHZC. :
 RD.OHMM :
 ROS. :
 RS.OHMM :
 SBL.MV :
 SCLN. :
 SN.OHMM :
 SP.MV :
 SPN.RE/T :
 STUS. :
 SWES. :
 SWTS. :
 VCDS. :
 VCLY. :
 VCWS. :
 VSHS. :
~P
~A
# ...
   4216.0000      0.0100      0.3600      4.0000      4.8870      4.9845      3.3080      0.8500   -999.2500    241.3150      0.1500 49090916870222007100000000000.0000      0.5000 270000019174388625000000000000.0000      3.3080      0.4799   -999.2500   -999.2500   -999.2500   -999.2500   -999.2500    -10.3097      0.2883      0.0667      0.7200      0.3500   -999.2500      0.7000      0.8500
   4216.5000      0.0100      0.3600      4.0000      4.8580      4.9741      3.3490      0.8500   -999.2500    241.6870      0.1500 49090916870222007100000000000.0000      0.5000 270000019174388625000000000000.0000      3.3490      0.4799   -999.2500   -999.2500   -999.2500   -999.2500   -999.2500    -10.5183      0.2857      0.0667      0.7200      0.3500   -999.2500      0.7000      0.8500
   4217.0000      0.0100      0.3600      4.0000      4.8420      4.9559      3.3880      0.8500   -999.2500    242.0570      0.1500 49090916870222007100000000000.0000      0.5000 270000019174388625000000000000.0000      3.3880      0.4798   -999.2500   -999.2500   -999.2500   -999.2500   -999.2500    -10.8819      0.2834      0.0667      0.7200      0.3500   -999.2500      0.7000      0.8500
   4217.5000      0.0100      0.3600      4.0000      4.8250      4.9291      3.4270      0.8500   -999.2500    242.4280      0.1500 49090916870222007100000000000.0000      0.5000 270000019174388625000000000000.0000      3.4270      0.4798   -999.2500   -999.2500   -999.2500   -999.2500   -999.2500    -11.4182      0.2810      0.0667      0.7200      0.3500   -999.2500      0.7000      0.8500
   4218.0000      0.0100      0.3600      4.0000      4.8070      4.9018      3.4760      0.8500   -999.2500    242.6210      0.1500 49090916870222007100000000000.0000      0.5000 270000019174388625000000000000.0000      3.4760      0.4797   -999.2500   -999.2500   -999.2500   -999.2500   -999.2500    -11.9640      0.2782      0.0667      0.7200      0.3500   -999.2500      0.7000      0.8500
   4218.5000      0.0100      0.3600      4.0000      4.7970      4.8735      3.5190      0.8500   -999.2500    242.8150      0.1500 49090916870222007100000000000.0000      0.5000 270000019174388625000000000000.0000      3.5190      0.4797   -999.2500   -999.2500   -999.2500   -999.2500   -999.2500    -12.5295      0.2757      0.0667      0.7200      0.3500   -999.2500      0.7000      0.8500
   4219.0000      0.0100      0.3600      4.0000      4.7860      4.8507      3.5330      0.8500   -999.2500    243.0090      0.1500 49090916870222007100000000000.0000      0.5000 270000019174388625000000000000.0000      3.5330      0.4797   -999.2500   -999.2500   -999.2500   -999.2500   -999.2500    -12.9865      0.2749      0.0667      0.7200      0.3500   -999.2500      0.7000      0.8500
   4219.5000      0.0100      0.3600      4.0000      4.7700      4.8343      3.5470      0.8500   -999.2500    243.4060      0.1500 49090916870222007100000000000.0000      0.5000 270000019174388625000000000000.0000      3.5470      0.4796   -999.2500   -999.2500   -999.2500   -999.2500   -999.2500    -13.3133      0.2741      0.0667      0.7200      0.3500   -999.2500      0.7000      0.8500
   4220.0000      0.0100      0.3600      4.0000      4.7580      4.8170      3.5900      0.8500   -999.2500    243.8040      0.1500 49090916870222007100000000000.0000      0.5000 270000019174388625000000000000.0000      3.5900      0.4796   -999.2500   -999.2500   -999.2500   -999.2500   -999.2500    -13.6599      0.2717      0.0667      0.7200      0.3500   -999.2500      0.7000      0.8500
   4220.5000      0.0100      0.3600      4.0000      4.7490      4.8026      3.6140      0.8500   -999.2500    244.2280      0.1500 49090916870222007100000000000.0000      0.5000 270000019174388625000000000000.0000      3.6140      0.4796   -999.2500   -999.2500   -999.2500   -999.2500   -999.2500    -13.9475      0.2704      0.0667      0.7200      0.3500   -999.2500      0.7000      0.8500
   4221.0000      0.0100      0.3600      4.0000      4.7310      4.7923      3.6390      0.8500   -999.2500    244.4930      0.1500 49090916870222007100000000000.0000      0.5000 270000019174388625000000000000.0000      3.6390      0.4795   -999.2500   -999.2500   -999.2500   -999.2500   -999.2500    -14.1548      0.2690      0.0667      0.7200      0.3500   -999.2500      0.7000      0.8500
   4221.5000      0.0100      0.3600      4.0000      4.7140      4.7792      3.6710      0.8500   -999.2500    244.7580      0.1500 49090916870222007100000000000.0000      0.5000 270000019174388625000000000000.0000      3.6710      0.4795   -999.2500   -999.2500   -999.2500   -999.2500   -999.2500    -14.4156      0.2673      0.0667      0.7200      0.3500   -999.2500      0.7000      0.8500
   4222.0000      0.0100      0.3600      4.0000      4.6960      4.7650      3.7030      0.8500   -999.2500    243.7880      0.1500 49090916870222007100000000000.0000      0.5000 270000019174388625000000000000.0000      3.7030      0.4795   -999.2500   -999.2500   -999.2500   -999.2500   -999.2500    -14.7001      0.2656      0.0667      0.7200      0.3500   -999.2500      0.7000      0.8500
   4222.5000      0.0100      0.3600      4.0000      4.6840      4.7543      3.7280      0.8500   -999.2500    242.9260      0.1500 49090916870222007100000000000.0000      0.5000 270000019174388625000000000000.0000      3.7280      0.4794   -999.2500   -999.2500   -999.2500   -999.2500   -999.2500    -14.9139      0.2643      0.0667      0.7200      0.3500   -999.2500      0.7000      0.8500
   4223.0000      0.0100      0.3600      4.0000      4.6700      4.7417      3.7450      0.8500   -999.2500    242.4680      0.1500 49090916870222007100000000000.0000      0.5000 270000019174388625000000000000.0000      3.7450      0.4794   -999.2500   -999.2500   -999.2500   -999.2500   -999.2500    -15.1653      0.2634      0.0667      0.7200      0.3500   -999.2500      0.7000      0.8500
   4223.5000      0.0100      0.3600      4.0000      4.6570      4.7243      3.7630      0.8500   -999.2500    242.0110      0.1500 49090916870222007100000000000.0000      0.5000 270000019174388625000000000000.0000      3.7630      0.4794   -999.2500   -999.2500   -999.2500   -999.2500   -999.2500    -15.5149      0.2625      0.0667      0.7200      0.3500   -999.2500      0.7000      0.8500
   4224.0000      0.0100      0.3600      4.0000      4.6450      4.7070      3.7660      0.8500   -999.2500    241.2840      0.1500 49090916870222007100000000000.0000      0.5000 270000019174388625000000000000.0000      3.7660      0.4793   -999.2500   -999.2500   -999.2500   -999.2500   -999.2500    -15.8604      0.2623      0.0667      0.7200      0.3500   -999.2500      0.7000      0.8500
   4224.5000      0.0100      0.3600      4.0000      4.5990      4.6914      3.7700      0.8500   -999.2500    240.5570      0.1500 49090916870222007100000000000.0000      0.5000 270000019174388625000000000000.0000      3.7700      0.4793   -999.2500   -999.2500   -999.2500   -999.2500   -999.2500    -16.1720      0.2621      0.0667      0.7200      0.3500   -999.2500      0.7000      0.8500
   4225.0000      0.0100      0.3600      4.0000      4.5770      4.6787      3.7620      0.8500   -999.2500    239.4270      0.1500 49090916870222007100000000000.0000      0.5000 270000019174388625000000000000.0000      3.7620      0.4792   -999.2500   -999.2500   -999.2500   -999.2500   -999.2500    -16.4254      0.2625      0.0667      0.7200      0.3500   -999.2500      0.7000      0.8500
   4225.5000      0.0100      0.3600      4.0000      4.5540      4.6652      3.7620      0.8500   -999.2500    238.2980      0.1500 49090916870222007100000000000.0000      0.5000 270000019174388625000000000000.0000      3.7620      0.4792   -999.2500   -999.2500   -999.2500   -999.2500   -999.2500    -16.6961      0.2624      0.0667      0.7200      0.3500   -999.2500      0.7000      0.8500
   4226.0000      0.0100      0.3600      4.0000      4.5310      4.6526      3.7620      0.8500   -999.2500    237.5980      0.1500 49090916870222007100000000000.0000      0.5000 270000019174388625000000000000.0000      3.7620      0.4792   -999.2500   -999.2500   -999.2500   -999.2500   -999.2500    -16.9471      0.2624      0.0667      0.7200      0.3500   -999.2500      0.7000      0.8500
