~V
VERS. 2.00: Ver 2.00
WRAP.   NO:        
~W
 STRT.FT 20:
 STOP.FT 4330:
 STEP.FT 0.5:
 NULL. -999.250000:
 COMP. Standard (Chevron):Company
 WELL. KCL 44-25:Well
 FLD. Pioneer:Field
 LOC. S32 T11N R22W:Location
 STAT. CA:State
 SRVC. :Service Company
 SON. :Service Order #
 DATE. :Log Date
 UWI. 0940600:Unique Well ID
~C
 DEPT.FT :
 BVES. :
 BVTS. :
 FACE. :
 GR.RE/T :
 GRS.RE/T :
 ILD.OHMM :
 LTHE. :
 MM. :
 NEUS.CPS :
 NEUT.CPS :
 PHES. :
 PHMX. :
 PHTS. :
 PHZC. :
 RD.OHMM :
 ROS. :
 RS.OHMM :
 SBL.MV :
 SCLN. :
 SN.OHMM :
 SP.MV :
 SPN. :
 STUS. :
 SWES. :
 SWTS. :
 VCDS. :
 VCLY. :
 VCWS. :
 VSHS. :
~P
~A
# ...
   1449.0000      0.3450      0.4345      2.0000   -999.2500   -999.2500      1.3680      0.6478      2.1526   -999.2500   -999.2500      0.3522      0.1781      0.4416      0.5198      1.3680      1.3219      1.4980    -20.4283    -72.8498      1.4980    -43.8060    -25.5354      0.9838      0.9797      0.9838      0.0895      0.1789      0.1789      0.5965
   1449.5000      0.3427      0.4261      2.0000   -999.2500   -999.2500      1.3830      0.6399      2.1139   -999.2500   -999.2500      0.3601      0.1787      0.4435      0.5231      1.3830      1.2735      1.5090    -21.5645    -72.8538      1.5090    -44.9530    -26.9556      0.9608      0.9518      0.9608      0.0834      0.1668      0.1668      0.5561
   1450.0000      0.3368      0.4186      2.0000   -999.2500   -999.2500      1.4230      0.6377      2.1032   -999.2500   -999.2500      0.3623      0.1789      0.4440      0.5240      1.4230      1.2605      1.5270    -21.8786    -72.8579      1.5270    -45.2780    -27.3483      0.9427      0.9298      0.9427      0.0817      0.1635      0.1635      0.5450
   1450.5000      0.3331      0.4150      2.0000   -999.2500   -999.2500      1.4490      0.6379      2.1037   -999.2500   -999.2500      0.3621      0.1789      0.4440      0.5239      1.4490      1.2612      1.5530    -21.8638    -72.8619      1.5530    -45.2740    -27.3298      0.9347      0.9199      0.9347      0.0818      0.1637      0.1637      0.5456
   1451.0000      0.3273      0.4146      2.0000   -999.2500   -999.2500      1.4920      0.6450      2.1385   -999.2500   -999.2500      0.3550      0.1784      0.4423      0.5210      1.4920      1.3039      1.5890    -20.8470    -72.8659      1.5890    -44.2680    -26.0587      0.9374      0.9220      0.9374      0.0873      0.1745      0.1745      0.5818
   1451.5000      0.3234      0.4192      3.0000   -999.2500   -999.2500      1.5210      0.6561      2.1928   -999.2500   -999.2500      0.3439      0.1775      0.4396      0.5164      1.5210      1.3745      1.6180    -19.2572    -72.8699      1.6180    -42.6890    -24.0715      0.9535      0.9406      0.9535      0.0958      0.1915      0.1915      0.6384
   1452.0000      0.3197      0.4187      3.0000   -999.2500   -999.2500      1.5500      0.6605      2.2142   -999.2500   -999.2500      0.3395      0.1772      0.4386      0.5145      1.5500      1.4035      1.6690    -18.6333    -72.8739      1.6690    -42.0760    -23.2917      0.9548      0.9416      0.9548      0.0991      0.1982      0.1982      0.6605
   1452.5000      0.3154      0.4179      3.0000   -999.2500   -999.2500      1.5830      0.6649      2.2355   -999.2500   -999.2500      0.3351      0.1769      0.4375      0.5127      1.5830      1.4332      1.7050    -18.0105    -72.8780      1.7050    -41.4640    -22.5131      0.9551      0.9414      0.9551      0.1024      0.2048      0.2048      0.6649
   1453.0000      0.3121      0.4199      3.0000   -999.2500   -999.2500      1.6090      0.6721      2.2703   -999.2500   -999.2500      0.3279      0.1763      0.4358      0.5098      1.6090      1.4835      1.7450    -16.9937    -72.8820      1.7450    -40.4580    -21.2421      0.9636      0.9516      0.9636      0.1079      0.2157      0.2157      0.6721
   1453.5000      0.3069      0.4179      3.0000   -999.2500   -999.2500      1.6520      0.6762      2.2904   -999.2500   -999.2500      0.3238      0.1760      0.4348      0.5081      1.6520      1.5136      1.7600    -16.4059    -72.8860      1.7600    -39.8810    -20.5073      0.9611      0.9477      0.9611      0.1110      0.2220      0.2220      0.6762
   1454.0000      0.3040      0.4221      3.0000   -999.2500   -999.2500      1.6740      0.6856      2.3361   -999.2500   -999.2500      0.3144      0.1753      0.4325      0.5042      1.6740      1.5851      1.7320    -15.0671    -72.8900      1.7320    -38.5530    -18.8338      0.9759      0.9668      0.9759      0.1181      0.2363      0.2363      0.6856
   1454.5000      0.3021      0.4230      3.0000   -999.2500   -999.2500      1.6890      0.6893      2.3538   -999.2500   -999.2500      0.3107      0.1750      0.4316      0.5027      1.6890      1.6137      1.7320    -14.5512    -72.8941      1.7320    -38.0480    -18.1890      0.9799      0.9721      0.9799      0.1209      0.2418      0.2418      0.6893
   1455.0000      0.3010      0.4267      3.0000   -999.2500   -999.2500      1.6960      0.6957      2.3848   -999.2500   -999.2500      0.3043      0.1746      0.4301      0.5001      1.6960      1.6659      1.7430    -13.6414    -72.8981      1.7430    -37.1490    -17.0518      0.9921      0.9889      0.9921      0.1258      0.2515      0.2515      0.6957
   1455.5000      0.2999      0.4290      3.0000   -999.2500   -999.2500      1.6570      0.7001      2.4061   -999.2500   -999.2500      0.2999      0.1742      0.4290      0.4983      1.6570      1.7028      1.7470    -13.0186    -72.9021      1.7470    -36.5370    -16.2732      1.0104      1.0000      1.0000      0.1291      0.2582      0.2582      0.7001
   1456.0000      0.3043      0.4301      3.0000   -999.2500   -999.2500      1.6140      0.6957      2.3847   -999.2500   -999.2500      0.3043      0.1746      0.4301      0.5001      1.6140      1.6655      1.7370    -13.6488    -72.9061      1.7370    -37.1780    -17.0610      1.0122      1.0000      1.0000      0.1257      0.2515      0.2515      0.6957
   1456.5000      0.3080      0.4310      3.0000   -999.2500   -999.2500      1.5610      0.6920      2.3669   -999.2500   -999.2500      0.3080      0.1748      0.4310      0.5016      1.5610      1.6353      1.7010    -14.1719    -72.9102      1.7010    -37.7120    -17.7149      1.0184      1.0000      1.0000      0.1229      0.2459      0.2459      0.6920
   1457.0000      0.3101      0.4315      3.0000   -999.2500   -999.2500      1.5250      0.6899      2.3564   -999.2500   -999.2500      0.3101      0.1750      0.4315      0.5024      1.5250      1.6179      1.6800    -14.4791    -72.9142      1.6800    -38.0300    -18.0989      1.0236      1.0000      1.0000      0.1213      0.2426      0.2426      0.6899
   1457.5000      0.3123      0.4320      3.0000   -999.2500   -999.2500      1.4900      0.6877      2.3459   -999.2500   -999.2500      0.3123      0.1751      0.4320      0.5033      1.4900      1.6007      1.6300    -14.7873    -72.9182      1.6300    -38.3490    -18.4841      1.0289      1.0000      1.0000      0.1197      0.2394      0.2394      0.6877
   1458.0000      0.3162      0.4329      3.0000   -999.2500   -999.2500      1.4540      0.6838      2.3269   -999.2500   -999.2500      0.3162      0.1754      0.4329      0.5049      1.4540      1.5700      1.6090    -15.3455    -72.9222      1.6090    -38.9180    -19.1818      1.0314      1.0000      1.0000      0.1167      0.2334      0.2334      0.6838
   1458.5000      0.3223      0.4344      3.0000   -999.2500   -999.2500      1.4290      0.6777      2.2969   -999.2500   -999.2500      0.3223      0.1759      0.4344      0.5074      1.4290      1.5232      1.5800    -16.2266    -72.9262      1.5800    -39.8100    -20.2833      1.0266      1.0000      1.0000      0.1120      0.2240      0.2240      0.6777
   1459.0000      0.3322      0.4367      3.0000   -999.2500   -999.2500      1.3940      0.6678      2.2486   -999.2500   -999.2500      0.3322      0.1766      0.4367      0.5115      1.3940      1.4514      1.5630    -17.6448    -72.9303      1.5630    -41.2390    -22.0560      1.0173      1.0000      1.0000      0.1045      0.2089      0.2089      0.6678
   1459.5000      0.3455      0.4373      3.0000   -999.2500   -999.2500      1.3620      0.6511      2.1673   -999.2500   -999.2500      0.3489      0.1779      0.4407      0.5183      1.3620      1.3400      1.5450    -20.0290    -72.9343      1.5450    -43.6340    -25.0362      0.9923      0.9903      0.9923      0.0918      0.1835      0.1835      0.6118
   1460.0000      0.3438      0.4236      2.0000   -999.2500   -999.2500      1.3730      0.6355      2.0909   -999.2500   -999.2500      0.3645      0.1790      0.4444      0.5248      1.3730      1.2451      1.5240    -22.2702    -72.9383      1.5240    -45.8860    -27.8377      0.9533      0.9431      0.9533      0.0798      0.1596      0.1596      0.5322
