~V
VERS. 2.00: Ver 2.00
WRAP.   NO:        
~W
 STRT.FT 29:
 STOP.FT 4770:
 STEP.FT 0.5:
 NULL. -999.250000:
 COMP. Standard (Chevron):Company
 WELL. KCL 44-32:Well
 FLD. Pioneer:Field
 LOC. S32 T11N R22W:Location
 STAT. CA:State
 SRVC. :Service Company
 SON. :Service Order #
 DATE. :Log Date
 UWI. 0940700:Unique Well ID
~C
 DEPT.FT :
 BVES. :
 BVTS. :
 FACE. :
 GRS.RE/T :
 ILD.OHMM :
 LTHE. :
 MM. :
 NEUT.CPS :
 PHES. :
 PHMX. :
 PHTS. :
 PHZC. :
 RD.OHMM :
 ROS. :
 RS.OHMM :
 SBL.MV :
 SCLN. :
 SN.OHMM :
 SP.MV :
 SPN. :
 STUS. :
 SWES. :
 SWTS. :
 VCDS. :
 VCLY. :
 VCWS. :
 VSHS. :
~P
~A
# ...
   4474.0000      0.0100      0.3600      4.0000      5.1675      3.7460      0.8500   -999.2500    226.9420      0.1500 49090916870222007100000000000.0000      0.5000 270000019174388625000000000000.0000      3.7460      0.4621   -999.2500   -999.2500   -999.2500   -999.2500   -999.2500   -999.2500      0.2541      0.0667      0.7200      0.3500   -999.2500      0.7000      0.8500
   4474.5000      0.0100      0.3600      4.0000      5.1283      3.7470      0.8500   -999.2500    227.1710      0.1500 49090916870222007100000000000.0000      0.5000 270000019174388625000000000000.0000      3.7470      0.4621   -999.2500   -999.2500   -999.2500   -999.2500   -999.2500   -999.2500      0.2540      0.0667      0.7200      0.3500   -999.2500      0.7000      0.8500
   4475.0000      0.0100      0.3600      4.0000      5.1892      3.7950      0.8500   -999.2500    227.0260      0.1500 49090916870222007100000000000.0000      0.5000 270000019174388625000000000000.0000      3.7950      0.4621   -999.2500   -999.2500   -999.2500   -999.2500   -999.2500   -999.2500      0.2517      0.0667      0.7200      0.3500   -999.2500      0.7000      0.8500
   4475.5000      0.0100      0.3600      4.0000      5.2676      3.8390      0.8500   -999.2500    226.7460      0.1500 49090916870222007100000000000.0000      0.5000 270000019174388625000000000000.0000      3.8390      0.4620   -999.2500   -999.2500   -999.2500   -999.2500   -999.2500   -999.2500      0.2495      0.0667      0.7200      0.3500   -999.2500      0.7000      0.8500
   4476.0000      0.0100      0.3600      4.0000      5.2963      3.8870      0.8500   -999.2500    226.4660      0.1500 49090916870222007100000000000.0000      0.5000 270000019174388625000000000000.0000      3.8870      0.4620   -999.2500   -999.2500   -999.2500   -999.2500   -999.2500   -999.2500      0.2472      0.0667      0.7200      0.3500   -999.2500      0.7000      0.8500
   4476.5000      0.0100      0.3600      4.0000      5.3460      3.9270      0.8500   -999.2500    225.8910      0.1500 49090916870222007100000000000.0000      0.5000 270000019174388625000000000000.0000      3.9270      0.4620   -999.2500   -999.2500   -999.2500   -999.2500   -999.2500   -999.2500      0.2453      0.0667      0.7200      0.3500   -999.2500      0.7000      0.8500
   4477.0000      0.0100      0.3600      4.0000      5.3929      3.9550      0.8500   -999.2500    225.3170      0.1500 49090916870222007100000000000.0000      0.5000 270000019174388625000000000000.0000      3.9550      0.4619   -999.2500   -999.2500   -999.2500   -999.2500   -999.2500   -999.2500      0.2440      0.0667      0.7200      0.3500   -999.2500      0.7000      0.8500
   4477.5000      0.0100      0.3600      4.0000      5.4265      3.9830      0.8500   -999.2500    224.2610      0.1500 49090916870222007100000000000.0000      0.5000 270000019174388625000000000000.0000      3.9830      0.4619   -999.2500   -999.2500   -999.2500   -999.2500   -999.2500   -999.2500      0.2427      0.0667      0.7200      0.3500   -999.2500      0.7000      0.8500
   4478.0000      0.0100      0.3600      4.0000      5.4496      3.9410      0.8500   -999.2500    223.7390      0.1500 49090916870222007100000000000.0000      0.5000 270000019174388625000000000000.0000      3.9410      0.4619   -999.2500   -999.2500   -999.2500   -999.2500   -999.2500   -999.2500      0.2446      0.0667      0.7200      0.3500   -999.2500      0.7000      0.8500
   4478.5000      0.0100      0.3600      4.0000      5.4818      3.8880      0.8500   -999.2500    223.2170      0.1500 49090916870222007100000000000.0000      0.5000 270000019174388625000000000000.0000      3.8880      0.4618   -999.2500   -999.2500   -999.2500   -999.2500   -999.2500   -999.2500      0.2471      0.0667      0.7200      0.3500   -999.2500      0.7000      0.8500
   4479.0000      0.0100      0.3600      4.0000      5.5126      3.8680      0.8500   -999.2500    222.5380      0.1500 49090916870222007100000000000.0000      0.5000 270000019174388625000000000000.0000      3.8680      0.4618   -999.2500   -999.2500   -999.2500   -999.2500   -999.2500   -999.2500      0.2480      0.0667      0.7200      0.3500   -999.2500      0.7000      0.8500
   4479.5000      0.0100      0.3600      4.0000      5.5308      3.8620      0.8500   -999.2500    222.2860      0.1500 49090916870222007100000000000.0000      0.5000 270000019174388625000000000000.0000      3.8620      0.4618   -999.2500   -999.2500   -999.2500   -999.2500   -999.2500   -999.2500      0.2483      0.0667      0.7200      0.3500   -999.2500      0.7000      0.8500
   4480.0000      0.0100      0.3600      4.0000      5.5392      3.7700      0.8500   -999.2500    222.1400      0.1500 49090916870222007100000000000.0000      0.5000 270000019174388625000000000000.0000      3.7700      0.4617   -999.2500   -999.2500   -999.2500   -999.2500   -999.2500   -999.2500      0.2527      0.0667      0.7200      0.3500   -999.2500      0.7000      0.8500
   4480.5000      0.0100      0.3600      4.0000      5.5448      3.6940      0.8500   -999.2500    222.0780      0.1500 49090916870222007100000000000.0000      0.5000 270000019174388625000000000000.0000      3.6940      0.4617   -999.2500   -999.2500   -999.2500   -999.2500   -999.2500   -999.2500      0.2565      0.0667      0.7200      0.3500   -999.2500      0.7000      0.8500
   4481.0000      0.0100      0.3600      4.0000      5.5504      3.6360      0.8500   -999.2500    222.2310      0.1500 49090916870222007100000000000.0000      0.5000 270000019174388625000000000000.0000      3.6360      0.4617   -999.2500   -999.2500   -999.2500   -999.2500   -999.2500   -999.2500      0.2595      0.0667      0.7200      0.3500   -999.2500      0.7000      0.8500
   4481.5000      0.0100      0.3600      4.0000      5.5434      3.5280      0.8500   -999.2500    222.3310      0.1500 49090916870222007100000000000.0000      0.5000 270000019174388625000000000000.0000      3.5280      0.4616   -999.2500   -999.2500   -999.2500   -999.2500   -999.2500   -999.2500      0.2652      0.0667      0.7200      0.3500   -999.2500      0.7000      0.8500
   4482.0000      0.0100      0.3600      4.0000      5.5252      3.5240      0.8500   -999.2500    222.3770      0.1500 49090916870222007100000000000.0000      0.5000 270000019174388625000000000000.0000      3.5240      0.4616   -999.2500   -999.2500   -999.2500   -999.2500   -999.2500   -999.2500      0.2654      0.0667      0.7200      0.3500   -999.2500      0.7000      0.8500
   4482.5000      0.0100      0.3600      4.0000      5.4699      3.5600      0.8500   -999.2500    222.3670      0.1500 49090916870222007100000000000.0000      0.5000 270000019174388625000000000000.0000      3.5600      0.4616   -999.2500   -999.2500   -999.2500   -999.2500   -999.2500   -999.2500      0.2635      0.0667      0.7200      0.3500   -999.2500      0.7000      0.8500
   4483.0000      0.0100      0.3600      4.0000      5.4307      3.5890      0.8500   -999.2500    222.3570      0.1500 49090916870222007100000000000.0000      0.5000 270000019174388625000000000000.0000      3.5890      0.4615   -999.2500   -999.2500   -999.2500   -999.2500   -999.2500   -999.2500      0.2619      0.0667      0.7200      0.3500   -999.2500      0.7000      0.8500
   4483.5000      0.0100      0.3600      4.0000      5.3824      3.6190      0.8500   -999.2500    221.2780      0.1500 49090916870222007100000000000.0000      0.5000 270000019174388625000000000000.0000      3.6190      0.4615   -999.2500   -999.2500   -999.2500   -999.2500   -999.2500   -999.2500      0.2603      0.0667      0.7200      0.3500   -999.2500      0.7000      0.8500
   4484.0000      0.0100      0.3600      4.0000      5.3348      3.6720      0.8500   -999.2500    220.7860      0.1500 49090916870222007100000000000.0000      0.5000 270000019174388625000000000000.0000      3.6720      0.4615   -999.2500   -999.2500   -999.2500   -999.2500   -999.2500   -999.2500      0.2575      0.0667      0.7200      0.3500   -999.2500      0.7000      0.8500
