~V
VERS. 2.00: Ver 2.00
WRAP.   NO:        
~W
 STRT.FT 35:
 STOP.FT 5500:
 STEP.FT 0.5:
 NULL. -999.250000:
 COMP. Standard (Chevron):Company
 WELL. KCL 45-56:Well
 FLD. :Field
 LOC. S30 T11N R22W:Location
 STAT. CA:State
 SRVC. :Service Company
 SON. :Service Order #
 DATE. :Log Date
 UWI. 0369100:Unique Well ID
~C
 DEPT.FT :
 BVES. :
 BVTS. :
 ILD.OHMM :
 LLD.OHMM :
 LTHE. :
 MM. :
 PHES. :
 PHMX. :
 PHTS. :
 PHZC. :
 RD.OHMM :
 ROS. :
 RS.OHMM :
 SBL.MV :
 SCLN. :
 SN.OHMM :
 SP.MV :
 SPN. :
 STUS. :
 SWES. :
 SWTS. :
 VCDS. :
 VCLY. :
 VCWS. :
 VSHS. :
~P
~A
# ...
    542.0000      0.1902      0.3245      2.1240   -999.2500      0.8098      2.4063      0.1902   -999.2500      0.3245      0.3133      2.1240   -999.2500      2.7260    -21.5920    -40.0000      2.7260    -27.5920    -21.5920      1.1534      1.0000      1.0000      0.1239      0.2582      0.2582      0.8098
    542.5000      0.1919      0.3247      2.1200   -999.2500      0.8081      2.3969      0.1919   -999.2500      0.3247      0.3136      2.1200   -999.2500      2.7070    -21.7040    -40.0000      2.7070    -27.7040    -21.7040      1.1494      1.0000      1.0000      0.1225      0.2553      0.2553      0.8081
    543.0000      0.1925      0.3247      2.1300   -999.2500      0.8075      2.3936      0.1925   -999.2500      0.3247      0.3137      2.1300   -999.2500      2.7030    -21.7430    -40.0000      2.7030    -27.7430    -21.7430      1.1457      1.0000      1.0000      0.1220      0.2542      0.2542      0.8075
    543.5000      0.1920      0.3246      2.1620   -999.2500      0.8080      2.3964      0.1920   -999.2500      0.3246      0.3136      2.1620   -999.2500      2.6780    -21.7100    -40.0000      2.6780    -27.7100    -21.7100      1.1406      1.0000      1.0000      0.1225      0.2551      0.2551      0.8080
    544.0000      0.1953      0.3250      2.1830   -999.2500      0.8047      2.3779      0.1953   -999.2500      0.3250      0.3142      2.1830   -999.2500      2.6590    -21.9300    -40.0000      2.6590    -27.9300    -21.9300      1.1269      1.0000      1.0000      0.1197      0.2493      0.2493      0.8047
    544.5000      0.1975      0.3252      2.2010   -999.2500      0.8025      2.3655      0.1975   -999.2500      0.3252      0.3146      2.2010   -999.2500      2.7120    -22.0770    -40.0000      2.7120    -28.0770    -22.0770      1.1169      1.0000      1.0000      0.1178      0.2455      0.2455      0.8025
    545.0000      0.1987      0.3253      2.2180   -999.2500      0.8013      2.3591      0.1987   -999.2500      0.3253      0.3148      2.2180   -999.2500      2.7550    -22.1540    -40.0000      2.7550    -28.1540    -22.1540      1.1102      1.0000      1.0000      0.1169      0.2435      0.2435      0.8013
    545.5000      0.1976      0.3252      2.2530   -999.2500      0.8024      2.3648      0.1976   -999.2500      0.3252      0.3146      2.2530   -999.2500      2.7760    -22.0860    -40.0000      2.7760    -28.0860    -22.0860      1.1065      1.0000      1.0000      0.1177      0.2452      0.2452      0.8024
    546.0000      0.1955      0.3249      2.2770   -999.2500      0.8045      2.3765      0.1955   -999.2500      0.3249      0.3142      2.2770   -999.2500      2.8070    -21.9470    -40.0000      2.8070    -27.9470    -21.9470      1.1081      1.0000      1.0000      0.1195      0.2489      0.2489      0.8045
    546.5000      0.1950      0.3249      2.2880   -999.2500      0.8050      2.3794      0.1950   -999.2500      0.3249      0.3141      2.2880   -999.2500      2.8070    -21.9120    -40.0000      2.8070    -27.9120    -21.9120      1.1076      1.0000      1.0000      0.1199      0.2498      0.2498      0.8050
    547.0000      0.1939      0.3248      2.2840   -999.2500      0.8061      2.3851      0.1939   -999.2500      0.3248      0.3139      2.2840   -999.2500      2.7740    -21.8440    -40.0000      2.7740    -27.8440    -21.8440      1.1113      1.0000      1.0000      0.1208      0.2516      0.2516      0.8061
    547.5000      0.1945      0.3248      2.2800   -999.2500      0.8055      2.3819      0.1945   -999.2500      0.3248      0.3140      2.2800   -999.2500      2.7560    -21.8820    -40.0000      2.7560    -27.8820    -21.8820      1.1103      1.0000      1.0000      0.1203      0.2506      0.2506      0.8055
    548.0000      0.2022      0.3256      2.2610   -999.2500      0.7909      2.3392      0.2022   -999.2500      0.3256      0.3153      2.2610   -999.2500      2.7760    -22.3900    -40.0000      2.7760    -28.3900    -22.3900      1.0914      1.0000      1.0000      0.1139      0.2373      0.2373      0.7909
    548.5000      0.2115      0.3265      2.2530   -999.2500      0.7369      2.2874      0.2115   -999.2500      0.3265      0.3169      2.2530   -999.2500      2.7830    -23.0070    -40.0000      2.7830    -29.0070    -23.0070      1.0647      1.0000      1.0000      0.1061      0.2211      0.2211      0.7369
    549.0000      0.2216      0.3275      2.2420   -999.2500      0.6785      2.2314      0.2216   -999.2500      0.3275      0.3187      2.2420   -999.2500      2.7830    -23.6740    -40.0000      2.7830    -29.6740    -23.6740      1.0292      1.0000      1.0000      0.0977      0.2036      0.2036      0.6785
    549.5000      0.2317      0.3284      2.2380   -999.2500      0.6201      2.1753      0.2317   -999.2500      0.3284      0.3204      2.2380   -999.2500      2.7680    -24.3420    -40.0000      2.7680    -30.3420    -24.3420      1.0025      1.0000      1.0000      0.0893      0.1860      0.1860      0.6201
    550.0000      0.2298      0.3075      2.2340   -999.2500      0.4986      2.0587      0.2527   -999.2500      0.3305      0.3240      2.2340   -999.2500      2.7530    -25.7530    -40.0000      2.7530    -31.7530    -25.7530      0.9305      0.9091      0.9305      0.0718      0.1496      0.1496      0.4986
    550.5000      0.2294      0.3017      2.2220   -999.2500      0.4630      2.0245      0.2589   -999.2500      0.3311      0.3251      2.2220   -999.2500      2.7590    -26.7710    -40.0000      2.7590    -32.7710    -26.7710      0.9111      0.8862      0.9111      0.0667      0.1389      0.1389      0.4630
    551.0000      0.2297      0.3009      2.2140   -999.2500      0.4564      2.0181      0.2600   -999.2500      0.3312      0.3253      2.2140   -999.2500      2.7660    -26.9610    -40.0000      2.7660    -32.9610    -26.9610      0.9085      0.8835      0.9085      0.0657      0.1369      0.1369      0.4564
    551.5000      0.2308      0.3049      2.2060   -999.2500      0.4750      2.0360      0.2568   -999.2500      0.3309      0.3247      2.2060   -999.2500      2.7650    -26.4280    -40.0000      2.7650    -32.4280    -26.4280      0.9215      0.8989      0.9215      0.0684      0.1425      0.1425      0.4750
    552.0000      0.2330      0.3183      2.2050   -999.2500      0.5469      2.1050      0.2443   -999.2500      0.3296      0.3226      2.2050   -999.2500      2.7490    -25.1780    -40.0000      2.7490    -31.1780    -25.1780      0.9655      0.9535      0.9655      0.0788      0.1641      0.1641      0.5469
    552.5000      0.2237      0.3276      2.1970   -999.2500      0.6658      2.2192      0.2237   -999.2500      0.3276      0.3190      2.1970   -999.2500      2.6910    -23.8190    -40.0000      2.6910    -29.8190    -23.8190      1.0307      1.0000      1.0000      0.0959      0.1998      0.1998      0.6658
    553.0000      0.2135      0.3266      2.1960   -999.2500      0.7250      2.2760      0.2135   -999.2500      0.3266      0.3172      2.1960   -999.2500      2.6440    -23.1430    -40.0000      2.6440    -29.1430    -23.1430      1.0692      1.0000      1.0000      0.1044      0.2175      0.2175      0.7250
    553.5000      0.2060      0.3258      2.1850   -999.2500      0.7682      2.3175      0.2060   -999.2500      0.3258      0.3159      2.1850   -999.2500      2.6000    -22.6490    -40.0000      2.6000    -28.6490    -22.6490      1.0942      1.0000      1.0000      0.1106      0.2305      0.2305      0.7682
    554.0000      0.2023      0.3255      2.1760   -999.2500      0.7896      2.3381      0.2023   -999.2500      0.3255      0.3152      2.1760   -999.2500      2.5850    -22.4040    -40.0000      2.5850    -28.4040    -22.4040      1.1071      1.0000      1.0000      0.1137      0.2369      0.2369      0.7896
    554.5000      0.2002      0.3253      2.1680   -999.2500      0.7998      2.3493      0.2002   -999.2500      0.3253      0.3149      2.1680   -999.2500      2.5840    -22.2700    -40.0000      2.5840    -28.2700    -22.2700      1.1146      1.0000      1.0000      0.1154      0.2404      0.2404      0.7998
