~V
VERS. 2.00: Ver 2.00
WRAP.   NO:        
~W
 STRT.FT 35:
 STOP.FT 5500:
 STEP.FT 0.5:
 NULL. -999.250000:
 COMP. Standard (Chevron):Company
 WELL. KCL 45-56:Well
 FLD. :Field
 LOC. S30 T11N R22W:Location
 STAT. CA:State
 SRVC. :Service Company
 SON. :Service Order #
 DATE. :Log Date
 UWI. 0369100:Unique Well ID
~C
 DEPT.FT :
 BVES. :
 BVTS. :
 ILD.OHMM :
 LLD.OHMM :
 LTHE. :
 MM. :
 PHES. :
 PHMX. :
 PHTS. :
 PHZC. :
 RD.OHMM :
 ROS. :
 RS.OHMM :
 SBL.MV :
 SCLN. :
 SN.OHMM :
 SP.MV :
 SPN. :
 STUS. :
 SWES. :
 SWTS. :
 VCDS. :
 VCLY. :
 VCWS. :
 VSHS. :
~P
~A
# ...
   2375.0000      0.1606      0.3779   -999.2500      2.1610      0.8394      2.7390      0.1606      0.1619      0.3779      0.4304      2.1610      2.4719   -999.2500     -6.0296    -50.0000   -999.2500    -13.4660     -6.0296      1.0497      1.0000      1.0000      0.2173      0.4346      0.4346      0.8394
   2375.5000      0.1657      0.3792   -999.2500      2.1680      0.8343      2.7355      0.1657      0.1623      0.3792      0.4325      2.1680      2.4506   -999.2500     -6.5341    -50.0000   -999.2500    -13.9710     -6.5341      1.0453      1.0000      1.0000      0.2135      0.4270      0.4270      0.8343
   2376.0000      0.1689      0.3800   -999.2500      2.2000      0.8311      2.7333      0.1689      0.1625      0.3800      0.4338      2.2000      2.4371   -999.2500     -6.8597    -50.0000   -999.2500    -14.2970     -6.8597      1.0377      1.0000      1.0000      0.2111      0.4221      0.4221      0.8311
   2376.5000      0.1714      0.3806   -999.2500      2.2530      0.8286      2.7315      0.1714      0.1627      0.3806      0.4348      2.2530      2.4266   -999.2500     -7.1132    -50.0000   -999.2500    -14.5510     -7.1132      1.0272      1.0000      1.0000      0.2092      0.4183      0.4183      0.8286
   2377.0000      0.1725      0.3808   -999.2500      2.2930      0.8275      2.7308      0.1725      0.1628      0.3808      0.4352      2.2930      2.4221   -999.2500     -7.2237    -50.0000   -999.2500    -14.6620     -7.2237      1.0156      1.0000      1.0000      0.2083      0.4166      0.4166      0.8275
   2377.5000      0.1740      0.3812   -999.2500      2.3350      0.8260      2.7297      0.1740      0.1629      0.3812      0.4358      2.3350      2.4160   -999.2500     -7.3702    -50.0000   -999.2500    -14.8090     -7.3702      1.0097      1.0000      1.0000      0.2072      0.4144      0.4144      0.8260
   2378.0000      0.1851      0.3839   -999.2500      2.3620      0.8149      2.7220      0.1851      0.1637      0.3839      0.4403      2.3620      2.3714   -999.2500     -8.4837    -50.0000   -999.2500    -15.9230     -8.4837      1.0011      1.0000      1.0000      0.1989      0.3977      0.3977      0.8149
   2378.5000      0.1880      0.3825   -999.2500      2.3890      0.8092      2.7180      0.1908      0.1641      0.3853      0.4426      2.3890      2.3489   -999.2500     -9.0602    -50.0000   -999.2500    -16.5000     -9.0602      0.9927      0.9852      0.9927      0.1945      0.3891      0.3891      0.8092
   2379.0000      0.1892      0.3794   -999.2500      2.4320      0.8035      2.7141      0.1965      0.1645      0.3867      0.4449      2.4320      2.3268   -999.2500     -9.6357    -50.0000   -999.2500    -17.0760     -9.6357      0.9810      0.9627      0.9810      0.1902      0.3805      0.3805      0.8035
   2379.5000      0.1913      0.3793   -999.2500      2.4320      0.8006      2.7121      0.1994      0.1647      0.3874      0.4461      2.4320      2.3158   -999.2500     -9.9253    -50.0000   -999.2500    -17.3660     -9.9253      0.9790      0.9593      0.9790      0.1881      0.3761      0.3761      0.8006
   2380.0000      0.1823      0.3789   -999.2500      2.4420      0.8120      2.7200      0.1880      0.1639      0.3846      0.4415      2.4420      2.3596   -999.2500     -8.7828    -50.0000   -999.2500    -16.2240     -8.7828      0.9852      0.9697      0.9852      0.1966      0.3933      0.3933      0.8120
   2380.5000      0.1787      0.3783   -999.2500      2.4530      0.8160      2.7227      0.1840      0.1636      0.3836      0.4398      2.4530      2.3752   -999.2500     -8.3843    -50.0000   -999.2500    -15.8260     -8.3843      0.9861      0.9710      0.9861      0.1996      0.3992      0.3992      0.8160
   2381.0000      0.1754      0.3772   -999.2500      2.4710      0.8189      2.7247      0.1811      0.1634      0.3829      0.4386      2.4710      2.3867   -999.2500     -8.0938    -50.0000   -999.2500    -15.5360     -8.0938      0.9850      0.9683      0.9850      0.2018      0.4036      0.4036      0.8189
   2381.5000      0.1702      0.3739   -999.2500      2.5220      0.8214      2.7265      0.1786      0.1632      0.3823      0.4376      2.5220      2.3968   -999.2500     -7.8393    -50.0000   -999.2500    -15.2820     -7.8393      0.9781      0.9530      0.9781      0.2037      0.4074      0.4074      0.8214
   2382.0000      0.1663      0.3711   -999.2500      2.5650      0.8229      2.7275      0.1771      0.1631      0.3819      0.4370      2.5650      2.4027   -999.2500     -7.6918    -50.0000   -999.2500    -15.1350     -7.6918      0.9719      0.9394      0.9719      0.2048      0.4096      0.4096      0.8229
   2382.5000      0.1617      0.3676   -999.2500      2.6220      0.8244      2.7285      0.1756      0.1630      0.3815      0.4364      2.6220      2.4086   -999.2500     -7.5444    -50.0000   -999.2500    -14.9880     -7.5444      0.9636      0.9209      0.9636      0.2059      0.4118      0.4118      0.8244
   2383.0000      0.1591      0.3659   -999.2500      2.6510      0.8255      2.7293      0.1745      0.1629      0.3812      0.4359      2.6510      2.4131   -999.2500     -7.4329    -50.0000   -999.2500    -14.8770     -7.4329      0.9598      0.9121      0.9598      0.2068      0.4135      0.4135      0.8255
   2383.5000      0.1566      0.3641   -999.2500      2.6800      0.8267      2.7301      0.1733      0.1628      0.3809      0.4355      2.6800      2.4176   -999.2500     -7.3214    -50.0000   -999.2500    -14.7660     -7.3214      0.9560      0.9032      0.9560      0.2076      0.4152      0.4152      0.8267
   2384.0000      0.1543      0.3627   -999.2500      2.7050      0.8278      2.7309      0.1722      0.1627      0.3806      0.4350      2.7050      2.4221   -999.2500     -7.2099    -50.0000   -999.2500    -14.6550     -7.2099      0.9528      0.8957      0.9528      0.2084      0.4169      0.4169      0.8278
   2384.5000      0.1474      0.3588   -999.2500      2.7740      0.8318      2.7336      0.1682      0.1624      0.3796      0.4334      2.7740      2.4385   -999.2500     -6.8124    -50.0000   -999.2500    -14.2580     -6.8124      0.9451      0.8760      0.9451      0.2114      0.4228      0.4228      0.8318
   2385.0000      0.1431      0.3554   -999.2500      2.8350      0.8329      2.7344      0.1671      0.1623      0.3793      0.4329      2.8350      2.4430   -999.2500     -6.7009    -50.0000   -999.2500    -14.1470     -6.7009      0.9368      0.8566      0.9368      0.2122      0.4245      0.4245      0.8329
   2385.5000      0.1381      0.3523   -999.2500      2.9320      0.8355      2.7361      0.1645      0.1622      0.3787      0.4319      2.9320      2.4536   -999.2500     -6.4455    -50.0000   -999.2500    -13.8920     -6.4455      0.9302      0.8393      0.9302      0.2142      0.4283      0.4283      0.8355
   2386.0000      0.1335      0.3493   -999.2500      2.9930      0.8377      2.7377      0.1623      0.1620      0.3781      0.4310      2.9930      2.4628   -999.2500     -6.2270    -50.0000   -999.2500    -13.6740     -6.2270      0.9238      0.8224      0.9238      0.2158      0.4316      0.4316      0.8377
   2386.5000      0.1302      0.3471   -999.2500      3.0400      0.8391      2.7387      0.1609      0.1619      0.3778      0.4304      3.0400      2.4690   -999.2500     -6.0795    -50.0000   -999.2500    -13.5270     -6.0795      0.9188      0.8094      0.9188      0.2169      0.4338      0.4338      0.8391
   2387.0000      0.1303      0.3456   -999.2500      3.0720      0.8370      2.7372      0.1630      0.1620      0.3783      0.4312      3.0720      2.4600   -999.2500     -6.2910    -50.0000   -999.2500    -13.7390     -6.2910      0.9136      0.7994      0.9136      0.2153      0.4306      0.4306      0.8370
   2387.5000      0.1306      0.3441   -999.2500      3.1050      0.8346      2.7355      0.1654      0.1622      0.3789      0.4322      3.1050      2.4497   -999.2500     -6.5365    -50.0000   -999.2500    -13.9850     -6.5365      0.9081      0.7894      0.9081      0.2135      0.4270      0.4270      0.8346
