~V
VERS. 2.00: Ver 2.00
WRAP.   NO:        
~W
 STRT.FT 30:
 STOP.FT 4840:
 STEP.FT 0.5:
 NULL. -999.250000:
 COMP. Standard (Chevron):Company
 WELL. KCL 44-23:Well
 FLD. Pioneer:Field
 LOC. S32 T11N R22W:Location
 STAT. CA:State
 SRVC. :Service Company
 SON. :Service Order #
 DATE. :Log Date
 UWI. 0940500:Unique Well ID
~C
 DEPT.FT :
 BVES. :
 BVTS. :
 FACE. :
 GR.RE/T :
 GRS.RE/T :
 ILD.OHMM :
 LTHE. :
 MM. :
 NEUT.CPS :
 PHES. :
 PHMX. :
 PHTS. :
 PHZC. :
 RD.OHMM :
 ROS. :
 RS.OHMM :
 SBL.MV :
 SCLN. :
 SN.OHMM :
 SP.MV :
 SPN.RE/T :
 STUS. :
 SWES. :
 SWTS. :
 VCDS. :
 VCLY. :
 VCWS. :
 VSHS. :
~P
~A
# ...
   3912.5000      0.0100      0.3600      4.0000      3.7470      3.7371      3.6320      0.8500   -999.2500    216.4420      0.1500 49090916870222007100000000000.0000      0.5000 270000019174388625000000000000.0000      3.6320      0.5026   -999.2500   -999.2500   -999.2500   -999.2500   -999.2500    -35.2577      0.2818      0.0667      0.7200      0.3500   -999.2500      0.7000      0.8500
   3913.0000      0.0100      0.3600      4.0000      3.7360      3.7403      3.5960      0.8500   -999.2500    215.7420      0.1500 49090916870222007100000000000.0000      0.5000 270000019174388625000000000000.0000      3.5960      0.5026   -999.2500   -999.2500   -999.2500   -999.2500   -999.2500    -35.1949      0.2838      0.0667      0.7200      0.3500   -999.2500      0.7000      0.8500
   3913.5000      0.0100      0.3600      4.0000      3.7040      3.7166      3.5780      0.8500   -999.2500    215.3110      0.1500 49090916870222007100000000000.0000      0.5000 270000019174388625000000000000.0000      3.5780      0.5025   -999.2500   -999.2500   -999.2500   -999.2500   -999.2500    -35.6680      0.2848      0.0667      0.7200      0.3500   -999.2500      0.7000      0.8500
   3914.0000      0.0100      0.3600      4.0000      3.6800      3.6896      3.5600      0.8500 -1000000166163193670000000000000.0000    214.5580      0.1500 49090916870222007100000000000.0000      0.5000 270000019174388625000000000000.0000      3.5600      0.5025   -999.2500   -999.2500   -999.2500   -999.2500   -999.2500    -36.2077      0.2858      0.0667      0.7200      0.3500   -999.2500      0.7000      0.8500
   3914.5000      0.0100      0.3600      4.0000      3.6390      3.6557      3.5600      0.8500   -999.2500    213.5360      0.1500 49090916870222007100000000000.0000      0.5000 270000019174388625000000000000.0000      3.5600      0.5025   -999.2500   -999.2500   -999.2500   -999.2500   -999.2500    -36.8860      0.2858      0.0667      0.7200      0.3500   -999.2500      0.7000      0.8500
   3915.0000      0.0100      0.3600      4.0000      3.6130      3.6238      3.5600      0.8500   -999.2500    212.6760      0.1500 49090916870222007100000000000.0000      0.5000 270000019174388625000000000000.0000      3.5600      0.5024   -999.2500   -999.2500   -999.2500   -999.2500   -999.2500    -37.5246      0.2857      0.0667      0.7200      0.3500   -999.2500      0.7000      0.8500
   3915.5000      0.0100      0.3600      4.0000      3.5870      3.5979      3.3700      0.8500   -999.2500    211.7610      0.1500 49090916870222007100000000000.0000      0.5000 270000019174388625000000000000.0000      3.3700      0.5024   -999.2500   -999.2500   -999.2500   -999.2500   -999.2500    -38.0411      0.2970      0.0667      0.7200      0.3500   -999.2500      0.7000      0.8500
   3916.0000      0.0100      0.3600      4.0000      3.5200      3.5487      3.1840      0.8500   -999.2500    211.0090      0.1500 49090916870222007100000000000.0000      0.5000 270000019174388625000000000000.0000      3.1840      0.5023   -999.2500   -999.2500   -999.2500   -999.2500   -999.2500    -39.0268      0.3091      0.0667      0.7200      0.3500   -999.2500      0.7000      0.8500
   3916.5000      0.0100      0.3600      4.0000      3.5070      3.5126      3.1050      0.8500   -999.2500    210.2570      0.1500 49090916870222007100000000000.0000      0.5000 270000019174388625000000000000.0000      3.1050      0.5023   -999.2500   -999.2500   -999.2500   -999.2500   -999.2500    -39.7470      0.3145      0.0667      0.7200      0.3500   -999.2500      0.7000      0.8500
   3917.0000      0.0100      0.3600      4.0000      3.4980      3.5020      3.0270      0.8500   -999.2500    209.2350      0.1500 49090916870222007100000000000.0000      0.5000 270000019174388625000000000000.0000      3.0270      0.5023   -999.2500   -999.2500   -999.2500   -999.2500   -999.2500    -39.9606      0.3201      0.0667      0.7200      0.3500   -999.2500      0.7000      0.8500
   3917.5000      0.0100      0.3600      4.0000      3.5050      3.5019      2.8760      0.8500   -999.2500    208.2670      0.1500 49090916870222007100000000000.0000      0.5000 270000019174388625000000000000.0000      2.8760      0.5022   -999.2500   -999.2500   -999.2500   -999.2500   -999.2500    -39.9627      0.3317      0.0667      0.7200      0.3500   -999.2500      0.7000      0.8500
   3918.0000      0.0100      0.3600      4.0000      3.5700      3.5404      2.8150      0.8500 -1000000166163193670000000000000.0000    207.2990      0.1500 49090916870222007100000000000.0000      0.5000 270000019174388625000000000000.0000      2.8150      0.5022   -999.2500   -999.2500   -999.2500   -999.2500   -999.2500    -39.1914      0.3366      0.0667      0.7200      0.3500   -999.2500      0.7000      0.8500
   3918.5000      0.0100      0.3600      4.0000      3.6160      3.5948      2.7620      0.8500   -999.2500    206.4930      0.1500 49090916870222007100000000000.0000      0.5000 270000019174388625000000000000.0000      2.7620      0.5021   -999.2500   -999.2500   -999.2500   -999.2500   -999.2500    -38.1048      0.3410      0.0667      0.7200      0.3500   -999.2500      0.7000      0.8500
   3919.0000      0.0100      0.3600      4.0000      3.6680      3.6436      2.7040      0.8500   -999.2500    205.6870      0.1500 49090916870222007100000000000.0000      0.5000 270000019174388625000000000000.0000      2.7040      0.5021   -999.2500   -999.2500   -999.2500   -999.2500   -999.2500    -37.1272      0.3460      0.0667      0.7200      0.3500   -999.2500      0.7000      0.8500
   3919.5000      0.0100      0.3600      4.0000      3.6980      3.6837      2.6570      0.8500 -1000000015047466220000000000000.0000    204.8810      0.1500 49090916870222007100000000000.0000      0.5000 270000019174388625000000000000.0000      2.6570      0.5021   -999.2500   -999.2500   -999.2500   -999.2500   -999.2500    -36.3252      0.3501      0.0667      0.7200      0.3500   -999.2500      0.7000      0.8500
   3920.0000      0.0100      0.3600      4.0000      3.7290      3.7141      2.6180      0.8500   -999.2500    204.0740      0.1500 49090916870222007100000000000.0000      0.5000 270000019174388625000000000000.0000      2.6180      0.5020   -999.2500   -999.2500   -999.2500   -999.2500   -999.2500    -35.7189      0.3537      0.0667      0.7200      0.3500   -999.2500      0.7000      0.8500
   3920.5000      0.0100      0.3600      4.0000      3.8470      3.7893      2.5710      0.8500   -999.2500    202.4610      0.1500 49090916870222007100000000000.0000      0.5000 270000019174388625000000000000.0000      2.5710      0.5020   -999.2500   -999.2500   -999.2500   -999.2500   -999.2500    -34.2137      0.3581      0.0667      0.7200      0.3500   -999.2500      0.7000      0.8500
   3921.0000      0.0100      0.3600      4.0000      3.9150      3.8813      2.5780      0.8500   -999.2500    201.6010      0.1500 49090916870222007100000000000.0000      0.5000 270000019174388625000000000000.0000      2.5780      0.5020   -999.2500   -999.2500   -999.2500   -999.2500   -999.2500    -32.3741      0.3574      0.0667      0.7200      0.3500   -999.2500      0.7000      0.8500
   3921.5000      0.0100      0.3600      4.0000      3.9560      3.9354      2.6030      0.8500   -999.2500    201.0630      0.1500 49090916870222007100000000000.0000      0.5000 270000019174388625000000000000.0000      2.6030      0.5019   -999.2500   -999.2500   -999.2500   -999.2500   -999.2500    -31.2920      0.3550      0.0667      0.7200      0.3500   -999.2500      0.7000      0.8500
   3922.0000      0.0100      0.3600      4.0000      3.9340      3.9452      2.6280      0.8500   -999.2500    201.8100      0.1500 49090916870222007100000000000.0000      0.5000 270000019174388625000000000000.0000      2.6280      0.5019   -999.2500   -999.2500   -999.2500   -999.2500   -999.2500    -31.0959      0.3527      0.0667      0.7200      0.3500   -999.2500      0.7000      0.8500
   3922.5000      0.0100      0.3600      4.0000      3.8780      3.9069      2.7240      0.8500   -999.2500    202.7180      0.1500 49090916870222007100000000000.0000      0.5000 270000019174388625000000000000.0000      2.7240      0.5018   -999.2500   -999.2500   -999.2500   -999.2500   -999.2500    -31.8621      0.3441      0.0667      0.7200      0.3500   -999.2500      0.7000      0.8500
