~V
VERS. 2.00: Ver 2.00
WRAP.   NO:        
~W
 STRT.FT 29:
 STOP.FT 4770:
 STEP.FT 0.5:
 NULL. -999.250000:
 COMP. Standard (Chevron):Company
 WELL. KCL 44-32:Well
 FLD. Pioneer:Field
 LOC. S32 T11N R22W:Location
 STAT. CA:State
 SRVC. :Service Company
 SON. :Service Order #
 DATE. :Log Date
 UWI. 0940700:Unique Well ID
~C
 DEPT.FT :
 BVES. :
 BVTS. :
 FACE. :
 GRS.RE/T :
 ILD.OHMM :
 LTHE. :
 MM. :
 NEUT.CPS :
 PHES. :
 PHMX. :
 PHTS. :
 PHZC. :
 RD.OHMM :
 ROS. :
 RS.OHMM :
 SBL.MV :
 SCLN. :
 SN.OHMM :
 SP.MV :
 SPN. :
 STUS. :
 SWES. :
 SWTS. :
 VCDS. :
 VCLY. :
 VCWS. :
 VSHS. :
~P
~A
# ...
   1337.0000      0.2711      0.3403      2.0000   -999.2500      2.0550      0.6186      2.0230   -999.2500      0.3814      0.1806      0.4507      0.5332      2.0550      1.1768      2.1990    -20.0046    -74.2879      2.1990    -34.4240    -40.0093      0.7551      0.7107      0.7551      0.0692      0.1384      0.1384      0.4614
   1337.5000      0.2713      0.3359      2.0000   -999.2500      2.0520      0.6126      1.9939   -999.2500      0.3874      0.1810      0.4520      0.5357      2.0520      1.1453      2.1560    -21.1310    -74.2945      2.1560    -35.5630    -42.2619      0.7431      0.7003      0.7431      0.0647      0.1293      0.1293      0.4312
   1338.0000      0.2708      0.3374      2.0000   -999.2500      2.0520      0.6152      2.0064   -999.2500      0.3848      0.1808      0.4514      0.5346      2.0520      1.1587      2.1810    -20.6483    -74.3012      2.1810    -35.0930    -41.2966      0.7474      0.7037      0.7474      0.0666      0.1333      0.1333      0.4442
   1338.5000      0.2707      0.3376      2.0000   -999.2500      2.0520      0.6155      2.0079   -999.2500      0.3845      0.1808      0.4513      0.5345      2.0520      1.1602      2.0730    -20.5946    -74.3079      2.0730    -35.0520    -41.1893      0.7479      0.7041      0.7479      0.0669      0.1337      0.1337      0.4457
   1339.0000      0.2716      0.3410      2.0000   -999.2500      2.0480      0.6188      2.0241   -999.2500      0.3812      0.1806      0.4506      0.5331      2.0480      1.1778      2.1520    -19.9690    -74.3146      2.1520    -34.4390    -39.9380      0.7568      0.7126      0.7568      0.0694      0.1388      0.1388      0.4626
   1339.5000      0.2742      0.3455      2.0000   -999.2500      2.0190      0.6214      2.0366   -999.2500      0.3786      0.1804      0.4499      0.5320      2.0190      1.1917      2.1920    -19.4863    -74.3212      2.1920    -33.9690    -38.9726      0.7680      0.7242      0.7680      0.0713      0.1427      0.1427      0.4756
   1340.0000      0.2774      0.3513      2.0000   -999.2500      1.9840      0.6247      2.0528   -999.2500      0.3753      0.1801      0.4491      0.5306      1.9840      1.2100      2.0620    -18.8597    -74.3279      2.0620    -33.3550    -37.7193      0.7820      0.7391      0.7820      0.0739      0.1478      0.1478      0.4925
   1340.5000      0.2812      0.3579      2.0000   -999.2500      1.9430      0.6285      2.0711   -999.2500      0.3715      0.1798      0.4483      0.5291      1.9430      1.2311      2.0220    -18.4110    -74.3346      2.0220    -32.9190    -36.8220      0.7985      0.7569      0.7985      0.0767      0.1535      0.1535      0.5116
   1341.0000      0.2822      0.3571      2.0000   -999.2500      1.9310      0.6261      2.0595   -999.2500      0.3739      0.1800      0.4488      0.5300      1.9310      1.2175      2.1100    -18.6063    -74.3413      2.1100    -33.1270    -37.2127      0.7956      0.7547      0.7956      0.0749      0.1498      0.1498      0.4994
   1341.5000      0.2783      0.3521      2.0000   -999.2500      1.9730      0.6247      2.0526   -999.2500      0.3753      0.1801      0.4491      0.5306      1.9730      1.2096      2.1770    -18.8727    -74.3479      2.1770    -33.4060    -37.7453      0.7841      0.7416      0.7841      0.0738      0.1477      0.1477      0.4923
   1342.0000      0.2770      0.3486      2.0000   -999.2500      1.9860      0.6218      2.0384   -999.2500      0.3782      0.1803      0.4498      0.5318      1.9860      1.1935      2.2330    -19.4240    -74.3546      2.2330    -33.9700    -38.8480      0.7751      0.7325      0.7751      0.0716      0.1433      0.1433      0.4775
   1342.5000      0.2767      0.3470      2.0000   -999.2500      1.9880      0.6201      2.0297   -999.2500      0.3799      0.1805      0.4502      0.5325      1.9880      1.1838      2.0560    -19.7623    -74.3613      2.0560    -34.3210    -39.5247      0.7708      0.7283      0.7708      0.0703      0.1405      0.1405      0.4685
   1343.0000      0.2758      0.3443      2.0000   -999.2500      1.9970      0.6177      2.0183   -999.2500      0.3823      0.1806      0.4507      0.5335      1.9970      1.1712      2.0620    -20.2067    -74.3680      2.0620    -34.7780    -40.4134      0.7638      0.7215      0.7638      0.0685      0.1370      0.1370      0.4566
   1343.5000      0.2757      0.3463      2.0000   -999.2500      2.0000      0.6205      2.0318   -999.2500      0.3795      0.1804      0.4501      0.5323      2.0000      1.1860      2.0790    -19.6870    -74.3746      2.0790    -34.2710    -39.3740      0.7693      0.7264      0.7693      0.0706      0.1412      0.1412      0.4706
   1344.0000      0.2759      0.3486      2.0000   -999.2500      1.9990      0.6233      2.0453   -999.2500      0.3767      0.1802      0.4494      0.5312      1.9990      1.2011      2.0270    -19.1664    -74.3813      2.0270    -33.7630    -38.3327      0.7756      0.7323      0.7756      0.0727      0.1454      0.1454      0.4846
   1344.5000      0.2770      0.3518      2.0000   -999.2500      1.9870      0.6261      2.0587   -999.2500      0.3739      0.1800      0.4488      0.5300      1.9870      1.2164      1.9470    -18.6457    -74.3880      1.9470    -33.2550    -37.2914      0.7840      0.7408      0.7840      0.0748      0.1496      0.1496      0.4987
   1345.0000      0.2820      0.3556      2.0000   -999.2500      1.9310      0.6245      2.0510   -999.2500      0.3755      0.1801      0.4491      0.5307      1.9310      1.2075      1.9310    -18.9480    -74.3947      1.9310    -33.5700    -37.8961      0.7917      0.7509      0.7917      0.0736      0.1472      0.1472      0.4906
   1345.5000      0.2881      0.3615      2.0000   -999.2500      1.8660      0.6242      2.0497   -999.2500      0.3758      0.1801      0.4492      0.5308      1.8660      1.2060      1.8870    -18.9994    -74.4013      1.8870    -33.6340    -37.9987      0.8047      0.7666      0.8047      0.0734      0.1468      0.1468      0.4893
   1346.0000      0.2929      0.3678      2.0000   -999.2500      1.8180      0.6262      2.0595   -999.2500      0.3738      0.1800      0.4487      0.5299      1.8180      1.2171      1.8290    -18.6227    -74.4080      1.8290    -33.2700    -37.2454      0.8197      0.7835      0.8197      0.0749      0.1498      0.1498      0.4994
   1346.5000      0.2939      0.3783      2.0000   -999.2500      1.8110      0.6386      2.1200   -999.2500      0.3614      0.1791      0.4457      0.5248      1.8110      1.2893      1.8200    -17.6730    -74.4147      1.8200    -32.3330    -35.3461      0.8487      0.8133      0.8487      0.0844      0.1688      0.1688      0.5625
   1347.0000      0.2946      0.3878      3.0000   -999.2500      1.8050      0.6503      2.1767   -999.2500      0.3497      0.1782      0.4430      0.5200      1.8050      1.3619      1.8120    -16.7954    -74.4214      1.8120    -31.4680    -33.5908      0.8755      0.8423      0.8755      0.0932      0.1865      0.1865      0.6216
   1347.5000      0.2941      0.3857      3.0000   -999.2500      1.8100      0.6482      2.1666   -999.2500      0.3518      0.1783      0.4435      0.5209      1.8100      1.3485      1.8430    -16.9537    -74.4280      1.8430    -31.6390    -33.9074      0.8698      0.8359      0.8698      0.0917      0.1833      0.1833      0.6111
   1348.0000      0.2934      0.3802      2.0000   -999.2500      1.8160      0.6419      2.1357   -999.2500      0.3581      0.1788      0.4449      0.5235      1.8160      1.3087      1.8670    -17.4350    -74.4347      1.8670    -32.1330    -34.8701      0.8545      0.8193      0.8545      0.0868      0.1737      0.1737      0.5788
   1348.5000      0.2904      0.3691      2.0000   -999.2500      1.8440      0.6313      2.0840   -999.2500      0.3687      0.1796      0.4474      0.5278      1.8440      1.2456      1.8650    -18.2374    -74.4414      1.8650    -32.9480    -36.4748      0.8250      0.7876      0.8250      0.0788      0.1575      0.1575      0.5251
