~V
VERS. 2.00: Ver 2.00
WRAP.   NO:        
~W
 STRT.FT 30:
 STOP.FT 4840:
 STEP.FT 0.5:
 NULL. -999.250000:
 COMP. Standard (Chevron):Company
 WELL. KCL 44-23:Well
 FLD. Pioneer:Field
 LOC. S32 T11N R22W:Location
 STAT. CA:State
 SRVC. :Service Company
 SON. :Service Order #
 DATE. :Log Date
 UWI. 0940500:Unique Well ID
~C
 DEPT.FT :
 BVES. :
 BVTS. :
 FACE. :
 GR.RE/T :
 GRS.RE/T :
 ILD.OHMM :
 LTHE. :
 MM. :
 NEUT.CPS :
 PHES. :
 PHMX. :
 PHTS. :
 PHZC. :
 RD.OHMM :
 ROS. :
 RS.OHMM :
 SBL.MV :
 SCLN. :
 SN.OHMM :
 SP.MV :
 SPN.RE/T :
 STUS. :
 SWES. :
 SWTS. :
 VCDS. :
 VCLY. :
 VCWS. :
 VSHS. :
~P
~A
# ...
   1309.5000      0.2943      0.4304      3.0000   -999.2500   -999.2500      1.4510      0.7057      2.4510   -999.2500      0.2943      0.1741      0.4304      0.4977      1.4510      1.8005      1.6220     -7.4620    -59.0127      1.6220    -55.3370     -9.9493      1.0934      1.0000      1.0000      0.1361      0.2722      0.2722      0.7057
   1310.0000      0.2947      0.4305      3.0000   -999.2500   -999.2500      1.4830      0.7053      2.4489   -999.2500      0.2947      0.1742      0.4305      0.4979      1.4830      1.7965      1.6430     -7.5149    -59.0302      1.6430    -55.3790    -10.0198      1.0826      1.0000      1.0000      0.1358      0.2715      0.2715      0.7053
   1310.5000      0.2954      0.4306      3.0000   -999.2500   -999.2500      1.4900      0.7046      2.4452   -999.2500      0.2954      0.1742      0.4306      0.4982      1.4900      1.7896      1.6570     -7.6037    -59.0476      1.6570    -55.4570    -10.1383      1.0789      1.0000      1.0000      0.1352      0.2704      0.2704      0.7046
   1311.0000      0.2968      0.4310      3.0000   -999.2500   -999.2500      1.4970      0.7032      2.4385   -999.2500      0.2968      0.1743      0.4310      0.4987      1.4970      1.7770      1.6720     -7.7636    -59.0650      1.6720    -55.6060    -10.3514      1.0739      1.0000      1.0000      0.1341      0.2683      0.2683      0.7032
   1311.5000      0.3014      0.4321      3.0000   -999.2500   -999.2500      1.4970      0.6986      2.4162   -999.2500      0.3014      0.1747      0.4321      0.5006      1.4970      1.7362      1.6930     -8.2845    -59.0825      1.6930    -56.1160    -11.0459      1.0583      1.0000      1.0000      0.1307      0.2613      0.2613      0.6986
   1312.0000      0.3050      0.4329      3.0000   -999.2500   -999.2500      1.4860      0.6950      2.3986   -999.2500      0.3050      0.1749      0.4329      0.5021      1.4860      1.7048      1.7020     -8.6973    -59.0999      1.7020    -56.5180    -11.5964      1.0545      1.0000      1.0000      0.1279      0.2558      0.2558      0.6950
   1312.5000      0.3077      0.4335      3.0000   -999.2500   -999.2500      1.4750      0.6923      2.3857   -999.2500      0.3077      0.1751      0.4335      0.5031      1.4750      1.6822      1.7110     -9.0012    -59.1174      1.7110    -56.8110    -12.0016      1.0526      1.0000      1.0000      0.1259      0.2518      0.2518      0.6923
   1313.0000      0.3122      0.4346      3.0000   -999.2500   -999.2500      1.4640      0.6878      2.3634   -999.2500      0.3122      0.1755      0.4346      0.5050      1.4640      1.6442      1.7140     -9.5220    -59.1348      1.7140    -57.3210    -12.6961      1.0470      1.0000      1.0000      0.1224      0.2448      0.2448      0.6878
   1313.5000      0.3248      0.4376      3.0000   -999.2500   -999.2500      1.4460      0.6752      2.3023   -999.2500      0.3248      0.1764      0.4376      0.5102      1.4460      1.5454      1.7030    -10.9419    -59.1522      1.7030    -58.7300    -14.5892      1.0277      1.0000      1.0000      0.1129      0.2257      0.2257      0.6752
   1314.0000      0.3147      0.4352      3.0000   -999.2500   -999.2500      1.4320      0.6853      2.3515   -999.2500      0.3147      0.1756      0.4352      0.5060      1.4320      1.6243      1.6730     -9.8068    -59.1697      1.6730    -57.5840    -13.0757      1.0516      1.0000      1.0000      0.1206      0.2411      0.2411      0.6853
   1314.5000      0.2956      0.4306      3.0000   -999.2500   -999.2500      1.4000      0.7044      2.4441   -999.2500      0.2956      0.1742      0.4306      0.4982      1.4000      1.7871      1.6420     -7.6646    -59.1871      1.6420    -55.4310    -10.2195      1.1066      1.0000      1.0000      0.1350      0.2700      0.2700      0.7044
   1315.0000      0.2938      0.4301      3.0000   -999.2500   -999.2500      1.3710      0.7062      2.4529   -999.2500      0.2938      0.1741      0.4301      0.4974      1.3710      1.8035      1.6190     -7.4655    -59.2045      1.6190    -55.2210     -9.9540      1.1200      1.0000      1.0000      0.1364      0.2728      0.2728      0.7062
   1315.5000      0.2959      0.4307      3.0000   -999.2500   -999.2500      1.3530      0.7041      2.4423   -999.2500      0.2959      0.1742      0.4307      0.4983      1.3530      1.7836      1.5960     -7.7154    -59.2220      1.5960    -55.4600    -10.2871      1.1216      1.0000      1.0000      0.1347      0.2695      0.2695      0.7041
   1316.0000      0.2981      0.4312      3.0000   -999.2500   -999.2500      1.3390      0.7019      2.4317   -999.2500      0.2981      0.1744      0.4312      0.4992      1.3390      1.7639      1.5600     -7.9662    -59.2394      1.5600    -55.7000    -10.6216      1.1219      1.0000      1.0000      0.1331      0.2662      0.2662      0.7019
   1316.5000      0.3008      0.4318      3.0000   -999.2500   -999.2500      1.3240      0.6992      2.4188   -999.2500      0.3008      0.1746      0.4318      0.5003      1.3240      1.7403      1.5310     -8.2711    -59.2569      1.5310    -55.9940    -11.0281      1.1216      1.0000      1.0000      0.1311      0.2621      0.2621      0.6992
   1317.0000      0.2980      0.4311      3.0000   -999.2500   -999.2500      1.3030      0.7020      2.4322   -999.2500      0.2980      0.1744      0.4311      0.4991      1.3030      1.7647      1.5100     -7.9639    -59.2743      1.5100    -55.6760    -10.6186      1.1349      1.0000      1.0000      0.1332      0.2663      0.2663      0.7020
   1317.5000      0.2878      0.4287      3.0000   -999.2500   -999.2500      1.2920      0.7122      2.4813   -999.2500      0.2878      0.1736      0.4287      0.4950      1.2920      1.8577      1.4810     -6.8288    -59.2917      1.4810    -54.5300     -9.1051      1.1599      1.0000      1.0000      0.1408      0.2817      0.2817      0.7122
   1318.0000      0.2812      0.4271      3.0000   -999.2500   -999.2500      1.2700      0.7188      2.5133   -999.2500      0.2812      0.1731      0.4271      0.4923      1.2700      1.9217      1.4740     -6.0897    -59.3092      1.4740    -53.7800     -8.1196      1.1815      1.0000      1.0000      0.1458      0.2917      0.2917      0.7188
   1318.5000      0.2909      0.4294      3.0000   -999.2500   -999.2500      1.2560      0.7091      2.4663   -999.2500      0.2909      0.1739      0.4294      0.4962      1.2560      1.8285      1.4560     -7.1855    -59.3266      1.4560    -54.8650     -9.5807      1.1670      1.0000      1.0000      0.1385      0.2770      0.2770      0.7091
   1319.0000      0.2974      0.4310      3.0000   -999.2500   -999.2500      1.2420      0.7026      2.4348   -999.2500      0.2974      0.1743      0.4310      0.4989      1.2420      1.7692      1.4540     -7.9224    -59.3440      1.4540    -55.5910    -10.5632      1.1589      1.0000      1.0000      0.1336      0.2671      0.2671      0.7026
   1319.5000      0.3090      0.4337      3.0000   -999.2500   -999.2500      1.2270      0.6910      2.3785   -999.2500      0.3090      0.1752      0.4337      0.5036      1.2270      1.6691      1.4520     -9.2343    -59.3615      1.4520    -56.8920    -12.3124      1.1405      1.0000      1.0000      0.1248      0.2495      0.2495      0.6910
   1320.0000      0.3253      0.4376      3.0000   -999.2500   -999.2500      1.2060      0.6747      2.2990   -999.2500      0.3253      0.1764      0.4376      0.5103      1.2060      1.5397      1.4520    -11.0861    -59.3789      1.4520    -58.7330    -14.7815      1.1142      1.0000      1.0000      0.1123      0.2247      0.2247      0.6747
   1320.5000      0.3349      0.4399      3.0000   -999.2500   -999.2500      1.2020      0.6651      2.2521   -999.2500      0.3349      0.1771      0.4399      0.5142      1.2020      1.4691      1.4520    -12.1830    -59.3964      1.4520    -59.8190    -16.2440      1.0895      1.0000      1.0000      0.1050      0.2100      0.2100      0.6651
