~V
VERS. 2.00: Ver 2.00
WRAP.   NO:        
~W
 STRT.FT 20:
 STOP.FT 4330:
 STEP.FT 0.5:
 NULL. -999.250000:
 COMP. Standard (Chevron):Company
 WELL. KCL 44-25:Well
 FLD. Pioneer:Field
 LOC. S32 T11N R22W:Location
 STAT. CA:State
 SRVC. :Service Company
 SON. :Service Order #
 DATE. :Log Date
 UWI. 0940600:Unique Well ID
~C
 DEPT.FT :
 BVES. :
 BVTS. :
 FACE. :
 GR.RE/T :
 GRS.RE/T :
 ILD.OHMM :
 LTHE. :
 MM. :
 NEUS.CPS :
 NEUT.CPS :
 PHES. :
 PHMX. :
 PHTS. :
 PHZC. :
 RD.OHMM :
 ROS. :
 RS.OHMM :
 SBL.MV :
 SCLN. :
 SN.OHMM :
 SP.MV :
 SPN. :
 STUS. :
 SWES. :
 SWTS. :
 VCDS. :
 VCLY. :
 VCWS. :
 VSHS. :
~P
~A
# ...
   1138.5000      0.3263      0.3965      2.0000   -999.2500   -999.2500      1.5810      0.6150      2.0294   -999.2500   -999.2500      0.3850      0.1813      0.4552      0.5370      1.5810      1.1996      1.7280    -24.3203    -70.3517      1.7280    -40.9770    -30.4004      0.8711      0.8475      0.8711      0.0702      0.1404      0.1404      0.4681
   1139.0000      0.3304      0.4013      2.0000   -999.2500   -999.2500      1.5490      0.6159      2.0337   -999.2500   -999.2500      0.3841      0.1812      0.4550      0.5367      1.5490      1.2045      1.7350    -24.0125    -70.3557      1.7350    -40.6800    -30.0157      0.8820      0.8602      0.8820      0.0709      0.1418      0.1418      0.4726
   1139.5000      0.3339      0.4072      2.0000   -999.2500   -999.2500      1.5240      0.6191      2.0491   -999.2500   -999.2500      0.3809      0.1810      0.4542      0.5353      1.5240      1.2221      1.7140    -22.9167    -70.3597      1.7140    -39.5950    -28.6459      0.8964      0.8764      0.8964      0.0733      0.1466      0.1466      0.4887
   1140.0000      0.3359      0.4108      2.0000   -999.2500   -999.2500      1.5090      0.6211      2.0590   -999.2500   -999.2500      0.3789      0.1808      0.4538      0.5345      1.5090      1.2335      1.6350    -22.2149    -70.3637      1.6350    -38.9040    -27.7686      0.9053      0.8866      0.9053      0.0748      0.1497      0.1497      0.4990
   1140.5000      0.3404      0.4162      2.0000   -999.2500   -999.2500      1.4770      0.6224      2.0656   -999.2500   -999.2500      0.3776      0.1807      0.4534      0.5339      1.4770      1.2411      1.6060    -21.9891    -70.3678      1.6060    -38.6890    -27.4863      0.9180      0.9015      0.9180      0.0759      0.1517      0.1517      0.5058
   1141.0000      0.3415      0.4164      2.0000   -999.2500   -999.2500      1.4680      0.6211      2.0589   -999.2500   -999.2500      0.3789      0.1808      0.4537      0.5345      1.4680      1.2332      1.6470    -22.2292    -70.3718      1.6470    -38.9400    -27.7865      0.9176      0.9013      0.9176      0.0748      0.1496      0.1496      0.4988
   1141.5000      0.3427      0.4169      2.0000   -999.2500   -999.2500      1.4590      0.6202      2.0545   -999.2500   -999.2500      0.3798      0.1809      0.4539      0.5348      1.4590      1.2281      1.6890    -22.5404    -70.3758      1.6890    -39.2620    -28.1755      0.9184      0.9024      0.9184      0.0741      0.1483      0.1483      0.4943
   1142.0000      0.3458      0.4194      2.0000   -999.2500   -999.2500      1.4370      0.6194      2.0507   -999.2500   -999.2500      0.3806      0.1809      0.4541      0.5352      1.4370      1.2236      1.7140    -22.8156    -70.3798      1.7140    -39.5480    -28.5195      0.9235      0.9087      0.9235      0.0735      0.1471      0.1471      0.4903
   1142.5000      0.3474      0.4206      2.0000   -999.2500   -999.2500      1.4260      0.6191      2.0488   -999.2500   -999.2500      0.3809      0.1810      0.4542      0.5353      1.4260      1.2214      1.6990    -22.9488    -70.3838      1.6990    -39.6920    -28.6860      0.9261      0.9119      0.9261      0.0733      0.1465      0.1465      0.4884
   1143.0000      0.3464      0.4196      2.0000   -999.2500   -999.2500      1.4330      0.6191      2.0490   -999.2500   -999.2500      0.3809      0.1810      0.4542      0.5353      1.4330      1.2216      1.6770    -22.9379    -70.3879      1.6770    -39.6920    -28.6724      0.9240      0.9093      0.9240      0.0733      0.1466      0.1466      0.4885
   1143.5000      0.3307      0.4128      2.0000   -999.2500   -999.2500      1.5510      0.6308      2.1059   -999.2500   -999.2500      0.3692      0.1801      0.4514      0.5305      1.5510      1.2894      1.7350    -20.8501    -70.3919      1.7350    -37.6150    -26.0626      0.9146      0.8956      0.9146      0.0822      0.1643      0.1643      0.5478
   1144.0000      0.3191      0.4027      2.0000   -999.2500   -999.2500      1.6450      0.6327      2.1152   -999.2500   -999.2500      0.3673      0.1799      0.4509      0.5297      1.6450      1.3008      1.8420    -20.5883    -70.3959      1.8420    -37.3640    -25.7354      0.8931      0.8688      0.8931      0.0836      0.1672      0.1672      0.5575
   1144.5000      0.3073      0.3896      2.0000   -999.2500   -999.2500      1.7490      0.6310      2.1068   -999.2500   -999.2500      0.3690      0.1801      0.4513      0.5304      1.7490      1.2904      1.9610    -20.8285    -70.3999      1.9610    -37.6150    -26.0356      0.8633      0.8328      0.8633      0.0823      0.1646      0.1646      0.5487
   1145.0000      0.2981      0.3825      2.0000   -999.2500   -999.2500      1.8380      0.6336      2.1198   -999.2500   -999.2500      0.3664      0.1799      0.4507      0.5293      1.8380      1.3065      2.0610    -20.4596    -70.4040      2.0610    -37.2570    -25.5746      0.8486      0.8138      0.8486      0.0843      0.1687      0.1687      0.5623
   1145.5000      0.2881      0.3719      2.0000   -999.2500   -999.2500      1.9420      0.6330      2.1165   -999.2500   -999.2500      0.3670      0.1799      0.4508      0.5295      1.9420      1.3023      2.1470    -20.5558    -70.4080      2.1470    -37.3640    -25.6948      0.8249      0.7849      0.8249      0.0838      0.1676      0.1676      0.5588
   1146.0000      0.2763      0.3576      2.0000   -999.2500   -999.2500      2.0750      0.6297      2.1005   -999.2500   -999.2500      0.3703      0.1802      0.4516      0.5309      2.0750      1.2825      2.2480    -21.0110    -70.4120      2.2480    -37.8300    -26.2638      0.7918      0.7461      0.7918      0.0813      0.1627      0.1627      0.5422
   1146.5000      0.2666      0.3456      2.0000   -999.2500   -999.2500      2.1940      0.6267      2.0859   -999.2500   -999.2500      0.3733      0.1804      0.4523      0.5321      2.1940      1.2647      2.3230    -21.4292    -70.4160      2.3230    -38.2590    -26.7865      0.7641      0.7142      0.7641      0.0790      0.1581      0.1581      0.5270
   1147.0000      0.2531      0.3328      2.0000   -999.2500   -999.2500      2.3800      0.6276      2.0901   -999.2500   -999.2500      0.3724      0.1803      0.4521      0.5317      2.3800      1.2697      2.4200    -21.3114    -70.4200      2.4200    -38.1520    -26.6392      0.7361      0.6796      0.7361      0.0797      0.1594      0.1594      0.5313
   1147.5000      0.2434      0.3306      2.0000   -999.2500   -999.2500      2.5310      0.6375      2.1383   -999.2500   -999.2500      0.3625      0.1796      0.4497      0.5276      2.5310      1.3298      2.5380    -19.9395    -70.4241      2.5380    -36.7910    -24.9244      0.7352      0.6714      0.7352      0.0872      0.1745      0.1745      0.5816
   1148.0000      0.2290      0.3265      3.0000   -999.2500   -999.2500      2.7750      0.6510      2.2041   -999.2500   -999.2500      0.3490      0.1786      0.4465      0.5221      2.7750      1.4177      2.7000    -18.0667    -70.4281      2.7000    -34.9290    -22.5834      0.7313      0.6562      0.7313      0.0975      0.1950      0.1950      0.6501
   1148.5000      0.2100      0.3136      3.0000   -999.2500   -999.2500      3.1490      0.6591      2.2435   -999.2500   -999.2500      0.3409      0.1780      0.4446      0.5187      3.1490      1.4738      2.9730    -16.9459    -70.4321      2.9730    -33.8190    -21.1824      0.7055      0.6159      0.7055      0.1037      0.2074      0.2074      0.6591
   1149.0000      0.1948      0.3025      3.0000   -999.2500   -999.2500      3.4970      0.6644      2.2691   -999.2500   -999.2500      0.3356      0.1776      0.4433      0.5166      3.4970      1.5117      3.2640    -16.2191    -70.4361      3.2640    -33.1030    -20.2738      0.6824      0.5805      0.6824      0.1077      0.2153      0.2153      0.6644
   1149.5000      0.1893      0.2986      3.0000   -999.2500   -999.2500      3.6370      0.6665      2.2796   -999.2500   -999.2500      0.3335      0.1774      0.4428      0.5157      3.6370      1.5276      3.7810    -15.9222    -70.4402      3.7810    -32.8170    -19.9028      0.6744      0.5676      0.6744      0.1093      0.2186      0.2186      0.6665
