~V
VERS. 2.00: Ver 2.00
WRAP.   NO:        
~W
 STRT.FT 29:
 STOP.FT 4770:
 STEP.FT 0.5:
 NULL. -999.250000:
 COMP. Standard (Chevron):Company
 WELL. KCL 44-32:Well
 FLD. Pioneer:Field
 LOC. S32 T11N R22W:Location
 STAT. CA:State
 SRVC. :Service Company
 SON. :Service Order #
 DATE. :Log Date
 UWI. 0940700:Unique Well ID
~C
 DEPT.FT :
 BVES. :
 BVTS. :
 FACE. :
 GRS.RE/T :
 ILD.OHMM :
 LTHE. :
 MM. :
 NEUT.CPS :
 PHES. :
 PHMX. :
 PHTS. :
 PHZC. :
 RD.OHMM :
 ROS. :
 RS.OHMM :
 SBL.MV :
 SCLN. :
 SN.OHMM :
 SP.MV :
 SPN. :
 STUS. :
 SWES. :
 SWTS. :
 VCDS. :
 VCLY. :
 VCWS. :
 VSHS. :
~P
~A
# ...
   3305.0000      0.1847      0.2375      2.0000   -999.2500      2.9350      0.6449      1.9827   -999.2500      0.3551      0.1743      0.4079      0.4987      2.9350      1.0497      3.3470    -11.3327   -999.2500      3.3470    -24.6370    -22.6653      0.5823      0.5201      0.5823      0.0529      0.1057      0.1057      0.3524
   3305.5000      0.1861      0.2355      1.0000   -999.2500      2.9200      0.6404      1.9632   -999.2500      0.3596      0.1747      0.4090      0.5006      2.9200      1.0307      3.5620    -11.7363   -999.2500      3.5620    -25.0320    -23.4727      0.5760      0.5177      0.5760      0.0494      0.0988      0.0988      0.3294
   3306.0000      0.1894      0.2354      1.0000   -999.2500      2.9150      0.6359      1.9564   -999.2500      0.3641      0.1750      0.4100      0.5025      2.9150      1.0236      3.7800    -12.1390   -999.2500      3.7800    -25.4260    -24.2781      0.5741      0.5203      0.5741      0.0460      0.0919      0.0919      0.3063
   3306.5000      0.1973      0.2343      1.0000   -999.2500      2.9180      0.6242      1.9384   -999.2500      0.3758      0.1759      0.4127      0.5073      2.9180      1.0056      3.9840    -13.1877   -999.2500      3.9840    -26.4660    -26.3755      0.5676      0.5251      0.5676      0.0370      0.0739      0.0739      0.2464
   3307.0000      0.2088      0.2324      1.0000   -999.2500      2.9280      0.6069      1.9119   -999.2500      0.3931      0.1772      0.4167      0.5145      2.9280      0.9801      4.2130    -14.7384   -999.2500      4.2130    -28.0080    -29.4769      0.5578      0.5311      0.5578      0.0237      0.0473      0.0473      0.1578
   3307.5000      0.2152      0.2305      1.0000   -999.2500      2.9530      0.5961      1.8952   -999.2500      0.4039      0.1780      0.4192      0.5190      2.9530      0.9649      4.4200    -15.7151   -999.2500      4.4200    -28.9760    -31.4303      0.5499      0.5329      0.5499      0.0153      0.0306      0.0306      0.1020
   3308.0000      0.2202      0.2289      1.0000   -999.2500      2.9770      0.5876      1.8822   -999.2500      0.4124      0.1786      0.4212      0.5225      2.9770      0.9533      4.5630    -16.4768   -999.2500      4.5630    -29.7290    -32.9537      0.5435      0.5338      0.5435      0.0088      0.0175      0.0175      0.0585
   3308.5000      0.2263      0.2263      1.0000   -999.2500      3.0230      0.5762      1.8647   -999.2500      0.4238      0.1795      0.4238      0.5272      3.0230      0.9383      4.6270    -18.6015   -999.2500      4.6270    -31.8450    -37.2030      0.5340      0.5340      0.5340      0.0000      0.0000      0.0000      0.0000
   3309.0000      0.2249      0.2249      1.0000   -999.2500      3.0580      0.5762      1.8647   -999.2500      0.4238      0.1795      0.4238      0.5272      3.0580      0.9383      4.5150    -20.6542   -999.2500      4.5150    -33.8890    -41.3084      0.5307      0.5307      0.5307      0.0000      0.0000      0.0000      0.0000
   3309.5000      0.2235      0.2235      1.0000   -999.2500      3.0930      0.5762      1.8648   -999.2500      0.4238      0.1795      0.4238      0.5272      3.0930      0.9383      4.3450    -22.3479   -999.2500      4.3450    -35.5740    -44.6958      0.5275      0.5275      0.5275      0.0000      0.0000      0.0000      0.0000
   3310.0000      0.2245      0.2245      1.0000   -999.2500      3.0680      0.5762      1.8648   -999.2500      0.4238      0.1795      0.4238      0.5272      3.0680      0.9384      4.2480    -21.9626   -999.2500      4.2480    -35.1800    -43.9252      0.5298      0.5298      0.5298      0.0000      0.0000      0.0000      0.0000
   3310.5000      0.2265      0.2265      1.0000   -999.2500      3.0170      0.5763      1.8648   -999.2500      0.4237      0.1795      0.4237      0.5272      3.0170      0.9384      4.3490    -20.9683   -999.2500      4.3490    -34.1770    -41.9366      0.5346      0.5346      0.5346      0.0000      0.0000      0.0000      0.0000
   3311.0000      0.2280      0.2280      1.0000   -999.2500      2.9820      0.5763      1.8649   -999.2500      0.4237      0.1795      0.4237      0.5272      2.9820      0.9384      4.5250    -20.1900   -999.2500      4.5250    -33.3900    -40.3800      0.5380      0.5380      0.5380      0.0000      0.0000      0.0000      0.0000
   3311.5000      0.2291      0.2291      1.0000   -999.2500      2.9530      0.5763      1.8649   -999.2500      0.4237      0.1795      0.4237      0.5271      2.9530      0.9385      4.6070    -19.6987   -999.2500      4.6070    -32.8900    -39.3974      0.5408      0.5408      0.5408      0.0000      0.0000      0.0000      0.0000
   3312.0000      0.2308      0.2308      1.0000   -999.2500      2.9140      0.5763      1.8650   -999.2500      0.4237      0.1795      0.4237      0.5271      2.9140      0.9385      4.6650    -19.2064   -999.2500      4.6650    -32.3890    -38.4128      0.5447      0.5447      0.5447      0.0000      0.0000      0.0000      0.0000
   3312.5000      0.2334      0.2334      1.0000   -999.2500      2.8530      0.5763      1.8650   -999.2500      0.4237      0.1795      0.4237      0.5271      2.8530      0.9385      4.5430    -20.9031   -999.2500      4.5430    -34.0770    -41.8062      0.5509      0.5509      0.5509      0.0000      0.0000      0.0000      0.0000
   3313.0000      0.2390      0.2390      1.0000   -999.2500      2.7310      0.5763      1.8650   -999.2500      0.4237      0.1795      0.4237      0.5271      2.7310      0.9385      4.2600    -22.1688   -999.2500      4.2600    -35.3340    -44.3376      0.5640      0.5640      0.5640      0.0000      0.0000      0.0000      0.0000
   3313.5000      0.2459      0.2459      1.0000   -999.2500      2.5880      0.5763      1.8651   -999.2500      0.4237      0.1795      0.4237      0.5271      2.5880      0.9386      3.9870    -22.9325   -999.2500      3.9870    -36.0890    -45.8650      0.5805      0.5805      0.5805      0.0000      0.0000      0.0000      0.0000
   3314.0000      0.2510      0.2510      1.0000   -999.2500      2.4910      0.5763      1.8651   -999.2500      0.4237      0.1795      0.4237      0.5271      2.4910      0.9386      3.7180    -23.0142   -999.2500      3.7180    -36.1620    -46.0284      0.5926      0.5926      0.5926      0.0000      0.0000      0.0000      0.0000
   3314.5000      0.2542      0.2542      1.0000   -999.2500      2.4340      0.5764      1.8652   -999.2500      0.4236      0.1795      0.4236      0.5271      2.4340      0.9386      3.4490    -22.9169   -999.2500      3.4490    -36.0560    -45.8337      0.6000      0.6000      0.6000      0.0000      0.0000      0.0000      0.0000
   3315.0000      0.2550      0.2550      1.0000   -999.2500      2.4200      0.5764      1.8652   -999.2500      0.4236      0.1795      0.4236      0.5271      2.4200      0.9387      3.2990    -21.5646   -999.2500      3.2990    -34.6950    -43.1291      0.6018      0.6018      0.6018      0.0000      0.0000      0.0000      0.0000
   3315.5000      0.2514      0.2540      1.0000   -999.2500      2.4420      0.5797      1.8704   -999.2500      0.4203      0.1792      0.4229      0.5257      2.4420      0.9430      3.1270    -17.2003   -999.2500      3.1270    -30.3220    -34.4005      0.6006      0.5982      0.6006      0.0026      0.0051      0.0051      0.0171
   3316.0000      0.2431      0.2512      1.0000   -999.2500      2.5030      0.5868      1.8813   -999.2500      0.4132      0.1787      0.4212      0.5227      2.5030      0.9525      3.0160    -16.5650   -999.2500      3.0160    -29.6780    -33.1299      0.5963      0.5884      0.5963      0.0080      0.0160      0.0160      0.0534
   3316.5000      0.2354      0.2489      1.0000   -999.2500      2.5570      0.5939      1.8922   -999.2500      0.4061      0.1781      0.4196      0.5198      2.5570      0.9621      3.0560    -15.9307   -999.2500      3.0560    -29.0350    -31.8613      0.5931      0.5796      0.5931      0.0135      0.0269      0.0269      0.0897
