~V
VERS. 2.00: Ver 2.00
WRAP.   NO:        
~W
 STRT.FT 40:
 STOP.FT 4330:
 STEP.FT 0.5:
 NULL. -999.250000:
 COMP. Standard (Chevron):Company
 WELL. KCL 44-45:Well
 FLD. Pioneer:Field
 LOC. S32 T11N R22W:Location
 STAT. CA:State
 SRVC. :Service Company
 SON. :Service Order #
 DATE. :Log Date
 UWI. 0941000:Unique Well ID
~C
 DEPT.FT :
 BVES. :
 BVTS. :
 FACE. :
 GR.RE/T :
 GRS.RE/T :
 ILD.OHMM :
 LTHE. :
 MM. :
 NEUS.CPS :
 NEUT.CPS :
 PHES. :
 PHMX. :
 PHTS. :
 PHZC. :
 RD.OHMM :
 ROS. :
 RS.OHMM :
 SBL.MV :
 SCLN. :
 SN.OHMM :
 SP.MV :
 SPN. :
 STUS. :
 SWES. :
 SWTS. :
 VCDS. :
 VCLY. :
 VCWS. :
 VSHS. :
~P
~A
# ...
    937.0000      0.2357      0.3438      3.0000   -999.2500   -999.2500      2.7749      0.6597      2.2716   -999.2500   -999.2500      0.3403      0.1784      0.4484      0.5210      2.7749      1.5400      3.1818    -14.8780    -48.1700      3.1818    -32.8780    -19.8373      0.7667      0.6926      0.7667      0.1081      0.2161      0.2161      0.6597
    937.5000      0.2308      0.3341      3.0000   -999.2500   -999.2500      2.8676      0.6534      2.2411   -999.2500   -999.2500      0.3466      0.1788      0.4499      0.5236      2.8676      1.4938      3.2250    -15.3511    -48.2122      3.2250    -33.3511    -20.4681      0.7425      0.6658      0.7425      0.1033      0.2066      0.2066      0.6534
    938.0000      0.2267      0.3253      3.0000   -999.2500   -999.2500      2.9454      0.6472      2.2106   -999.2500   -999.2500      0.3528      0.1793      0.4514      0.5262      2.9454      1.4494      3.2539    -15.8242    -48.2544      3.2539    -33.8242    -21.0989      0.7207      0.6427      0.7207      0.0985      0.1971      0.1971      0.6472
    938.5000      0.2244      0.3181      3.0000   -999.2500   -999.2500      2.9911      0.6408      2.1796   -999.2500   -999.2500      0.3592      0.1798      0.4529      0.5288      2.9911      1.4059      3.2763    -16.3057    -48.2966      3.2763    -34.3057    -21.7409      0.7025      0.6249      0.7025      0.0937      0.1874      0.1874      0.6246
    939.0000      0.2231      0.3104      2.0000   -999.2500   -999.2500      3.0171      0.6325      2.1391   -999.2500   -999.2500      0.3675      0.1804      0.4548      0.5322      3.0171      1.3516      3.2528    -16.9318    -48.3388      3.2528    -34.9318    -22.5757      0.6825      0.6070      0.6825      0.0874      0.1747      0.1747      0.5824
    939.5000      0.2233      0.3037      2.0000   -999.2500   -999.2500      3.0075      0.6235      2.0947   -999.2500   -999.2500      0.3765      0.1811      0.4570      0.5359      3.0075      1.2951      3.1797    -17.6184    -48.3809      3.1797    -35.6184    -23.4912      0.6646      0.5930      0.6646      0.0804      0.1608      0.1608      0.5361
    940.0000      0.2281      0.3041      2.0000   -999.2500   -999.2500      2.9062      0.6176      2.0659   -999.2500   -999.2500      0.3824      0.1815      0.4583      0.5383      2.9062      1.2600      3.0804    -18.0689    -48.4231      3.0804    -36.0689    -24.0919      0.6634      0.5966      0.6634      0.0759      0.1519      0.1519      0.5062
    940.5000      0.2341      0.3201      2.0000   -999.2500   -999.2500      2.8028      0.6308      2.1302   -999.2500   -999.2500      0.3692      0.1805      0.4552      0.5329      2.8028      1.3399      2.9743    -17.1106    -48.4653      2.9743    -35.1106    -22.8141      0.7031      0.6339      0.7031      0.0860      0.1720      0.1720      0.5732
    941.0000      0.2399      0.3369      3.0000   -999.2500   -999.2500      2.7030      0.6453      2.2010   -999.2500   -999.2500      0.3547      0.1794      0.4518      0.5269      2.7030      1.4354      2.8768    -16.0530    -48.5075      2.8768    -34.0530    -21.4040      0.7457      0.6762      0.7457      0.0970      0.1941      0.1941      0.6453
    941.5000      0.2454      0.3535      3.0000   -999.2500   -999.2500      2.6070      0.6598      2.2715   -999.2500   -999.2500      0.3402      0.1784      0.4483      0.5209      2.6070      1.5393      2.8078    -14.9968    -48.5497      2.8078    -32.9968    -19.9958      0.7885      0.7213      0.7885      0.1081      0.2161      0.2161      0.6598
    942.0000      0.2513      0.3700      3.0000   -999.2500   -999.2500      2.5071      0.6738      2.3399   -999.2500   -999.2500      0.3262      0.1773      0.4449      0.5152      2.5071      1.6491      2.7440    -13.9719    -48.5919      2.7440    -31.9719    -18.6292      0.8317      0.7704      0.8317      0.1187      0.2375      0.2375      0.6738
    942.5000      0.2586      0.3857      3.0000   -999.2500   -999.2500      2.3916      0.6848      2.3934   -999.2500   -999.2500      0.3152      0.1765      0.4423      0.5106      2.3916      1.7420      2.6838    -13.1713    -48.6341      2.6838    -31.1713    -17.5618      0.8720      0.8204      0.8720      0.1271      0.2542      0.2542      0.6848
    943.0000      0.2663      0.4019      3.0000   -999.2500   -999.2500      2.2761      0.6960      2.4476   -999.2500   -999.2500      0.3040      0.1756      0.4396      0.5061      2.2761      1.8430      2.6212    -12.3577    -48.6763      2.6212    -30.3577    -16.4769      0.9143      0.8760      0.9143      0.1356      0.2711      0.2711      0.6960
    943.5000      0.2725      0.4169      3.0000   -999.2500   -999.2500      2.1866      0.7077      2.5042   -999.2500   -999.2500      0.2923      0.1748      0.4367      0.5013      2.1866      1.9562      2.5563    -11.5067    -48.7185      2.5563    -29.5067    -15.3423      0.9546      0.9321      0.9546      0.1444      0.2888      0.2888      0.7077
    944.0000      0.2787      0.4310      3.0000   -999.2500   -999.2500      2.1020      0.7182      2.5549   -999.2500   -999.2500      0.2818      0.1740      0.4342      0.4970      2.1020      2.0652      2.4933    -10.7435    -48.7607      2.4933    -28.7435    -14.3246      0.9928      0.9888      0.9928      0.1523      0.3047      0.3047      0.7182
    944.5000      0.2736      0.4322      3.0000   -999.2500   -999.2500      2.0404      0.7264      2.5946   -999.2500   -999.2500      0.2736      0.1734      0.4322      0.4936      2.0404      2.1557      2.4311    -10.1474    -48.8029      2.4311    -28.1474    -13.5299      1.0192      1.0000      1.0000      0.1585      0.3171      0.3171      0.7264
    945.0000      0.2676      0.4307      3.0000   -999.2500   -999.2500      1.9773      0.7324      2.6235   -999.2500   -999.2500      0.2676      0.1729      0.4307      0.4912      1.9773      2.2246      2.3749     -9.7156    -48.8451      2.3749    -27.7156    -12.9542      1.0409      1.0000      1.0000      0.1630      0.3261      0.3261      0.7324
    945.5000      0.2743      0.4323      3.0000   -999.2500   -999.2500      1.9228      0.7257      2.5913   -999.2500   -999.2500      0.2743      0.1734      0.4323      0.4939      1.9228      2.1477      2.3210    -10.2159    -48.8873      2.3210    -28.2159    -13.6212      1.0391      1.0000      1.0000      0.1580      0.3160      0.3160      0.7257
    946.0000      0.2817      0.4341      3.0000   -999.2500   -999.2500      1.8901      0.7183      2.5554   -999.2500   -999.2500      0.2817      0.1740      0.4341      0.4969      1.8901      2.0659      2.2837    -10.7733    -48.9295      2.2837    -28.7733    -14.3643      1.0320      1.0000      1.0000      0.1524      0.3048      0.3048      0.7183
    946.5000      0.2900      0.4361      3.0000   -999.2500   -999.2500      1.8443      0.7100      2.5148   -999.2500   -999.2500      0.2900      0.1746      0.4361      0.5003      1.8443      1.9779      2.2648    -11.4040    -48.9717      2.2648    -29.4040    -15.2053      1.0258      1.0000      1.0000      0.1461      0.2921      0.2921      0.7100
    947.0000      0.2969      0.4378      3.0000   -999.2500   -999.2500      1.8802      0.7031      2.4814   -999.2500   -999.2500      0.2969      0.1751      0.4378      0.5031      1.8802      1.9090      2.2597    -11.9259    -49.0139      2.2597    -29.9259    -15.9012      1.0057      1.0000      1.0000      0.1408      0.2817      0.2817      0.7031
    947.5000      0.2960      0.4334      3.0000   -999.2500   -999.2500      1.9213      0.6985      2.4591   -999.2500   -999.2500      0.3015      0.1755      0.4389      0.5050      1.9213      1.8647      2.2589    -12.2771    -49.0561      2.2589    -30.2771    -16.3695      0.9874      0.9817      0.9874      0.1374      0.2747      0.2747      0.6985
    948.0000      0.2863      0.4352      3.0000   -999.2500   -999.2500      1.9562      0.7137      2.5328   -999.2500   -999.2500      0.2863      0.1743      0.4352      0.4987      1.9562      2.0161      2.2585    -11.1572    -49.0983      2.2585    -29.1572    -14.8763      1.0109      1.0000      1.0000      0.1489      0.2978      0.2978      0.7137
