~V
VERS. 2.00: Ver 2.00
WRAP.   NO:        
~W
 STRT.FT 20:
 STOP.FT 4330:
 STEP.FT 0.5:
 NULL. -999.250000:
 COMP. Standard (Chevron):Company
 WELL. KCL 44-25:Well
 FLD. Pioneer:Field
 LOC. S32 T11N R22W:Location
 STAT. CA:State
 SRVC. :Service Company
 SON. :Service Order #
 DATE. :Log Date
 UWI. 0940600:Unique Well ID
~C
 DEPT.FT :
 BVES. :
 BVTS. :
 FACE. :
 GR.RE/T :
 GRS.RE/T :
 ILD.OHMM :
 LTHE. :
 MM. :
 NEUS.CPS :
 NEUT.CPS :
 PHES. :
 PHMX. :
 PHTS. :
 PHZC. :
 RD.OHMM :
 ROS. :
 RS.OHMM :
 SBL.MV :
 SCLN. :
 SN.OHMM :
 SP.MV :
 SPN. :
 STUS. :
 SWES. :
 SWTS. :
 VCDS. :
 VCLY. :
 VCWS. :
 VSHS. :
~P
~A
     20.0000      0.1500      0.5000      4.0000   -999.2500   -999.2500      0.0360      0.8500   -999.2500   -999.2500   -999.2500      0.1500 49090916870222007100000000000.0000      0.5000 270000019174388625000000000000.0000      0.0360      1.2801      0.0570   -999.2500   -999.2500      0.0570   -999.2500   -999.2500      5.7963      1.0000      1.0000      0.3500   -999.2500      0.7000      0.8500
     20.5000      0.1500      0.5000      4.0000   -999.2500   -999.2500      0.0340      0.8500   -999.2500   -999.2500   -999.2500      0.1500 49090916870222007100000000000.0000      0.5000 270000019174388625000000000000.0000      0.0340      1.2798      0.0560   -999.2500   -999.2500      0.0560   -999.2500   -999.2500      5.9631      1.0000      1.0000      0.3500   -999.2500      0.7000      0.8500
     21.0000      0.1500      0.5000      4.0000   -999.2500   -999.2500      0.0330      0.8500   -999.2500   -999.2500   -999.2500      0.1500 49090916870222007100000000000.0000      0.5000 270000019174388625000000000000.0000      0.0330      1.2796      0.0550   -999.2500   -999.2500      0.0550   -999.2500   -999.2500      6.0520      1.0000      1.0000      0.3500   -999.2500      0.7000      0.8500
     21.5000      0.1500      0.5000      4.0000   -999.2500   -999.2500      0.0280      0.8500   -999.2500   -999.2500   -999.2500      0.1500 49090916870222007100000000000.0000      0.5000 270000019174388625000000000000.0000      0.0280      1.2793      0.0590   -999.2500   -999.2500      0.0590   -999.2500   -999.2500      6.5670      1.0000      1.0000      0.3500   -999.2500      0.7000      0.8500
     22.0000      0.1500      0.5000      4.0000   -999.2500   -999.2500      0.0230      0.8500   -999.2500   -999.2500   -999.2500      0.1500 49090916870222007100000000000.0000      0.5000 270000019174388625000000000000.0000      0.0230      1.2791      0.0630   -999.2500   -999.2500      0.0630   -999.2500   -999.2500      7.2419      1.0000      1.0000      0.3500   -999.2500      0.7000      0.8500
     22.5000      0.1500      0.5000      4.0000   -999.2500   -999.2500      0.0180      0.8500   -999.2500   -999.2500   -999.2500      0.1500 49090916870222007100000000000.0000      0.5000 270000019174388625000000000000.0000      0.0180      1.2788      0.0610   -999.2500   -999.2500      0.0610   -999.2500   -999.2500      8.1815      1.0000      1.0000      0.3500   -999.2500      0.7000      0.8500
     23.0000      0.1500      0.5000      4.0000   -999.2500   -999.2500      0.0170      0.8500   -999.2500   -999.2500   -999.2500      0.1500 49090916870222007100000000000.0000      0.5000 270000019174388625000000000000.0000      0.0170      1.2785      0.0600   -999.2500   -999.2500      0.0600   -999.2500   -999.2500      8.4173      1.0000      1.0000      0.3500   -999.2500      0.7000      0.8500
     23.5000      0.1500      0.5000      4.0000   -999.2500   -999.2500      0.0150      0.8500   -999.2500   -999.2500   -999.2500      0.1500 49090916870222007100000000000.0000      0.5000 270000019174388625000000000000.0000      0.0150      1.2783      0.0530   -999.2500   -999.2500      0.0530   -999.2500   -999.2500      8.9584      1.0000      1.0000      0.3500   -999.2500      0.7000      0.8500
     24.0000      0.1500      0.5000      4.0000   -999.2500   -999.2500      0.0140      0.8500   -999.2500   -999.2500   -999.2500      0.1500 49090916870222007100000000000.0000      0.5000 270000019174388625000000000000.0000      0.0140      1.2780      0.0460   -999.2500   -999.2500      0.0460   -999.2500   -999.2500      9.2712      1.0000      1.0000      0.3500   -999.2500      0.7000      0.8500
     24.5000      0.1500      0.5000      4.0000   -999.2500   -999.2500      0.0050      0.8500   -999.2500   -999.2500   -999.2500      0.1500 49090916870222007100000000000.0000      0.5000 270000019174388625000000000000.0000      0.0050      1.2778      0.0450   -999.2500   -999.2500      0.0450   -999.2500   -999.2500     15.4910      1.0000      1.0000      0.3500   -999.2500      0.7000      0.8500
     25.0000      0.1500      0.5000      4.0000   -999.2500   -999.2500      0.0050      0.8500   -999.2500   -999.2500   -999.2500      0.1500 49090916870222007100000000000.0000      0.5000 270000019174388625000000000000.0000      0.0050      1.2775      0.0430   -999.2500   -999.2500      0.0430   -999.2500   -999.2500     15.4902      1.0000      1.0000      0.3500   -999.2500      0.7000      0.8500
     25.5000      0.1500      0.5000      4.0000   -999.2500   -999.2500      0.0050      0.8500   -999.2500   -999.2500   -999.2500      0.1500 49090916870222007100000000000.0000      0.5000 270000019174388625000000000000.0000      0.0050      1.2773      0.0400   -999.2500   -999.2500      0.0400   -999.2500   -999.2500     15.4895      1.0000      1.0000      0.3500   -999.2500      0.7000      0.8500
     26.0000      0.1500      0.5000      4.0000   -999.2500   -999.2500      0.0050      0.8500   -999.2500   -999.2500   -999.2500      0.1500 49090916870222007100000000000.0000      0.5000 270000019174388625000000000000.0000      0.0050      1.2770      0.0370   -999.2500   -999.2500      0.0370   -999.2500   -999.2500     15.4888      1.0000      1.0000      0.3500   -999.2500      0.7000      0.8500
     26.5000      0.1500      0.5000      4.0000   -999.2500   -999.2500      0.0050      0.8500   -999.2500   -999.2500   -999.2500      0.1500 49090916870222007100000000000.0000      0.5000 270000019174388625000000000000.0000      0.0050      1.2768      0.0240   -999.2500   -999.2500      0.0240   -999.2500   -999.2500     15.4881      1.0000      1.0000      0.3500   -999.2500      0.7000      0.8500
     27.0000      0.1500      0.5000      4.0000   -999.2500   -999.2500      0.0050      0.8500   -999.2500   -999.2500   -999.2500      0.1500 49090916870222007100000000000.0000      0.5000 270000019174388625000000000000.0000      0.0050      1.2765      0.0160   -999.2500   -999.2500      0.0160   -999.2500   -999.2500     15.4873      1.0000      1.0000      0.3500   -999.2500      0.7000      0.8500
     27.5000      0.1500      0.5000      4.0000   -999.2500   -999.2500      0.0140      0.8500   -999.2500   -999.2500   -999.2500      0.1500 49090916870222007100000000000.0000      0.5000 270000019174388625000000000000.0000      0.0140      1.2763      0.0140   -999.2500   -999.2500      0.0140   -999.2500   -999.2500      9.2680      1.0000      1.0000      0.3500   -999.2500      0.7000      0.8500
     28.0000      0.1500      0.5000      4.0000   -999.2500   -999.2500      0.0780      0.8500   -999.2500   -999.2500   -999.2500      0.1500 49090916870222007100000000000.0000      0.5000 270000019174388625000000000000.0000      0.0780      1.2760      0.0630   -999.2500   -999.2500      0.0630   -999.2500   -999.2500      3.9449      1.0000      1.0000      0.3500   -999.2500      0.7000      0.8500
     28.5000      0.1500      0.5000      4.0000   -999.2500   -999.2500      0.2810      0.8500   -999.2500   -999.2500   -999.2500      0.1500 49090916870222007100000000000.0000      0.5000 270000019174388625000000000000.0000      0.2810      1.2758      0.4930   -999.2500   -999.2500      0.4930   -999.2500   -999.2500      2.0936      1.0000      1.0000      0.3500   -999.2500      0.7000      0.8500
     29.0000      0.0100      0.3600      4.0000   -999.2500   -999.2500     17.8480      0.8500   -999.2500   -999.2500   -999.2500      0.1500 49090916870222007100000000000.0000      0.5000 270000019174388625000000000000.0000     17.8480      1.2755      6.0580   -999.2500   -999.2500      6.0580   -999.2500   -999.2500      0.2926      0.0667      0.7200      0.3500   -999.2500      0.7000      0.8500
     29.5000      0.0100      0.3600      4.0000   -999.2500   -999.2500     35.4140      0.8500   -999.2500   -999.2500   -999.2500      0.1500 49090916870222007100000000000.0000      0.5000 270000019174388625000000000000.0000     35.4140      1.2753     11.6230   -999.2500   -999.2500     11.6230   -999.2500   -999.2500      0.2183      0.0667      0.7200      0.3500   -999.2500      0.7000      0.8500
