~V
VERS. 2.00: Ver 2.00
WRAP.   NO:        
~W
 STRT.FT 35:
 STOP.FT 5500:
 STEP.FT 0.5:
 NULL. -999.250000:
 COMP. Standard (Chevron):Company
 WELL. KCL 45-56:Well
 FLD. :Field
 LOC. S30 T11N R22W:Location
 STAT. CA:State
 SRVC. :Service Company
 SON. :Service Order #
 DATE. :Log Date
 UWI. 0369100:Unique Well ID
~C
 DEPT.FT :
 BVES. :
 BVTS. :
 ILD.OHMM :
 LLD.OHMM :
 LTHE. :
 MM. :
 PHES. :
 PHMX. :
 PHTS. :
 PHZC. :
 RD.OHMM :
 ROS. :
 RS.OHMM :
 SBL.MV :
 SCLN. :
 SN.OHMM :
 SP.MV :
 SPN. :
 STUS. :
 SWES. :
 SWTS. :
 VCDS. :
 VCLY. :
 VCWS. :
 VSHS. :
~P
~A
# ...
   2245.0000      0.1640      0.3811   -999.2500      1.0440      0.8360      2.7389      0.1640      0.1624      0.3811      0.4334      1.0440      2.4813   -999.2500     -6.0484    -50.0000   -999.2500    -13.3590     -6.0484      1.3924      1.0000      1.0000      0.2171      0.4343      0.4343      0.8360
   2245.5000      0.1612      0.3804   -999.2500      1.2020      0.8388      2.7409      0.1612      0.1622      0.3804      0.4322      1.2020      2.4935   -999.2500     -5.7649    -50.0000   -999.2500    -13.0760     -5.7649      1.3217      1.0000      1.0000      0.2193      0.4385      0.4385      0.8388
   2246.0000      0.1579      0.3796   -999.2500      1.3890      0.8421      2.7431      0.1579      0.1620      0.3796      0.4309      1.3890      2.5074   -999.2500     -5.4454    -50.0000   -999.2500    -12.7570     -5.4454      1.2531      1.0000      1.0000      0.2217      0.4433      0.4433      0.8421
   2246.5000      0.1565      0.3792   -999.2500      1.6760      0.8435      2.7440      0.1565      0.1619      0.3792      0.4303      1.6760      2.5134   -999.2500     -5.3060    -50.0000   -999.2500    -12.6180     -5.3060      1.1673      1.0000      1.0000      0.2227      0.4454      0.4454      0.8435
   2247.0000      0.1558      0.3791   -999.2500      1.9740      0.8442      2.7445      0.1558      0.1618      0.3791      0.4300      1.9740      2.5164   -999.2500     -5.2375    -50.0000   -999.2500    -12.5500     -5.2375      1.0970      1.0000      1.0000      0.2232      0.4464      0.4464      0.8442
   2247.5000      0.1537      0.3785   -999.2500      2.2750      0.8463      2.7460      0.1537      0.1617      0.3785      0.4292      2.2750      2.5257   -999.2500     -5.0260    -50.0000   -999.2500    -12.3390     -5.0260      1.0382      1.0000      1.0000      0.2248      0.4496      0.4496      0.8463
   2248.0000      0.1532      0.3784   -999.2500      2.3400      0.8468      2.7464      0.1532      0.1616      0.3784      0.4289      2.3400      2.5281   -999.2500     -4.9565    -50.0000   -999.2500    -12.2700     -4.9565      1.0281      1.0000      1.0000      0.2252      0.4504      0.4504      0.8468
   2248.5000      0.1537      0.3785   -999.2500      2.2370      0.8463      2.7459      0.1537      0.1617      0.3785      0.4292      2.2370      2.5254   -999.2500     -5.0310    -50.0000   -999.2500    -12.3450     -5.0310      1.0445      1.0000      1.0000      0.2248      0.4495      0.4495      0.8463
   2249.0000      0.1538      0.3785   -999.2500      1.7560      0.8462      2.7459      0.1538      0.1617      0.3785      0.4292      1.7560      2.5252   -999.2500     -5.0335    -50.0000   -999.2500    -12.3480     -5.0335      1.1487      1.0000      1.0000      0.2247      0.4495      0.4495      0.8462
   2249.5000      0.1538      0.3785   -999.2500      1.4630      0.8462      2.7459      0.1538      0.1617      0.3785      0.4292      1.4630      2.5251   -999.2500     -5.0361    -50.0000   -999.2500    -12.3510     -5.0361      1.2316      1.0000      1.0000      0.2247      0.4495      0.4495      0.8462
   2250.0000      0.1549      0.3788   -999.2500      1.3450      0.8451      2.7451      0.1549      0.1617      0.3788      0.4296      1.3450      2.5201   -999.2500     -5.1476    -50.0000   -999.2500    -12.4630     -5.1476      1.2709      1.0000      1.0000      0.2239      0.4478      0.4478      0.8451
   2250.5000      0.1567      0.3792   -999.2500      1.2870      0.8433      2.7439      0.1567      0.1619      0.3792      0.4303      1.2870      2.5120   -999.2500     -5.3301    -50.0000   -999.2500    -12.6460     -5.3301      1.2910      1.0000      1.0000      0.2225      0.4450      0.4450      0.8433
   2251.0000      0.1581      0.3796   -999.2500      1.2180      0.8419      2.7429      0.1581      0.1620      0.3796      0.4309      1.2180      2.5056   -999.2500     -5.4756    -50.0000   -999.2500    -12.7920     -5.4756      1.3173      1.0000      1.0000      0.2214      0.4429      0.4429      0.8419
   2251.5000      0.1596      0.3799   -999.2500      1.1960      0.8404      2.7418      0.1596      0.1621      0.3799      0.4315      1.1960      2.4992   -999.2500     -5.6221    -50.0000   -999.2500    -12.9390     -5.6221      1.3253      1.0000      1.0000      0.2203      0.4407      0.4407      0.8404
   2252.0000      0.1632      0.3808   -999.2500      1.1810      0.8368      2.7393      0.1632      0.1624      0.3808      0.4329      1.1810      2.4835   -999.2500     -5.9846    -50.0000   -999.2500    -13.3020     -5.9846      1.3287      1.0000      1.0000      0.2176      0.4352      0.4352      0.8368
   2252.5000      0.1618      0.3804   -999.2500      1.8150      0.8382      2.7403      0.1618      0.1622      0.3804      0.4324      1.8150      2.4895   -999.2500     -5.8441    -50.0000   -999.2500    -13.1620     -5.8441      1.1283      1.0000      1.0000      0.2187      0.4373      0.4373      0.8382
   2253.0000      0.1519      0.3741   -999.2500      2.5900      0.8429      2.7435      0.1571      0.1619      0.3793      0.4305      2.5900      2.5095   -999.2500     -5.3817    -50.0000   -999.2500    -12.7000     -5.3817      0.9863      0.9670      0.9863      0.2221      0.4443      0.4443      0.8429
   2253.5000      0.0935      0.3189   -999.2500      3.8440      0.8472      2.7465      0.1528      0.1616      0.3782      0.4287      3.8440      2.5287   -999.2500     -4.9192    -50.0000   -999.2500    -12.2380     -4.9192      0.8433      0.6120      0.8433      0.2254      0.4508      0.4508      0.8472
   2254.0000      0.0764      0.3032   -999.2500      4.4070      0.8491      2.7478      0.1509      0.1614      0.3777      0.4279      4.4070      2.5370   -999.2500     -4.6357    -50.0000   -999.2500    -11.9550     -4.6357      0.8028      0.5064      0.8028      0.2268      0.4536      0.4536      0.8491
   2254.5000      0.0535      0.2792   -999.2500      5.4070      0.8477      2.7468      0.1523      0.1615      0.3780      0.4285      5.4070      2.5305   -999.2500     -4.8532    -50.0000   -999.2500    -12.1730     -4.8532      0.7386      0.3511      0.7386      0.2257      0.4515      0.4515      0.8477
   2255.0000      0.0505      0.2753   -999.2500      5.6000      0.8464      2.7459      0.1536      0.1616      0.3784      0.4290      5.6000      2.5246   -999.2500     -5.0357    -50.0000   -999.2500    -12.3560     -5.0357      0.7275      0.3289      0.7275      0.2247      0.4495      0.4495      0.8464
   2255.5000      0.0497      0.2753   -999.2500      5.5990      0.8474      2.7466      0.1526      0.1616      0.3781      0.4286      5.5990      2.5292   -999.2500     -4.8952    -50.0000   -999.2500    -12.2160     -4.8952      0.7281      0.3261      0.7281      0.2255      0.4510      0.4510      0.8474
   2256.0000      0.0651      0.2924   -999.2500      4.8200      0.8498      2.7483      0.1502      0.1614      0.3775      0.4276      4.8200      2.5397   -999.2500     -4.5408    -50.0000   -999.2500    -11.8620     -4.5408      0.7747      0.4338      0.7747      0.2273      0.4546      0.4546      0.8498
   2256.5000      0.0939      0.3224   -999.2500      3.7410      0.8515      2.7494      0.1485      0.1613      0.3771      0.4269      3.7410      2.5471   -999.2500     -4.2923    -50.0000   -999.2500    -11.6140     -4.2923      0.8551      0.6322      0.8551      0.2285      0.4571      0.4571      0.8515
   2257.0000      0.1461      0.3765   -999.2500      2.0980      0.8539      2.7511      0.1461      0.1611      0.3765      0.4260      2.0980      2.5577   -999.2500     -3.9378    -50.0000   -999.2500    -11.2600     -3.9378      1.0738      1.0000      1.0000      0.2303      0.4606      0.4606      0.8539
   2257.5000      0.1442      0.3760   -999.2500      1.7850      0.8558      2.7524      0.1442      0.1609      0.3760      0.4252      1.7850      2.5662   -999.2500     -3.6543    -50.0000   -999.2500    -10.9770     -3.6543      1.1483      1.0000      1.0000      0.2317      0.4635      0.4635      0.8558
