~V
VERS. 2.00: Ver 2.00
WRAP.   NO:        
~W
 STRT.FT 670:
 STOP.FT 4300:
 STEP.FT 0.5:
 NULL. -999.250000:
 COMP. Shell (SWEPI, Cal Resources):Company
 WELL. SAN EMIDIO 1A #8-32:Well
 FLD. :Field
 LOC. S32 T11N R22W:Location
 STAT. CA:State
 SRVC. :Service Company
 SON. :Service Order #
 DATE. :Log Date
 UWI. :Unique Well ID
~C
 DEPT.FT :
 LN.OHMM :
 LTHE. :
 MM. :
 PHES. :
 PHMX. :
 PHTS. :
 PHZC. :
 RD.OHMM :
 ROS. :
 RS.OHMM :
 SBL.MV :
 SCLN. :
 SN.OHMM :
 SP.MV :
 SPN. :
 VCDS. :
 VCLY. :
 VCWS. :
 VSHS. :
~P
~A
# ...
   2489.0000      1.3961      0.7324      2.4410      0.2676      0.1696      0.4021      0.4726      1.3961      1.6914      1.4614    -17.1802    -67.1277      1.4614    -36.7004    -22.9070      0.1345      0.2691      0.2691      0.7324
   2489.5000      1.3760      0.7199      2.3803      0.2800      0.1705      0.4051      0.4777      1.3760      1.5871      1.5125    -18.4546    -67.1326      1.5125    -37.9863    -24.6061      0.1251      0.2501      0.2501      0.7199
   2490.0000      1.3699      0.7155      2.3586      0.2845      0.1708      0.4062      0.4795      1.3699      1.5517      1.5326    -18.9127    -67.1376      1.5326    -38.4559    -25.2169      0.1216      0.2433      0.2433      0.7155
   2490.5000      1.3655      0.7357      2.4564      0.2643      0.1693      0.4013      0.4713      1.3655      1.7192      1.4073    -16.8602    -67.1425      1.4073    -36.4150    -22.4803      0.1369      0.2739      0.2739      0.7357
   2491.0000      1.3612      0.7542      2.5464      0.2458      0.1679      0.3968      0.4637      1.3612      1.8939      1.3217    -14.9730    -67.1475      1.3217    -34.5393    -19.9640      0.1510      0.3020      0.3020      0.7542
   2491.5000      1.3517      0.7678      2.6121      0.2322      0.1669      0.3934      0.4581      1.3517      2.0357      1.2901    -13.5956    -67.1525      1.2901    -33.1734    -18.1275      0.1613      0.3225      0.3225      0.7678
   2492.0000      1.3423      0.7568      2.5587      0.2432      0.1677      0.3961      0.4626      1.3423      1.9193      1.3042    -14.7183    -67.1574      1.3042    -34.3077    -19.6245      0.1529      0.3058      0.3058      0.7568
   2492.5000      1.3328      0.7452      2.5027      0.2548      0.1686      0.3989      0.4673      1.3328      1.8062      1.3313    -15.8949    -67.1624      1.3313    -35.4958    -21.1932      0.1442      0.2883      0.2883      0.7452
   2493.0000      1.3256      0.7408      2.4809      0.2592      0.1689      0.4000      0.4691      1.3256      1.7645      1.3634    -16.3536    -67.1673      1.3634    -35.9660    -21.8048      0.1408      0.2815      0.2815      0.7408
   2493.5000      1.3208      0.7469      2.5105      0.2531      0.1685      0.3985      0.4666      1.3208      1.8215      1.4649    -15.7324    -67.1723      1.4649    -35.3564    -20.9766      0.1454      0.2908      0.2908      0.7469
   2494.0000      1.3161      0.7594      2.5709      0.2406      0.1675      0.3955      0.4615      1.3161      1.9451      1.5916    -14.4662    -67.1773      1.5916    -34.1017    -19.2883      0.1548      0.3097      0.3097      0.7594
   2494.5000      1.3113      0.7727      2.6353      0.2273      0.1666      0.3922      0.4561      1.3113      2.0887      1.7365    -13.1154    -67.1822      1.7365    -32.7624    -17.4872      0.1649      0.3298      0.3298      0.7727
   2495.0000      1.3065      0.7788      2.6649      0.2212      0.1661      0.3907      0.4536      1.3065      2.1592      1.8546    -12.4939    -67.1872      1.8546    -32.1524    -16.6585      0.1695      0.3390      0.3390      0.7788
   2495.5000      1.3017      0.7812      2.6762      0.2188      0.1659      0.3901      0.4526      1.3017      2.1867      1.9004    -12.2594    -67.1922      1.9004    -31.9295    -16.3459      0.1713      0.3425      0.3425      0.7812
   2496.0000      1.2970      0.7818      2.6794      0.2182      0.1659      0.3899      0.4523      1.2970      2.1947      1.8993    -12.1923    -67.1971      1.8993    -31.8739    -16.2564      0.1718      0.3436      0.3436      0.7818
   2496.5000      1.2922      0.7822      2.6808      0.2178      0.1659      0.3898      0.4522      1.2922      2.1981      1.8733    -12.1638    -67.2021      1.8733    -31.8569    -16.2184      0.1720      0.3440      0.3440      0.7822
   2497.0000      1.2869      0.7799      2.6696      0.2201      0.1660      0.3904      0.4531      1.2869      2.1706      1.7944    -12.3991    -67.2070      1.7944    -32.1038    -16.5322      0.1703      0.3405      0.3405      0.7799
   2497.5000      1.2814      0.7681      2.6128      0.2319      0.1669      0.3933      0.4579      1.2814      2.0369      1.6675    -13.5936    -67.2120      1.6675    -33.3098    -18.1248      0.1614      0.3228      0.3228      0.7681
   2498.0000      1.2759      0.7461      2.5060      0.2539      0.1685      0.3986      0.4669      1.2759      1.8125      1.5159    -15.8380    -67.2170      1.5159    -35.5657    -21.1173      0.1447      0.2894      0.2894      0.7461
   2498.5000      1.2703      0.7238      2.3978      0.2762      0.1702      0.4040      0.4760      1.2703      1.6159      1.3806    -18.1128    -67.2219      1.3806    -37.8520    -24.1504      0.1278      0.2556      0.2556      0.7238
   2499.0000      1.2648      0.7120      2.3407      0.2880      0.1711      0.4068      0.4808      1.2648      1.5229      1.2910    -19.3140    -67.2269      1.2910    -39.0647    -25.7520      0.1189      0.2377      0.2377      0.7120
   2499.5000      1.2593      0.7158      2.3588      0.2842      0.1708      0.4059      0.4793      1.2593      1.5517      1.2458    -18.9340    -67.2318      1.2458    -38.6963    -25.2453      0.1217      0.2434      0.2434      0.7158
   2500.0000      1.2538      0.7214      2.3861      0.2786      0.1704      0.4046      0.4770      1.2538      1.5963      1.2250    -18.3612    -67.2368      1.2250    -38.1351    -24.4817      0.1260      0.2519      0.2519      0.7214
   2500.5000      1.2483      0.7259      2.4081      0.2741      0.1700      0.4035      0.4751      1.2483      1.6334      1.2148    -17.9009    -67.2418      1.2148    -37.6863    -23.8679      0.1294      0.2588      0.2588      0.7259
   2501.0000      1.2427      0.7082      2.3221      0.2918      0.1713      0.4077      0.4824      1.2427      1.4941      1.2048    -19.7120    -67.2467      1.2048    -39.5089    -26.2826      0.1159      0.2319      0.2319      0.7082
   2501.5000      1.2417      0.6935      2.2505      0.3065      0.1724      0.4112      0.4884      1.2417      1.3896      1.1951    -21.2173    -67.2517      1.1951    -41.0258    -28.2898      0.1048      0.2095      0.2095      0.6935
   2502.0000      1.2407      0.6853      2.2105      0.3147      0.1730      0.4132      0.4918      1.2407      1.3351      1.1855    -22.0621    -67.2567      1.1855    -41.8821    -29.4162      0.0985      0.1970      0.1970      0.6566
   2502.5000      1.2398      0.6811      2.1899      0.3189      0.1734      0.4142      0.4935      1.2398      1.3082      1.1781    -22.4967    -67.2616      1.1781    -42.3282    -29.9956      0.0953      0.1905      0.1905      0.6351
   2503.0000      1.2389      0.6811      2.1899      0.3189      0.1734      0.4142      0.4935      1.2389      1.3082      1.1730    -22.5002    -67.2666      1.1730    -42.3432    -30.0002      0.0953      0.1905      0.1905      0.6350
   2503.5000      1.2379      0.6849      2.2083      0.3151      0.1731      0.4133      0.4919      1.2379      1.3321      1.1678    -22.1161    -67.2715      1.1678    -41.9707    -29.4882      0.0981      0.1962      0.1962      0.6541
   2504.0000      1.2370      0.6908      2.2370      0.3092      0.1726      0.4118      0.4895      1.2370      1.3707      1.1613    -21.5152    -67.2765      1.1613    -41.3813    -28.6870      0.1026      0.2052      0.2052      0.6840
   2504.5000      1.2360      0.7000      2.2817      0.3000      0.1719      0.4096      0.4857      1.2360      1.4338      1.1566    -20.5757    -67.2815      1.1566    -40.4534    -27.4343      0.1096      0.2192      0.2192      0.7000
   2505.0000      1.2254      0.7116      2.3382      0.2884      0.1711      0.4068      0.4810      1.2254      1.5188      1.1742    -19.3910    -67.2864      1.1742    -39.2801    -25.8546      0.1184      0.2368      0.2368      0.7116
   2505.5000      1.2341      0.7283      2.4196      0.2717      0.1698      0.4028      0.4741      1.2341      1.6529      1.1922    -17.6817    -67.2914      1.1922    -37.5824    -23.5756      0.1311      0.2622      0.2622      0.7283
