~V
VERS. 2.00: Ver 2.00
WRAP.   NO:        
~W
 STRT.FT 670:
 STOP.FT 4300:
 STEP.FT 0.5:
 NULL. -999.250000:
 COMP. Shell (SWEPI, Cal Resources):Company
 WELL. SAN EMIDIO 1A #8-32:Well
 FLD. :Field
 LOC. S32 T11N R22W:Location
 STAT. CA:State
 SRVC. :Service Company
 SON. :Service Order #
 DATE. :Log Date
 UWI. :Unique Well ID
~C
 DEPT.FT :
 LN.OHMM :
 LTHE. :
 MM. :
 PHES. :
 PHMX. :
 PHTS. :
 PHZC. :
 RD.OHMM :
 ROS. :
 RS.OHMM :
 SBL.MV :
 SCLN. :
 SN.OHMM :
 SP.MV :
 SPN. :
 VCDS. :
 VCLY. :
 VCWS. :
 VSHS. :
~P
~A
# ...
   2217.0000      1.5433      0.7977      2.7128      0.2023      0.1653      0.3912      0.4493      1.5433      2.3300      2.3010     -9.4945    -64.4286      2.3010    -22.7424    -12.6594      0.1888      0.3776      0.3776      0.7977
   2217.5000      1.5250      0.7995      2.7140      0.2005      0.1652      0.3907      0.4485      1.5250      2.3371      2.2947     -9.3174    -64.4335      2.2947    -22.5768    -12.4232      0.1902      0.3804      0.3804      0.7995
   2218.0000      1.5157      0.8050      2.7178      0.1950      0.1648      0.3893      0.4463      1.5157      2.3584      2.2892     -8.7891    -64.4385      2.2892    -22.0600    -11.7188      0.1943      0.3886      0.3886      0.8050
   2218.5000      1.5120      0.8137      2.7238      0.1863      0.1641      0.3872      0.4427      1.5120      2.3930      2.2837     -7.9481    -64.4434      2.2837    -21.2306    -10.5974      0.2008      0.4017      0.4017      0.8137
   2219.0000      1.5083      0.8204      2.7285      0.1796      0.1636      0.3855      0.4400      1.5083      2.4205      2.2699     -7.2949    -64.4484      2.2699    -20.5889     -9.7265      0.2059      0.4118      0.4118      0.8204
   2219.5000      1.5043      0.8262      2.7325      0.1738      0.1632      0.3840      0.4376      1.5043      2.4445      2.2546     -6.7357    -64.4534      2.2546    -20.0412     -8.9809      0.2102      0.4205      0.4205      0.8262
   2220.0000      1.5085      0.8312      2.7360      0.1688      0.1628      0.3828      0.4356      1.5085      2.4655      2.2418     -6.2553    -64.4583      2.2418    -19.5724     -8.3404      0.2140      0.4280      0.4280      0.8312
   2220.5000      1.5131      0.8347      2.7384      0.1653      0.1626      0.3819      0.4342      1.5131      2.4803      2.2297     -5.9191    -64.4633      2.2297    -19.2477     -7.8921      0.2166      0.4332      0.4332      0.8347
   2221.0000      1.5176      0.8378      2.7405      0.1622      0.1624      0.3811      0.4329      1.5176      2.4935      2.2169     -5.6223    -64.4682      2.2169    -18.9624     -7.4964      0.2189      0.4378      0.4378      0.8378
   2221.5000      1.5222      0.8401      2.7421      0.1599      0.1622      0.3805      0.4320      1.5222      2.5035      2.1931     -5.4006    -64.4732      2.1931    -18.7523     -7.2008      0.2206      0.4412      0.4412      0.8401
   2222.0000      1.5267      0.8239      2.7309      0.1761      0.1634      0.3846      0.4385      1.5267      2.4344      2.1694     -6.9689    -64.4782      2.1694    -20.3321     -9.2919      0.2085      0.4169      0.4169      0.8239
   2222.5000      1.5300      0.8134      2.7236      0.1866      0.1641      0.3872      0.4428      1.5300      2.3913      2.1316     -7.9865    -64.4831      2.1316    -21.3612    -10.6487      0.2006      0.4011      0.4011      0.8134
   2223.0000      1.5322      0.8095      2.7209      0.1905      0.1644      0.3881      0.4444      1.5322      2.3757      2.0894     -8.3634    -64.4881      2.0894    -21.7496    -11.1512      0.1977      0.3953      0.3953      0.8095
   2223.5000      1.5345      0.8103      2.7215      0.1897      0.1644      0.3879      0.4440      1.5345      2.3788      2.0232     -8.2877    -64.4931      2.0232    -21.6854    -11.0502      0.1982      0.3965      0.3965      0.8103
   2224.0000      1.5367      0.8111      2.7220      0.1889      0.1643      0.3877      0.4437      1.5367      2.3816      1.9559     -8.2196    -64.4980      1.9559    -21.6289    -10.9595      0.1988      0.3976      0.3976      0.8111
   2224.5000      1.5389      0.8119      2.7225      0.1881      0.1643      0.3875      0.4434      1.5389      2.3847      1.8795     -8.1444    -64.5030      1.8795    -21.5652    -10.8592      0.1994      0.3987      0.3987      0.8119
   2225.0000      1.5411      0.8126      2.7230      0.1874      0.1642      0.3873      0.4431      1.5411      2.3874      1.8198     -8.0779    -64.5079      1.8198    -21.5103    -10.7705      0.1999      0.3998      0.3998      0.8126
   2225.5000      1.5426      0.8126      2.7230      0.1874      0.1642      0.3873      0.4431      1.5426      2.3877      1.7983     -8.0716    -64.5129      1.7983    -21.5155    -10.7621      0.1999      0.3999      0.3999      0.8126
   2226.0000      1.5390      0.8110      2.7219      0.1890      0.1643      0.3877      0.4437      1.5390      2.3810      1.7901     -8.2339    -64.5179      1.7901    -21.6893    -10.9785      0.1987      0.3974      0.3974      0.8110
   2226.5000      1.5363      0.7988      2.7134      0.2012      0.1652      0.3907      0.4487      1.5363      2.3329      1.7949     -9.4189    -64.5228      1.7949    -22.8859    -12.5586      0.1895      0.3790      0.3790      0.7988
   2227.0000      1.5336      0.7896      2.7070      0.2104      0.1659      0.3930      0.4524      1.5336      2.2976      1.8040    -10.3180    -64.5278      1.8040    -23.7965    -13.7573      0.1826      0.3651      0.3651      0.7896
   2227.5000      1.5309      0.7878      2.7057      0.2122      0.1660      0.3934      0.4532      1.5309      2.2907      1.8283    -10.4966    -64.5327      1.8283    -23.9867    -13.9955      0.1812      0.3623      0.3623      0.7878
   2228.0000      1.5282      0.8112      2.7220      0.1888      0.1643      0.3876      0.4436      1.5282      2.3813      1.8769     -8.2242    -64.5377      1.8769    -21.7257    -10.9656      0.1988      0.3976      0.3976      0.8112
   2228.5000      1.5268      0.8275      2.7333      0.1725      0.1631      0.3836      0.4370      1.5268      2.4482      1.9477     -6.6439    -64.5427      1.9477    -20.1570     -8.8586      0.2110      0.4221      0.4221      0.8275
   2229.0000      1.5591      0.8419      2.7433      0.1581      0.1620      0.3799      0.4312      1.5591      2.5101      2.0232     -5.2446    -64.5476      2.0232    -18.7692     -6.9928      0.2219      0.4437      0.4437      0.8419
   2229.5000      1.5813      0.8507      2.7494      0.1493      0.1614      0.3777      0.4276      1.5813      2.5492      2.1303     -4.1692    -64.5526      2.1303    -17.7053     -5.5589      0.2285      0.4569      0.4569      0.8507
   2230.0000      1.6034      0.8559      2.7529      0.1441      0.1610      0.3764      0.4255      1.6034      2.5723      2.2602     -3.4261    -64.5576      2.2602    -16.9738     -4.5682      0.2323      0.4646      0.4646      0.8559
   2230.5000      1.6295      0.8599      2.7557      0.1401      0.1607      0.3754      0.4238      1.6295      2.5910      2.3686     -2.8367    -64.5625      2.3686    -16.3959     -3.7822      0.2354      0.4707      0.4707      0.8599
   2231.0000      1.6760      0.8629      2.7577      0.1371      0.1605      0.3747      0.4226      1.6760      2.6045      2.2651     -2.4143    -64.5675      2.2651    -15.9851     -3.2191      0.2375      0.4751      0.4751      0.8629
   2231.5000      1.7226      0.8569      2.7536      0.1431      0.1609      0.3762      0.4251      1.7226      2.5766      2.1499     -3.2857    -64.5724      2.1499    -16.8680     -4.3810      0.2330      0.4661      0.4661      0.8569
   2232.0000      1.7692      0.8480      2.7474      0.1520      0.1616      0.3784      0.4286      1.7692      2.5365      2.0794     -4.5735    -64.5774      2.0794    -18.1673     -6.0980      0.2264      0.4528      0.4528      0.8480
   2232.5000      1.8158      0.8400      2.7419      0.1600      0.1622      0.3804      0.4319      1.8158      2.5011      2.0517     -5.4415    -64.5824      2.0517    -19.0469     -7.2554      0.2204      0.4407      0.4407      0.8400
   2233.0000      1.8604      0.8357      2.7389      0.1643      0.1625      0.3814      0.4336      1.8604      2.4824      2.0425     -5.8577    -64.5873      2.0425    -19.4745     -7.8102      0.2172      0.4343      0.4343      0.8357
   2233.5000      1.9012      0.8350      2.7384      0.1650      0.1625      0.3816      0.4339      1.9012      2.4794      2.0357     -5.9261    -64.5923      2.0357    -19.5545     -7.9014      0.2166      0.4333      0.4333      0.8350
