~V
VERS. 2.00: Ver 2.00
WRAP.   NO:        
~W
 STRT.FT 670:
 STOP.FT 4300:
 STEP.FT 0.5:
 NULL. -999.250000:
 COMP. Shell (SWEPI, Cal Resources):Company
 WELL. SAN EMIDIO 1A #8-32:Well
 FLD. :Field
 LOC. S32 T11N R22W:Location
 STAT. CA:State
 SRVC. :Service Company
 SON. :Service Order #
 DATE. :Log Date
 UWI. :Unique Well ID
~C
 DEPT.FT :
 LN.OHMM :
 LTHE. :
 MM. :
 PHES. :
 PHMX. :
 PHTS. :
 PHZC. :
 RD.OHMM :
 ROS. :
 RS.OHMM :
 SBL.MV :
 SCLN. :
 SN.OHMM :
 SP.MV :
 SPN. :
 VCDS. :
 VCLY. :
 VCWS. :
 VSHS. :
~P
~A
# ...
   1690.0000      1.7908      0.6879      2.3191      0.3121      0.1746      0.4276      0.5005      1.7908      1.5376      2.2338    -17.4063    -59.1990      2.2338    -18.5017    -23.2085      0.1155      0.2310      0.2310      0.6879
   1690.5000      2.0804      0.6946      2.3517      0.3054      0.1741      0.4260      0.4977      2.0804      1.5893      2.7582    -16.8052    -59.2040      2.7582    -17.9120    -22.4069      0.1206      0.2411      0.2411      0.6946
   1691.0000      2.0209      0.7009      2.3824      0.2991      0.1737      0.4244      0.4951      2.0209      1.6400      3.2696    -16.2389    -59.2090      3.2696    -17.3573    -21.6518      0.1254      0.2507      0.2507      0.7009
   1691.5000      1.9696      0.7063      2.4085      0.2937      0.1733      0.4231      0.4929      1.9696      1.6848      3.5712    -15.7569    -59.2139      3.5712    -16.8868    -21.0092      0.1294      0.2589      0.2589      0.7063
   1692.0000      1.9729      0.7111      2.4319      0.2889      0.1729      0.4220      0.4909      1.9729      1.7262      3.6917    -15.3252    -59.2189      3.6917    -16.4666    -20.4335      0.1331      0.2662      0.2662      0.7111
   1692.5000      1.9822      0.7160      2.4555      0.2840      0.1725      0.4208      0.4889      1.9822      1.7692      3.3464    -14.8901    -59.2238      3.3464    -16.0431    -19.8535      0.1368      0.2736      0.2736      0.7160
   1693.0000      2.0541      0.7203      2.4763      0.2797      0.1722      0.4197      0.4871      2.0541      1.8084      2.6281    -14.5050    -59.2288      2.6281    -15.6695    -19.3400      0.1401      0.2801      0.2801      0.7203
   1693.5000      2.2048      0.7246      2.4972      0.2754      0.1719      0.4187      0.4854      2.2048      1.8488      2.3480    -14.1199    -59.2338      2.3480    -15.2960    -18.8266      0.1433      0.2866      0.2866      0.7246
   1694.0000      2.2760      0.7264      2.5058      0.2736      0.1717      0.4182      0.4846      2.2760      1.8656      2.2273    -13.9625    -59.2387      2.2273    -15.1501    -18.6167      0.1447      0.2893      0.2893      0.7264
   1694.5000      2.1547      0.7095      2.4236      0.2905      0.1730      0.4223      0.4915      2.1547      1.7111      2.1512    -15.4853    -59.2437      2.1512    -16.6844    -20.6470      0.1318      0.2636      0.2636      0.7095
   1695.0000      2.0296      0.6977      2.3660      0.3023      0.1739      0.4252      0.4964      2.0296      1.6123      1.5121    -16.5531    -59.2487      1.5121    -17.7637    -22.0708      0.1228      0.2456      0.2456      0.6977
   1695.5000      1.9021      0.6865      2.3116      0.3135      0.1747      0.4278      0.5010      1.9021      1.5256      1.3122    -17.5606    -59.2536      1.3122    -18.7828    -23.4142      0.1143      0.2286      0.2286      0.6865
   1696.0000      1.7926      0.6759      2.2601      0.3241      0.1755      0.4304      0.5053      1.7926      1.4487      1.1606    -18.5164    -59.2586      1.1606    -19.7501    -24.6885      0.1063      0.2125      0.2125      0.6759
   1696.5000      1.6912      0.6663      2.2133      0.3337      0.1762      0.4326      0.5092      1.6912      1.3831      1.1185    -19.3845    -59.2635      1.1185    -20.6297    -25.8460      0.0990      0.1979      0.1979      0.6597
   1697.0000      1.6127      0.6589      2.1772      0.3411      0.1768      0.4344      0.5123      1.6127      1.3351      1.1453    -20.0553    -59.2685      1.1453    -21.3120    -26.7403      0.0933      0.1866      0.1866      0.6221
   1697.5000      1.5454      0.6556      2.1608      0.3444      0.1770      0.4352      0.5136      1.5454      1.3140      1.1969    -20.3596    -59.2735      1.1969    -21.6279    -27.1461      0.0908      0.1815      0.1815      0.6050
   1698.0000      1.4948      0.6658      2.2107      0.3342      0.1763      0.4327      0.5094      1.4948      1.3795      1.2580    -19.4381    -59.2784      1.2580    -20.7179    -25.9174      0.0985      0.1971      0.1971      0.6570
   1698.5000      1.4671      0.6763      2.2618      0.3237      0.1755      0.4302      0.5051      1.4671      1.4510      1.3270    -18.4923    -59.2834      1.3270    -19.7837    -24.6564      0.1065      0.2131      0.2131      0.6763
   1699.0000      1.4537      0.6854      2.3059      0.3146      0.1748      0.4280      0.5014      1.4537      1.5165      1.4183    -17.6777    -59.2883      1.4183    -18.9805    -23.5702      0.1134      0.2268      0.2268      0.6854
   1699.5000      1.4403      0.6937      2.3461      0.3063      0.1742      0.4260      0.4980      1.4403      1.5796      1.5152    -16.9333    -59.2933      1.5152    -18.2477    -22.5777      0.1197      0.2394      0.2394      0.6937
   1700.0000      1.4315      0.7004      2.3787      0.2996      0.1737      0.4244      0.4952      1.4315      1.6330      1.5765    -16.3320    -59.2983      1.5765    -17.6580    -21.7760      0.1248      0.2496      0.2496      0.7004
   1700.5000      1.4271      0.7060      2.4057      0.2940      0.1733      0.4231      0.4929      1.4271      1.6791      1.6122    -15.8329    -59.3032      1.6122    -17.1703    -21.1105      0.1290      0.2580      0.2580      0.7060
   1701.0000      1.4227      0.7107      2.4286      0.2893      0.1729      0.4219      0.4910      1.4227      1.7195      1.6058    -15.4091    -59.3082      1.6058    -16.7581    -20.5455      0.1326      0.2652      0.2652      0.7107
   1701.5000      1.4222      0.7134      2.4419      0.2866      0.1727      0.4212      0.4898      1.4222      1.7435      1.5822    -15.1640    -59.3132      1.5822    -16.5245    -20.2186      0.1347      0.2693      0.2693      0.7134
   1702.0000      1.4215      0.7140      2.4446      0.2860      0.1727      0.4211      0.4896      1.4215      1.7483      1.5609    -15.1157    -59.3181      1.5609    -16.4878    -20.1543      0.1351      0.2702      0.2702      0.7140
   1702.5000      1.4379      0.6928      2.3417      0.3072      0.1742      0.4262      0.4983      1.4379      1.5723      1.5844    -17.0233    -59.3231      1.5844    -18.4069    -22.6977      0.1190      0.2380      0.2380      0.6928
   1703.0000      1.4632      0.6849      2.3028      0.3151      0.1748      0.4281      0.5015      1.4632      1.5115      1.6650    -17.7465    -59.3280      1.6650    -19.1416    -23.6619      0.1129      0.2259      0.2259      0.6849
   1703.5000      1.4886      0.6798      2.2782      0.3202      0.1752      0.4293      0.5036      1.4886      1.4746      1.8209    -18.2043    -59.3330      1.8209    -19.6109    -24.2723      0.1091      0.2182      0.2182      0.6798
   1704.0000      1.5159      0.6810      2.2839      0.3190      0.1751      0.4290      0.5031      1.5159      1.4830      2.0068    -18.0992    -59.3380      2.0068    -19.5174    -24.1323      0.1100      0.2200      0.2200      0.6810
   1704.5000      1.5434      0.6919      2.3367      0.3081      0.1743      0.4264      0.4987      1.5434      1.5640      2.1375    -17.1231    -59.3429      2.1375    -18.5528    -22.8308      0.1182      0.2365      0.2365      0.6919
   1705.0000      1.5790      0.7081      2.4153      0.2919      0.1731      0.4225      0.4920      1.5790      1.6956      2.1752    -15.6658    -59.3479      2.1752    -17.1071    -20.8877      0.1305      0.2610      0.2610      0.7081
   1705.5000      1.6282      0.7210      2.4781      0.2790      0.1721      0.4193      0.4867      1.6282      1.8108      2.1347    -14.5018    -59.3529      2.1347    -15.9546    -19.3358      0.1403      0.2807      0.2807      0.7210
   1706.0000      1.6966      0.7279      2.5117      0.2721      0.1716      0.4176      0.4839      1.6966      1.8763      2.0898    -13.8801    -59.3578      2.0898    -15.3444    -18.5068      0.1456      0.2912      0.2912      0.7279
   1706.5000      1.7752      0.7298      2.5208      0.2702      0.1715      0.4172      0.4831      1.7752      1.8945      2.0542    -13.7135    -59.3628      2.0542    -15.1894    -18.2847      0.1470      0.2940      0.2940      0.7298
