~V
VERS. 2.00: Ver 2.00
WRAP.   NO:        
~W
 STRT.FT 670:
 STOP.FT 4300:
 STEP.FT 0.5:
 NULL. -999.250000:
 COMP. Shell (SWEPI, Cal Resources):Company
 WELL. SAN EMIDIO 1A #8-32:Well
 FLD. :Field
 LOC. S32 T11N R22W:Location
 STAT. CA:State
 SRVC. :Service Company
 SON. :Service Order #
 DATE. :Log Date
 UWI. :Unique Well ID
~C
 DEPT.FT :
 LN.OHMM :
 LTHE. :
 MM. :
 PHES. :
 PHMX. :
 PHTS. :
 PHZC. :
 RD.OHMM :
 ROS. :
 RS.OHMM :
 SBL.MV :
 SCLN. :
 SN.OHMM :
 SP.MV :
 SPN. :
 VCDS. :
 VCLY. :
 VCWS. :
 VSHS. :
~P
~A
# ...
   2625.0000      1.1907      0.7390      2.4668      0.2610      0.1688      0.3980      0.4683      1.1907      1.7306      1.1135    -17.1876    -68.4772      1.1135    -39.8440    -22.9169      0.1370      0.2740      0.2740      0.7390
   2625.5000      1.1871      0.7236      2.3922      0.2764      0.1699      0.4017      0.4746      1.1871      1.5995      1.1102    -18.7861    -68.4822      1.1102    -41.4539    -25.0481      0.1253      0.2507      0.2507      0.7236
   2626.0000      1.1835      0.7092      2.3220      0.2908      0.1710      0.4052      0.4805      1.1835      1.4875      1.1069    -20.2909    -68.4871      1.1069    -42.9703    -27.0545      0.1144      0.2287      0.2287      0.7092
   2626.5000      1.1799      0.6984      2.2697      0.3016      0.1718      0.4077      0.4849      1.1799      1.4103      1.1037    -21.4135    -68.4921      1.1037    -44.1044    -28.5513      0.1062      0.2124      0.2124      0.6984
   2627.0000      1.1763      0.6868      2.2128      0.3132      0.1727      0.4105      0.4897      1.1763      1.3322      1.1004    -22.6338    -68.4971      1.1004    -45.3362    -30.1784      0.0973      0.1946      0.1946      0.6486
   2627.5000      1.1727      0.6767      2.1639      0.3233      0.1734      0.4129      0.4938      1.1727      1.2695      1.0971    -23.6821    -68.5020      1.0971    -46.3961    -31.5761      0.0896      0.1793      0.1793      0.5976
   2628.0000      1.1690      0.6729      2.1449      0.3271      0.1737      0.4138      0.4954      1.1690      1.2462      1.0938    -24.0909    -68.5070      1.0938    -46.8164    -32.1212      0.0867      0.1733      0.1733      0.5778
   2628.5000      1.1654      0.6717      2.1394      0.3283      0.1738      0.4141      0.4958      1.1654      1.2395      1.0905    -24.2117    -68.5119      1.0905    -46.9487    -32.2822      0.0858      0.1716      0.1716      0.5720
   2629.0000      1.1626      0.6761      2.1608      0.3239      0.1735      0.4130      0.4940      1.1626      1.2656      1.0873    -23.7555    -68.5169      1.0873    -46.5041    -31.6740      0.0891      0.1783      0.1783      0.5943
   2629.5000      1.1662      0.6842      2.2000      0.3158      0.1729      0.4111      0.4907      1.1662      1.3154      1.0840    -22.9190    -68.5219      1.0840    -45.6791    -30.5587      0.0953      0.1905      0.1905      0.6351
   2630.0000      1.1691      0.6886      2.2216      0.3114      0.1725      0.4100      0.4889      1.1691      1.3438      1.0792    -22.4597    -68.5268      1.0792    -45.2313    -29.9462      0.0986      0.1972      0.1972      0.6575
   2630.5000      1.1720      0.6896      2.2264      0.3104      0.1724      0.4098      0.4885      1.1720      1.3503      1.0834    -22.3593    -68.5318      1.0834    -45.1424    -29.8123      0.0994      0.1987      0.1987      0.6625
   2631.0000      1.1749      0.6860      2.2088      0.3140      0.1727      0.4106      0.4899      1.1749      1.3268      1.0915    -22.7384    -68.5367      1.0915    -45.5331    -30.3178      0.0966      0.1932      0.1932      0.6441
   2631.5000      1.1778      0.6826      2.1921      0.3174      0.1730      0.4114      0.4913      1.1778      1.3050      1.0996    -23.0991    -68.5417      1.0996    -45.9053    -30.7988      0.0940      0.1880      0.1880      0.6266
   2632.0000      1.1807      0.6807      2.1831      0.3193      0.1731      0.4119      0.4921      1.1807      1.2935      1.1077    -23.2937    -68.5467      1.1077    -46.1114    -31.0583      0.0926      0.1852      0.1852      0.6173
   2632.5000      1.1836      0.6808      2.1836      0.3192      0.1731      0.4118      0.4921      1.1836      1.2941      1.1158    -23.2866    -68.5516      1.1158    -46.1158    -31.0487      0.0927      0.1853      0.1853      0.6177
   2633.0000      1.1865      0.6818      2.1886      0.3182      0.1730      0.4116      0.4916      1.1865      1.3004      1.1238    -23.1818    -68.5566      1.1238    -46.0226    -30.9090      0.0934      0.1869      0.1869      0.6229
   2633.5000      1.1894      0.6848      2.2028      0.3152      0.1728      0.4109      0.4904      1.1894      1.3188      1.1319    -22.8803    -68.5616      1.1319    -45.7326    -30.5070      0.0956      0.1913      0.1913      0.6376
   2634.0000      1.1879      0.6913      2.2347      0.3087      0.1723      0.4093      0.4877      1.1879      1.3613      1.1400    -22.1986    -68.5665      1.1400    -45.0625    -29.5982      0.1006      0.2012      0.2012      0.6708
   2634.5000      1.1865      0.7004      2.2789      0.2996      0.1716      0.4071      0.4840      1.1865      1.4232      1.1481    -21.2535    -68.5715      1.1481    -44.1289    -28.3380      0.1075      0.2151      0.2151      0.7004
   2635.0000      1.1851      0.7093      2.3221      0.2907      0.1710      0.4050      0.4803      1.1851      1.4872      1.1562    -20.3302    -68.5764      1.1562    -43.2171    -27.1069      0.1143      0.2285      0.2285      0.7093
   2635.5000      1.1837      0.7202      2.3751      0.2798      0.1702      0.4024      0.4758      1.1837      1.5707      1.1642    -19.1977    -68.5814      1.1642    -42.0961    -25.5969      0.1225      0.2451      0.2451      0.7202
   2636.0000      1.1823      0.7283      2.4147      0.2717      0.1695      0.4004      0.4725      1.1823      1.6371      1.1723    -18.3501    -68.5864      1.1723    -41.2601    -24.4669      0.1287      0.2575      0.2575      0.7283
   2636.5000      1.1809      0.7354      2.4490      0.2646      0.1690      0.3987      0.4696      1.1809      1.6974      1.1804    -17.6179    -68.5913      1.1804    -40.5395    -23.4906      0.1341      0.2681      0.2681      0.7354
   2637.0000      1.1794      0.7370      2.4568      0.2630      0.1689      0.3983      0.4689      1.1794      1.7116      1.1885    -17.4520    -68.5963      1.1885    -40.3850    -23.2693      0.1353      0.2706      0.2706      0.7370
   2637.5000      1.1778      0.7334      2.4391      0.2666      0.1692      0.3991      0.4704      1.1778      1.6797      1.1966    -17.8344    -68.6012      1.1966    -40.7790    -23.7793      0.1325      0.2650      0.2650      0.7334
   2638.0000      1.1622      0.7260      2.4035      0.2740      0.1697      0.4009      0.4734      1.1622      1.6178      1.2062    -18.6002    -68.6062      1.2062    -41.5563    -24.8002      0.1269      0.2539      0.2539      0.7260
   2638.5000      1.1465      0.7075      2.3132      0.2925      0.1711      0.4054      0.4810      1.1465      1.4735      1.2012    -20.5378    -68.6112      1.2012    -43.5054    -27.3837      0.1128      0.2257      0.2257      0.7075
   2639.0000      1.1308      0.6971      2.2625      0.3029      0.1719      0.4078      0.4853      1.1308      1.3997      1.1949    -21.6266    -68.6161      1.1949    -44.6057    -28.8354      0.1049      0.2098      0.2098      0.6971
   2639.5000      1.1152      0.6988      2.2709      0.3012      0.1717      0.4074      0.4846      1.1152      1.4115      1.1887    -21.4498    -68.6211      1.1887    -44.4405    -28.5997      0.1062      0.2124      0.2124      0.6988
   2640.0000      1.0995      0.7047      2.2994      0.2953      0.1713      0.4060      0.4822      1.0995      1.4529      1.1824    -20.8405    -68.6261      1.1824    -43.8427    -27.7874      0.1107      0.2213      0.2213      0.7047
   2640.5000      1.0838      0.7098      2.3244      0.2902      0.1709      0.4048      0.4801      1.0838      1.4903      1.1762    -20.3079    -68.6310      1.1762    -43.3217    -27.0772      0.1145      0.2291      0.2291      0.7098
   2641.0000      1.0684      0.7076      2.3135      0.2924      0.1711      0.4053      0.4810      1.0684      1.4739      1.1700    -20.5427    -68.6360      1.1700    -43.5680    -27.3902      0.1129      0.2257      0.2257      0.7076
   2641.5000      1.0637      0.7055      2.3033      0.2945      0.1712      0.4058      0.4818      1.0637      1.4586      1.1635    -20.7637    -68.6409      1.1635    -43.8006    -27.6850      0.1113      0.2225      0.2225      0.7055
