~V
VERS. 2.00: Ver 2.00
WRAP.   NO:        
~W
 STRT.FT 670:
 STOP.FT 4300:
 STEP.FT 0.5:
 NULL. -999.250000:
 COMP. Shell (SWEPI, Cal Resources):Company
 WELL. SAN EMIDIO 1A #8-32:Well
 FLD. :Field
 LOC. S32 T11N R22W:Location
 STAT. CA:State
 SRVC. :Service Company
 SON. :Service Order #
 DATE. :Log Date
 UWI. :Unique Well ID
~C
 DEPT.FT :
 LN.OHMM :
 LTHE. :
 MM. :
 PHES. :
 PHMX. :
 PHTS. :
 PHZC. :
 RD.OHMM :
 ROS. :
 RS.OHMM :
 SBL.MV :
 SCLN. :
 SN.OHMM :
 SP.MV :
 SPN. :
 VCDS. :
 VCLY. :
 VCWS. :
 VSHS. :
~P
~A
# ...
   1282.0000      5.2996   -999.2500   -999.2500   -999.2500   -999.2500   -999.2500   -999.2500      5.2996   -999.2500      5.3840    -13.8718   -999.2500      5.3840    -19.9416    -18.4958   -999.2500   -999.2500   -999.2500   -999.2500
   1282.5000      4.5207   -999.2500   -999.2500   -999.2500   -999.2500   -999.2500   -999.2500      4.5207   -999.2500      4.4044    -11.6445   -999.2500      4.4044    -17.7109    -15.5260   -999.2500   -999.2500   -999.2500   -999.2500
   1283.0000      3.8829      1.6982      2.7736      0.0000   -999.2500      0.2649      0.2762      3.8829   -999.2500      3.7176     -8.9196    -43.6923      3.7176    -14.9826    -11.8928      0.2445      0.5095      0.5095      1.6982
   1283.5000      3.4114      1.8652      2.7967      0.0000   -999.2500      0.2910      0.2712      3.4114   -999.2500      3.2310     -6.6549    -44.2308      3.2310    -12.7147     -8.8732      0.2686      0.5596      0.5596      1.8652
   1284.0000      3.0532      1.9518      2.8087      0.0000   -999.2500      0.2939      0.2686      3.0532   -999.2500      2.8488     -5.4900    -44.7692      2.8488    -11.5464     -7.3199      0.2811      0.5855      0.5750      1.9518
   1284.5000      2.7660      1.9778      2.8123      0.0000   -999.2500      0.2934      0.2678      2.7660   -999.2500      2.5601     -5.1779    -45.3077      2.5601    -11.2311     -6.9039      0.2848      0.5933      0.5782      1.9778
   1285.0000      2.5226      1.9945      2.8146      0.0000   -999.2500      0.2932      0.2673      2.5226   -999.2500      2.3379     -4.9938    -45.8461      2.3379    -11.0436     -6.6584      0.2872      0.5983      0.5804      1.9945
   1285.5000      2.3448      2.0100      2.8168      0.0000   -999.2500      0.2929      0.2668      2.3448   -999.2500      2.1442     -4.8202    -46.3846      2.1442    -10.8667     -6.4270      0.2894      0.6030      0.5823      2.0100
   1286.0000      2.1819      2.0222      2.8185      0.0000   -999.2500      0.2927      0.2665      2.1819   -999.2500      2.0260     -4.6925    -46.9231      2.0260    -10.7357     -6.2567      0.2912      0.6067      0.5839      2.0222
   1286.5000      2.0377      2.0339      2.8201      0.0000   -999.2500      0.2925      0.2661      2.0377   -999.2500      1.9594     -4.5674    -47.4615      1.9594    -10.6072     -6.0898      0.2929      0.6102      0.5854      2.0339
   1287.0000      1.9542      2.0447      2.8216      0.0000   -999.2500      0.2923      0.2658      1.9542   -999.2500      1.9218     -4.4538    -48.0000      1.9218    -10.4903     -5.9384      0.2944      0.6134      0.5867      2.0447
   1287.5000      1.8967      2.0522      2.8226      0.0000   -999.2500      0.2921      0.2656      1.8967   -999.2500      1.9993     -4.3386    -48.0043      1.9993    -10.3718     -5.7847      0.2955      0.6156      0.5877      2.0522
   1288.0000      1.8601      2.0597      2.8236      0.0000   -999.2500      0.2920      0.2653      1.8601   -999.2500      2.1113     -4.2228    -48.0086      2.1113    -10.2527     -5.6305      0.2966      0.6179      0.5886      2.0597
   1288.5000      1.8448      2.0660      2.8245      0.0000   -999.2500      0.2919      0.2651      1.8448   -999.2500      2.2921     -4.1259    -48.0129      2.2921    -10.1524     -5.5012      0.2975      0.6198      0.5894      2.0660
   1289.0000      1.8295      2.0714      2.8253      0.0000   -999.2500      0.2918      0.2650      1.8295   -999.2500      2.4719     -4.0433    -48.0173      2.4719    -10.0665     -5.3911      0.2983      0.6214      0.5901      2.0714
   1289.5000      1.8142      2.0772      2.8261      0.0000   -999.2500      0.2917      0.2648      1.8142   -999.2500      2.5697     -3.9539    -48.0216      2.5697     -9.9739     -5.2719      0.2991      0.6232      0.5908      2.0772
   1290.0000      1.8000      2.0832      2.8269      0.0000   -999.2500      0.2916      0.2646      1.8000   -999.2500      2.5966     -3.8611    -48.0259      2.5966     -9.8777     -5.1482      0.3000      0.6250      0.5916      2.0832
   1290.5000      1.7995      2.0876      2.8275      0.0000   -999.2500      0.2915      0.2645      1.7995   -999.2500      2.5569     -3.7930    -48.0302      2.5569     -9.8063     -5.0574      0.3006      0.6263      0.5921      2.0876
   1291.0000      1.8218      2.0894      2.8278      0.0000   -999.2500      0.2915      0.2644      1.8218   -999.2500      2.5005     -3.7658    -48.0345      2.5005     -9.7758     -5.0211      0.3009      0.6268      0.5924      2.0894
   1291.5000      1.8520      2.0869      2.8274      0.0000   -999.2500      0.2915      0.2645      1.8520   -999.2500      2.4659     -3.8057    -48.0388      2.4659     -9.8123     -5.0743      0.3005      0.6261      0.5920      2.0869
   1292.0000      1.9011      2.0772      2.8261      0.0000   -999.2500      0.2917      0.2648      1.9011   -999.2500      2.4655     -3.9557    -48.0431      2.4655     -9.9591     -5.2743      0.2991      0.6232      0.5908      2.0772
   1292.5000      1.9503      2.0535      2.8228      0.0000   -999.2500      0.2921      0.2655      1.9503   -999.2500      2.4651     -4.3213    -48.0475      2.4651    -10.3213     -5.7617      0.2957      0.6161      0.5878      2.0535
   1293.0000      2.0217      2.0093      2.8167      0.0000   -999.2500      0.2928      0.2668      2.0217   -999.2500      2.4648     -5.0051    -48.0518      2.4648    -10.9851     -6.6735      0.2893      0.6028      0.5822      2.0093
   1293.5000      2.0967      1.9441      2.8076      0.0000   -999.2500      0.2939      0.2687      2.0967   -999.2500      2.7079     -6.0121    -48.0561      2.7079    -11.9721     -8.0161      0.2800      0.5832      0.5739      1.9441
   1294.0000      2.1738      1.8530      2.7950      0.0000   -999.2500      0.2891      0.2715      2.1738   -999.2500      2.9549     -7.4208    -48.0604      2.9549    -13.3608     -9.8945      0.2668      0.5559      0.5559      1.8530
   1294.5000      2.2515      1.7432      2.7798      0.0000   -999.2500      0.2719      0.2748      2.2515   -999.2500      3.2610     -9.1174    -48.0647      3.2610    -15.0374    -12.1566      0.2510      0.5230      0.5230      1.7432
   1295.0000      2.3224      1.6548      2.7676      0.0000   -999.2500      0.2582      0.2774      2.3224   -999.2500      3.5665    -10.4831    -48.0690      3.5665    -16.3831    -13.9775      0.2383      0.4965      0.4965      1.6548
   1295.5000      2.3914      1.5686      2.7556      0.0000   -999.2500      0.2447      0.2800      2.3914   -999.2500      3.7717    -11.8175    -48.0733      3.7717    -17.6975    -15.7567      0.2259      0.4706      0.4706      1.5686
   1296.0000      2.4570      1.6358      2.7650      0.0000   -999.2500      0.2552      0.2780      2.4570   -999.2500      3.8165    -10.7788    -48.0777      3.8165    -16.6388    -14.3718      0.2356      0.4907      0.4907      1.6358
   1296.5000      2.5227      1.7073      2.7749      0.0000   -999.2500      0.2663      0.2758      2.5227   -999.2500      3.5464     -9.6749    -48.0820      3.5464    -15.5149    -12.8999      0.2459      0.5122      0.5122      1.7073
   1297.0000      2.5829      1.7595      2.7821      0.0000   -999.2500      0.2745      0.2742      2.5829   -999.2500      3.2024     -8.8700    -48.0863      3.2024    -14.6900    -11.8266      0.2534      0.5278      0.5278      1.7595
   1297.5000      2.6353      1.7875      2.7860      0.0000   -999.2500      0.2788      0.2734      2.6353   -999.2500      2.9181     -8.4380    -48.0906      2.9181    -14.2380    -11.2507      0.2574      0.5362      0.5362      1.7875
   1298.0000      2.6696      1.7982      2.7874      0.0000   -999.2500      0.2805      0.2731      2.6696   -999.2500      2.6641     -8.2725    -48.0949      2.6641    -14.0525    -11.0300      0.2589      0.5395      0.5395      1.7982
   1298.5000      2.6507      1.8001      2.7877      0.0000   -999.2500      0.2808      0.2730      2.6507   -999.2500      2.5147     -8.2439    -48.0992      2.5147    -14.0039    -10.9919      0.2592      0.5400      0.5400      1.8001
