~V
VERS. 2.00: Ver 2.00
WRAP.   NO:        
~W
 STRT.FT 670:
 STOP.FT 4300:
 STEP.FT 0.5:
 NULL. -999.250000:
 COMP. Shell (SWEPI, Cal Resources):Company
 WELL. SAN EMIDIO 1A #8-32:Well
 FLD. :Field
 LOC. S32 T11N R22W:Location
 STAT. CA:State
 SRVC. :Service Company
 SON. :Service Order #
 DATE. :Log Date
 UWI. :Unique Well ID
~C
 DEPT.FT :
 LN.OHMM :
 LTHE. :
 MM. :
 PHES. :
 PHMX. :
 PHTS. :
 PHZC. :
 RD.OHMM :
 ROS. :
 RS.OHMM :
 SBL.MV :
 SCLN. :
 SN.OHMM :
 SP.MV :
 SPN. :
 VCDS. :
 VCLY. :
 VCWS. :
 VSHS. :
~P
~A
# ...
   3152.0000      6.3643      0.7447      2.4751      0.2553      0.1672      0.3870      0.4595      6.3643      1.7252      3.2826    -21.5014    -82.1991      3.2826    -38.2408    -28.6685      0.1317      0.2634      0.2634      0.7447
   3152.5000      6.3091      0.7487      2.4944      0.2513      0.1669      0.3860      0.4579      6.3091      1.7614      3.3271    -21.0145    -82.2250      3.3271    -37.7418    -28.0194      0.1347      0.2694      0.2694      0.7487
   3153.0000      6.1576      0.7489      2.4954      0.2511      0.1669      0.3859      0.4578      6.1576      1.7634      3.3444    -20.8764    -81.7853      3.3444    -37.5915    -27.8352      0.1349      0.2697      0.2697      0.7489
   3153.5000      5.9360      0.7534      2.5169      0.2466      0.1665      0.3848      0.4560      5.9360      1.8050      3.2117    -20.2197    -81.3456      3.2117    -36.9227    -26.9596      0.1382      0.2764      0.2764      0.7534
   3154.0000      5.6996      0.7619      2.5580      0.2381      0.1659      0.3828      0.4525      5.6996      1.8881      3.0990    -19.0721    -80.9059      3.0990    -35.7630    -25.4294      0.1446      0.2893      0.2893      0.7619
   3154.5000      5.5013      0.7701      2.5978      0.2299      0.1653      0.3808      0.4491      5.5013      1.9732      2.9522    -17.9692    -80.4662      2.9522    -34.6480    -23.9589      0.1508      0.3017      0.3017      0.7701
   3155.0000      5.3409      0.7763      2.6281      0.2237      0.1648      0.3792      0.4466      5.3409      2.0414      3.0075    -17.1136    -80.0265      3.0075    -33.7803    -22.8182      0.1556      0.3112      0.3112      0.7763
   3155.5000      5.2202      0.7804      2.6478      0.2196      0.1645      0.3782      0.4449      5.2202      2.0872      3.1048    -16.5306    -79.5868      3.1048    -33.1851    -22.0408      0.1586      0.3173      0.3173      0.7804
   3156.0000      5.2412      0.7827      2.6588      0.2173      0.1644      0.3777      0.4440      5.2412      2.1134      3.1862    -16.1686    -79.1470      3.1862    -32.8110    -21.5581      0.1604      0.3207      0.3207      0.7827
   3156.5000      5.2925      0.7795      2.6433      0.2205      0.1646      0.3784      0.4453      5.2925      2.0766      3.2498    -16.4605    -78.7073      3.2498    -33.0908    -21.9473      0.1579      0.3159      0.3159      0.7795
   3157.0000      5.3566      0.7731      2.6123      0.2269      0.1651      0.3800      0.4479      5.3566      2.0054      3.3057    -17.1281    -78.2676      3.3057    -33.7462    -22.8374      0.1531      0.3062      0.3062      0.7731
   3157.5000      5.4302      0.7635      2.5657      0.2365      0.1658      0.3823      0.4518      5.4302      1.9043      3.3409    -18.1644    -77.8279      3.3409    -34.7704    -24.2191      0.1458      0.2916      0.2916      0.7635
   3158.0000      5.4786      0.7515      2.5078      0.2485      0.1667      0.3852      0.4567      5.4786      1.7871      3.3538    -19.4644    -77.3882      3.3538    -36.0583    -25.9525      0.1367      0.2735      0.2735      0.7515
   3158.5000      5.5270      0.7395      2.4492      0.2605      0.1676      0.3881      0.4616      5.5270      1.6777      3.3213    -20.7643    -76.9485      3.3213    -37.3461    -27.6857      0.1276      0.2552      0.2552      0.7395
   3159.0000      5.5738      0.7292      2.3996      0.2708      0.1683      0.3906      0.4658      5.5738      1.5917      3.2911    -21.8325    -76.5088      3.2911    -38.4022    -29.1100      0.1198      0.2396      0.2396      0.7292
   3159.5000      5.6189      0.7191      2.3503      0.2809      0.1691      0.3930      0.4699      5.6189      1.5117      3.2568    -22.8793    -76.0691      3.2568    -39.4368    -30.5057      0.1121      0.2242      0.2242      0.7191
   3160.0000      5.6389      0.7110      2.3106      0.2890      0.1697      0.3949      0.4733      5.6389      1.4510      3.2226    -23.6861    -75.6294      3.2226    -40.2316    -31.5815      0.1059      0.2118      0.2118      0.7060
   3160.5000      5.6184      0.7235      2.3715      0.2765      0.1688      0.3919      0.4681      5.6184      1.5454      3.1869    -22.1188    -75.1897      3.1869    -38.6522    -29.4918      0.1154      0.2308      0.2308      0.7235
   3161.0000      5.2871      0.7446      2.4742      0.2554      0.1672      0.3868      0.4595      5.2871      1.7233      3.1485    -19.5905    -74.7500      3.1485    -36.1117    -26.1207      0.1315      0.2629      0.2629      0.7446
   3161.5000      4.6873      0.7795      2.6431      0.2205      0.1646      0.3783      0.4452      4.6873      2.0761      3.1050    -15.5547    -74.3103      3.1050    -32.0638    -20.7396      0.1578      0.3157      0.3157      0.7795
   3162.0000      4.1827      0.8292      2.7717      0.1708      0.1609      0.3661      0.4250      4.1827      2.4578      3.0601     -9.9271    -73.8705      3.0601    -26.4241    -13.2362      0.1953      0.3906      0.3906      0.8292
   3162.5000      3.8237      0.8687      2.7991      0.1313      0.1580      0.3563      0.4089      3.8237      2.6244      3.0163     -5.5116    -73.4308      3.0163    -21.9964     -7.3488      0.2250      0.4499      0.4499      0.8687
   3163.0000      3.5464      0.8853      2.8107      0.1147      0.1568      0.3521      0.4022      3.5464      2.7011      2.9762     -2.7502    -72.9911      2.9762    -19.2230     -3.6670      0.2374      0.4749      0.4749      0.8853
   3163.5000      3.3921      0.8930      2.8160      0.1070      0.1562      0.3502      0.3991      3.3921      2.7378      2.9410     -1.4858    -72.5514      2.9410    -17.9464     -1.9811      0.2432      0.4863      0.4863      0.8930
   3164.0000      3.5543      0.8914      2.8149      0.1086      0.1563      0.3506      0.3998      3.5543      2.7299      2.9327     -1.7463    -72.1117      2.9327    -18.1948     -2.3284      0.2419      0.4839      0.4839      0.8914
   3164.5000      3.7807      0.8833      2.8094      0.1167      0.1569      0.3526      0.4030      3.7807      2.6918      2.9726     -3.0294    -71.6720      2.9726    -19.4658     -4.0392      0.2359      0.4718      0.4718      0.8833
   3165.0000      4.1407      0.8753      2.8039      0.1247      0.1575      0.3546      0.4062      4.1407      2.6546      3.0296     -4.2994    -71.2323      3.0296    -20.7236     -5.7325      0.2299      0.4598      0.4598      0.8753
   3165.5000      4.5668      0.8712      2.8011      0.1288      0.1578      0.3556      0.4079      4.5668      2.6361      3.1196     -4.9263    -70.7926      3.1196    -21.3384     -6.5684      0.2268      0.4536      0.4536      0.8712
   3166.0000      5.0061      0.8646      2.7965      0.1354      0.1583      0.3572      0.4105      5.0061      2.6067      3.2299     -5.7193    -70.3529      3.2299    -22.1193     -7.6257      0.2219      0.4437      0.4437      0.8646
   3166.5000      5.4100      0.8445      2.7826      0.1555      0.1598      0.3622      0.4187      5.4100      2.5206      3.3606     -7.7938    -69.9132      3.3606    -24.1817    -10.3917      0.2068      0.4135      0.4135      0.8445
   3167.0000      5.7568      0.8382      2.7783      0.1618      0.1602      0.3638      0.4213      5.7568      2.4945      3.4924     -8.4081    -69.4735      3.4924    -24.7838    -11.2108      0.2020      0.4040      0.4040      0.8382
   3167.5000      6.0502      0.8328      2.7746      0.1672      0.1606      0.3651      0.4234      6.0502      2.4728      3.6251     -8.9147    -69.0338      3.6251    -25.2783    -11.8862      0.1979      0.3959      0.3959      0.8328
   3168.0000      6.2994      0.8268      2.7704      0.1732      0.1611      0.3666      0.4259      6.2994      2.4489      3.7440     -9.4819    -68.5941      3.7440    -25.8334    -12.6426      0.1934      0.3868      0.3868      0.8268
   3168.5000      6.4915      0.8190      2.7650      0.1810      0.1616      0.3685      0.4290      6.4915      2.4187      3.8367    -10.2194    -68.1543      3.8367    -26.5588    -13.6259      0.1875      0.3751      0.3751      0.8190
