~V
VERS. 2.00: Ver 2.00
WRAP.   NO:        
~W
 STRT.FT 670:
 STOP.FT 4300:
 STEP.FT 0.5:
 NULL. -999.250000:
 COMP. Shell (SWEPI, Cal Resources):Company
 WELL. SAN EMIDIO 1A #8-32:Well
 FLD. :Field
 LOC. S32 T11N R22W:Location
 STAT. CA:State
 SRVC. :Service Company
 SON. :Service Order #
 DATE. :Log Date
 UWI. :Unique Well ID
~C
 DEPT.FT :
 LN.OHMM :
 LTHE. :
 MM. :
 PHES. :
 PHMX. :
 PHTS. :
 PHZC. :
 RD.OHMM :
 ROS. :
 RS.OHMM :
 SBL.MV :
 SCLN. :
 SN.OHMM :
 SP.MV :
 SPN. :
 VCDS. :
 VCLY. :
 VCWS. :
 VSHS. :
~P
~A
# ...
   2880.0000      2.2902      0.7568      2.5438      0.2432      0.1669      0.3890      0.4579      2.2902      1.8678      1.5623    -15.8828    -68.0760      1.5623    -39.2161    -21.1770      0.1458      0.2917      0.2917      0.7568
   2880.5000      2.8462      0.7763      2.6381      0.2237      0.1654      0.3842      0.4499      2.8462      2.0736      1.7274    -13.8821    -68.1019      1.7274    -37.2033    -18.5095      0.1606      0.3212      0.3212      0.7763
   2881.0000      3.4100      0.7804      2.6576      0.2196      0.1651      0.3833      0.4483      3.4100      2.1194      1.8645    -13.4745    -68.1279      1.8645    -36.7836    -17.9660      0.1636      0.3272      0.3272      0.7804
   2881.5000      4.1328      0.7567      2.5432      0.2433      0.1669      0.3890      0.4579      4.1328      1.8664      1.9897    -15.9173    -68.1539      1.9897    -39.2142    -21.2230      0.1457      0.2915      0.2915      0.7567
   2882.0000      5.0200      0.7010      2.2727      0.2990      0.1710      0.4024      0.4807      5.0200      1.4041      2.0780    -21.6865    -68.1798      2.0780    -44.9713    -28.9153      0.1035      0.2069      0.2069      0.6897
   2882.5000      6.0957      0.6841      2.1900      0.3159      0.1723      0.4065      0.4877      6.0957      1.2926      2.1056    -23.4581    -68.2058      2.1056    -46.7308    -31.2774      0.0905      0.1811      0.1811      0.6036
   2883.0000      6.9406      0.6822      2.1807      0.3178      0.1725      0.4069      0.4885      6.9406      1.2808      2.1048    -23.6666    -68.2317      2.1048    -46.9272    -31.5555      0.0891      0.1781      0.1781      0.5938
   2883.5000      7.5304      0.6998      2.2665      0.3002      0.1711      0.4027      0.4812      7.5304      1.3953      2.0873    -21.8470    -68.2577      2.0873    -45.0955    -29.1293      0.1025      0.2049      0.2049      0.6831
   2884.0000      8.0662      0.7214      2.3719      0.2786      0.1695      0.3975      0.4723      8.0662      1.5546      2.0280    -19.6059    -68.2837      2.0280    -42.8422    -26.1412      0.1189      0.2379      0.2379      0.7214
   2884.5000      7.9921      0.7435      2.4790      0.2565      0.1679      0.3922      0.4633      7.9921      1.7411      1.9450    -17.3275    -68.3096      1.9450    -40.5517    -23.1033      0.1357      0.2713      0.2713      0.7435
   2885.0000      7.7067      0.7620      2.5688      0.2380      0.1665      0.3877      0.4557      7.7067      1.9195      1.8555    -15.4181    -68.3356      1.8555    -38.6302    -20.5574      0.1497      0.2994      0.2994      0.7620
   2885.5000      7.2747      0.7729      2.6213      0.2271      0.1657      0.3850      0.4513      7.2747      2.0347      1.7909    -14.3025    -68.3616      1.7909    -37.5025    -19.0701      0.1579      0.3158      0.3158      0.7729
   2886.0000      6.6500      0.7783      2.6476      0.2217      0.1653      0.3837      0.4490      6.6500      2.0954      1.7292    -13.7486    -68.3875      1.7292    -36.9365    -18.3315      0.1620      0.3240      0.3240      0.7783
   2886.5000      6.1544      0.7800      2.6559      0.2200      0.1652      0.3832      0.4483      6.1544      2.1151      1.6705    -13.5767    -68.4135      1.6705    -36.7524    -18.1022      0.1633      0.3265      0.3265      0.7800
   2887.0000      5.7572      0.7638      2.5773      0.2362      0.1664      0.3872      0.4549      5.7572      1.9376      1.6118    -15.2626    -68.4394      1.6118    -38.4263    -20.3502      0.1510      0.3020      0.3020      0.7638
   2887.5000      5.6507      0.7496      2.5087      0.2504      0.1674      0.3906      0.4607      5.6507      1.7975      1.5706    -16.7381    -68.4654      1.5706    -39.8896    -22.3174      0.1403      0.2805      0.2805      0.7496
   2888.0000      6.0817      0.7344      2.4349      0.2656      0.1685      0.3943      0.4670      6.0817      1.6608      1.5232    -18.3249    -68.4914      1.5232    -41.4643    -24.4332      0.1287      0.2574      0.2574      0.7344
   2888.5000      6.3506      0.7318      2.4222      0.2682      0.1687      0.3949      0.4680      6.3506      1.6387      1.4964    -18.6039    -68.5173      1.4964    -41.7312    -24.8052      0.1267      0.2535      0.2535      0.7318
   2889.0000      6.4640      0.7524      2.5219      0.2476      0.1672      0.3899      0.4596      6.4640      1.8234      1.4952    -16.4759    -68.5433      1.4952    -39.5911    -21.9679      0.1423      0.2846      0.2846      0.7524
   2889.5000      6.4011      0.7626      2.5715      0.2374      0.1664      0.3874      0.4554      6.4011      1.9250      1.5163    -15.4207    -68.5692      1.5163    -38.5238    -20.5610      0.1501      0.3001      0.3001      0.7626
   2890.0000      6.3520      0.7702      2.6080      0.2298      0.1659      0.3856      0.4523      6.3520      2.0044      1.7809    -14.6458    -68.5952      1.7809    -37.7367    -19.5277      0.1557      0.3115      0.3115      0.7702
   2890.5000      6.6100      0.7485      2.5028      0.2515      0.1675      0.3908      0.4612      6.6100      1.7860      2.9094    -16.9069    -68.6212      2.9094    -39.9857    -22.5425      0.1393      0.2786      0.2786      0.7485
   2891.0000      7.0947      0.7239      2.3836      0.2761      0.1693      0.3968      0.4712      7.0947      1.5735      4.1861    -19.4708    -68.6471      4.1861    -42.5375    -25.9611      0.1207      0.2414      0.2414      0.7239
   2891.5000      8.4331      0.7075      2.3037      0.2925      0.1705      0.4007      0.4780      8.4331      1.4488      5.0746    -21.1939    -68.6731      5.0746    -44.2485    -28.2586      0.1082      0.2164      0.2164      0.7075
   2892.0000      9.3932      0.7000      2.2670      0.3000      0.1711      0.4025      0.4811      9.3932      1.3957      6.0532    -21.9909    -68.6991      6.0532    -45.0333    -29.3212      0.1024      0.2049      0.2049      0.6830
   2892.5000     10.4723      0.7079      2.3056      0.2921      0.1705      0.4006      0.4778     10.4723      1.4515      7.1130    -21.1720    -68.7250      7.1130    -44.2024    -28.2294      0.1085      0.2169      0.2169      0.7079
   2893.0000     12.0397      0.7234      2.3809      0.2766      0.1694      0.3969      0.4714     12.0397      1.5689      7.6170    -19.5631    -68.7510      7.6170    -42.5813    -26.0842      0.1202      0.2404      0.2404      0.7234
   2893.5000     13.7628      0.7376      2.4498      0.2624      0.1683      0.3934      0.4656     13.7628      1.6871      7.7295    -18.0900    -68.7769      7.7295    -41.0961    -24.1200      0.1310      0.2620      0.2620      0.7376
   2894.0000     15.4942      0.7474      2.4975      0.2526      0.1676      0.3910      0.4616     15.4942      1.7755      7.4007    -17.0729    -68.8029      7.4007    -40.0668    -22.7639      0.1384      0.2769      0.2769      0.7474
   2894.5000     13.3872      0.7559      2.5387      0.2441      0.1669      0.3890      0.4581     13.3872      1.8567      6.8606    -16.1939    -68.8289      6.8606    -39.1757    -21.5919      0.1449      0.2897      0.2897      0.7559
   2895.0000     11.3224      0.7608      2.5623      0.2392      0.1666      0.3878      0.4561     11.3224      1.9054      5.8260    -15.6929    -68.8548      5.8260    -38.6626    -20.9239      0.1485      0.2971      0.2971      0.7608
   2895.5000      8.3554      0.7634      2.5749      0.2366      0.1664      0.3871      0.4550      8.3554      1.9320      3.3852    -15.4287    -68.8808      3.3852    -38.3862    -20.5715      0.1505      0.3010      0.3010      0.7634
   2896.0000      7.3324      0.7655      2.5854      0.2345      0.1662      0.3866      0.4541      7.3324      1.9545      2.6335    -15.2090    -68.9067      2.6335    -38.1544    -20.2786      0.1521      0.3043      0.3043      0.7655
   2896.5000      6.9023      0.7671      2.5927      0.2329      0.1661      0.3862      0.4535      6.9023      1.9703      2.1552    -15.0590    -68.9327      2.1552    -37.9923    -20.0786      0.1533      0.3065      0.3065      0.7671
