~V
VERS. 2.00: Ver 2.00
WRAP.   NO:        
~W
 STRT.FT 670:
 STOP.FT 4300:
 STEP.FT 0.5:
 NULL. -999.250000:
 COMP. Shell (SWEPI, Cal Resources):Company
 WELL. SAN EMIDIO 1A #8-32:Well
 FLD. :Field
 LOC. S32 T11N R22W:Location
 STAT. CA:State
 SRVC. :Service Company
 SON. :Service Order #
 DATE. :Log Date
 UWI. :Unique Well ID
~C
 DEPT.FT :
 LN.OHMM :
 LTHE. :
 MM. :
 PHES. :
 PHMX. :
 PHTS. :
 PHZC. :
 RD.OHMM :
 ROS. :
 RS.OHMM :
 SBL.MV :
 SCLN. :
 SN.OHMM :
 SP.MV :
 SPN. :
 VCDS. :
 VCLY. :
 VCWS. :
 VSHS. :
~P
~A
# ...
   1945.0000      1.5648      0.6512      2.1098      0.3488      0.1768      0.4316      0.5125      1.5648      1.2358      1.5475    -22.1879    -61.7294      1.5475    -29.1636    -29.5839      0.0828      0.1656      0.1656      0.5519
   1945.5000      1.5563      0.6497      2.1024      0.3503      0.1769      0.4320      0.5131      1.5563      1.2271      1.5415    -22.3316    -61.7344      1.5415    -29.3188    -29.7755      0.0816      0.1633      0.1633      0.5442
   1946.0000      1.5478      0.6485      2.0967      0.3515      0.1770      0.4322      0.5136      1.5478      1.2204      1.5354    -22.4447    -61.7394      1.5354    -29.4433    -29.9262      0.0807      0.1615      0.1615      0.5382
   1946.5000      1.5400      0.6473      2.0909      0.3527      0.1771      0.4325      0.5141      1.5400      1.2136      1.5329    -22.5577    -61.7443      1.5329    -29.5679    -30.0769      0.0798      0.1597      0.1597      0.5322
   1947.0000      1.5332      0.6460      2.0844      0.3540      0.1772      0.4328      0.5146      1.5332      1.2061      1.5415    -22.6853    -61.7493      1.5415    -29.7070    -30.2471      0.0788      0.1576      0.1576      0.5254
   1947.5000      1.5263      0.6447      2.0778      0.3553      0.1773      0.4331      0.5151      1.5263      1.1986      1.5564    -22.8135    -61.7543      1.5564    -29.8468    -30.4180      0.0778      0.1556      0.1556      0.5186
   1948.0000      1.5194      0.6433      2.0709      0.3567      0.1774      0.4334      0.5157      1.5194      1.1907      1.5717    -22.9484    -61.7592      1.5717    -29.9932    -30.5979      0.0767      0.1534      0.1534      0.5114
   1948.5000      1.5125      0.6419      2.0640      0.3581      0.1775      0.4337      0.5163      1.5125      1.1828      1.5901    -23.0853    -61.7642      1.5901    -30.1416    -30.7804      0.0756      0.1512      0.1512      0.5041
   1949.0000      1.5096      0.6407      2.0579      0.3593      0.1776      0.4340      0.5168      1.5096      1.1761      1.6099    -23.2627    -61.7691      1.6099    -30.3305    -31.0169      0.0747      0.1494      0.1494      0.4979
   1949.5000      1.5090      0.6397      2.0534      0.3603      0.1777      0.4342      0.5172      1.5090      1.1711      1.6145    -23.4825    -61.7741      1.6145    -30.5619    -31.3100      0.0740      0.1479      0.1479      0.4932
   1950.0000      1.5086      0.6387      2.0482      0.3613      0.1777      0.4345      0.5176      1.5086      1.1653      1.6211    -23.7356    -61.7791      1.6211    -30.8265    -31.6475      0.0732      0.1463      0.1463      0.4877
   1950.5000      1.7508      0.6374      2.0419      0.3626      0.1778      0.4348      0.5181      1.7508      1.1584      1.6337    -24.0417    -61.7840      1.6337    -31.1442    -32.0556      0.0722      0.1443      0.1443      0.4812
   1951.0000      1.8707      0.6348      2.0289      0.3652      0.1780      0.4354      0.5192      1.8707      1.1443      1.6504    -24.6741    -61.7890      1.6504    -31.7881    -32.8988      0.0701      0.1403      0.1403      0.4676
   1951.5000      1.9814      0.6314      2.0125      0.3686      0.1783      0.4361      0.5206      1.9814      1.1269      1.6665    -25.4636    -61.7939      1.6665    -32.5891    -33.9515      0.0676      0.1352      0.1352      0.4506
   1952.0000      2.0796      0.6258      1.9850      0.3742      0.1787      0.4375      0.5229      2.0796      1.0983      1.6711    -26.7975    -61.7989      1.6711    -33.9345    -35.7300      0.0633      0.1266      0.1266      0.4218
   1952.5000      2.1635      0.6194      1.9533      0.3806      0.1792      0.4390      0.5255      2.1635      1.0667      1.6782    -28.3294    -61.8039      1.6782    -35.4780    -37.7725      0.0583      0.1166      0.1166      0.3888
   1953.0000      2.2250      0.6169      1.9409      0.3831      0.1794      0.4395      0.5266      2.2250      1.0546      1.6929    -28.9271    -61.8088      1.6929    -36.0872    -38.5694      0.0564      0.1128      0.1128      0.3760
   1953.5000      2.2772      0.6147      1.9301      0.3853      0.1795      0.4401      0.5275      2.2772      1.0442      1.7076    -29.4519    -61.8138      1.7076    -36.6235    -39.2692      0.0547      0.1094      0.1094      0.3647
   1954.0000      2.2995      0.6130      1.9218      0.3870      0.1797      0.4404      0.5282      2.2995      1.0363      1.7173    -29.8573    -61.8188      1.7173    -37.0404    -39.8097      0.0534      0.1068      0.1068      0.3560
   1954.5000      2.2915      0.6144      1.9285      0.3856      0.1796      0.4401      0.5276      2.2915      1.0427      1.7218    -29.5331    -61.8237      1.7218    -36.7278    -39.3775      0.0545      0.1089      0.1089      0.3631
   1955.0000      2.2687      0.6156      1.9345      0.3844      0.1795      0.4398      0.5271      2.2687      1.0484      1.7138    -29.2459    -61.8287      1.7138    -36.4521    -38.9945      0.0554      0.1108      0.1108      0.3693
   1955.5000      2.2252      0.6164      1.9382      0.3836      0.1794      0.4396      0.5268      2.2252      1.0519      1.6693    -29.0710    -61.8336      1.6693    -36.2888    -38.7614      0.0560      0.1119      0.1119      0.3731
   1956.0000      2.1830      0.6162      1.9372      0.3838      0.1794      0.4397      0.5268      2.1830      1.0509      1.6261    -29.1218    -61.8386      1.6261    -36.3511    -38.8291      0.0558      0.1116      0.1116      0.3721
   1956.5000      2.1490      0.6157      1.9350      0.3843      0.1795      0.4397      0.5270      2.1490      1.0487      1.5858    -29.2313    -61.8436      1.5858    -36.4721    -38.9750      0.0555      0.1109      0.1109      0.3698
   1957.0000      2.1236      0.6153      1.9330      0.3847      0.1795      0.4398      0.5272      2.1236      1.0468      1.5487    -29.3315    -61.8485      1.5487    -36.5838    -39.1086      0.0552      0.1103      0.1103      0.3677
   1957.5000      2.1159      0.6148      1.9304      0.3852      0.1795      0.4399      0.5274      2.1159      1.0443      1.5138    -29.4587    -61.8535      1.5138    -36.7225    -39.2782      0.0547      0.1095      0.1095      0.3650
   1958.0000      2.1151      0.6141      1.9268      0.3859      0.1796      0.4401      0.5277      2.1151      1.0409      1.4882    -29.6324    -61.8585      1.4882    -36.9078    -39.5098      0.0542      0.1084      0.1084      0.3613
   1958.5000      2.1309      0.6133      1.9228      0.3867      0.1796      0.4403      0.5280      2.1309      1.0371      1.4808    -29.8288    -61.8634      1.4808    -37.1157    -39.7717      0.0536      0.1071      0.1071      0.3571
   1959.0000      2.1519      0.6122      1.9176      0.3878      0.1797      0.4405      0.5284      2.1519      1.0321      1.4771    -30.0851    -61.8684      1.4771    -37.3836    -40.1135      0.0527      0.1055      0.1055      0.3516
   1959.5000      2.1767      0.6110      1.9113      0.3890      0.1798      0.4408      0.5289      2.1767      1.0262      1.4840    -30.3913    -61.8733      1.4840    -37.7012    -40.5217      0.0518      0.1035      0.1035      0.3451
   1960.0000      2.2059      0.6096      1.9046      0.3904      0.1799      0.4411      0.5295      2.2059      1.0200      1.4995    -30.7159    -61.8783      1.4995    -38.0374    -40.9545      0.0507      0.1014      0.1014      0.3381
   1960.5000      2.2352      0.6083      1.8993      0.3917      0.1800      0.4414      0.5300      2.2352      1.0150      1.5224    -31.0432    -61.8833      1.5224    -38.3762    -41.3909      0.0497      0.0993      0.0993      0.3311
   1961.0000      2.2624      0.6069      1.8972      0.3931      0.1801      0.4417      0.5306      2.2624      1.0126      1.5465    -31.3704    -61.8882      1.5465    -38.7150    -41.8273      0.0486      0.0972      0.0972      0.3241
   1961.5000      2.2873      0.6057      1.8954      0.3943      0.1802      0.4420      0.5311      2.2873      1.0106      1.5707    -31.6539    -61.8932      1.5707    -39.0100    -42.2052      0.0477      0.0954      0.0954      0.3181
