~V
VERS. 2.00: Ver 2.00
WRAP.   NO:        
~W
 STRT.FT 670:
 STOP.FT 4300:
 STEP.FT 0.5:
 NULL. -999.250000:
 COMP. Shell (SWEPI, Cal Resources):Company
 WELL. SAN EMIDIO 1A #8-32:Well
 FLD. :Field
 LOC. S32 T11N R22W:Location
 STAT. CA:State
 SRVC. :Service Company
 SON. :Service Order #
 DATE. :Log Date
 UWI. :Unique Well ID
~C
 DEPT.FT :
 LN.OHMM :
 LTHE. :
 MM. :
 PHES. :
 PHMX. :
 PHTS. :
 PHZC. :
 RD.OHMM :
 ROS. :
 RS.OHMM :
 SBL.MV :
 SCLN. :
 SN.OHMM :
 SP.MV :
 SPN. :
 VCDS. :
 VCLY. :
 VCWS. :
 VSHS. :
~P
~A
# ...
   2761.0000      2.0957      0.7557      2.5429      0.2443      0.1672      0.3915      0.4598      2.0957      1.8712      1.4466    -15.6621    -67.9120      1.4466    -41.4546    -20.8829      0.1472      0.2944      0.2944      0.7557
   2761.5000      2.1640      0.7546      2.5372      0.2454      0.1673      0.3917      0.4603      2.1640      1.8595      1.4566    -15.7830    -67.9055      1.4566    -41.5870    -21.0441      0.1463      0.2926      0.2926      0.7546
   2762.0000      2.2316      0.7539      2.5341      0.2461      0.1674      0.3919      0.4605      2.2316      1.8533      1.4657    -15.8477    -67.8989      1.4657    -41.6633    -21.1303      0.1458      0.2916      0.2916      0.7539
   2762.5000      2.2850      0.7740      2.6310      0.2260      0.1659      0.3870      0.4523      2.2850      2.0625      1.4610    -13.7905    -67.8924      1.4610    -39.6175    -18.3873      0.1609      0.3219      0.3219      0.7740
   2763.0000      2.3415      0.7805      2.6627      0.2195      0.1654      0.3854      0.4496      2.3415      2.1372      1.4854    -13.1183    -67.8858      1.4854    -38.9569    -17.4911      0.1659      0.3318      0.3318      0.7805
   2763.5000      2.3940      0.7760      2.6409      0.2240      0.1657      0.3865      0.4515      2.3940      2.0854      1.5015    -13.5797    -67.8793      1.5015    -39.4298    -18.1063      0.1625      0.3249      0.3249      0.7760
   2764.0000      2.3021      0.7717      2.6198      0.2283      0.1660      0.3875      0.4532      2.3021      2.0368      1.5173    -14.0263    -67.8727      1.5173    -39.8879    -18.7017      0.1592      0.3183      0.3183      0.7717
   2764.5000      2.2505      0.7675      2.5996      0.2325      0.1664      0.3885      0.4549      2.2505      1.9916      1.5339    -14.4538    -67.8661      1.5339    -40.3270    -19.2717      0.1560      0.3120      0.3120      0.7675
   2765.0000      2.2046      0.7666      2.5955      0.2334      0.1664      0.3887      0.4553      2.2046      1.9824      1.5511    -14.5412    -67.8596      1.5511    -40.4259    -19.3883      0.1554      0.3107      0.3107      0.7666
   2765.5000      2.1747      0.7719      2.6209      0.2281      0.1660      0.3874      0.4531      2.1747      2.0391      1.5763    -14.0026    -67.8530      1.5763    -39.8988    -18.6701      0.1593      0.3186      0.3186      0.7719
   2766.0000      2.1517      0.7866      2.6921      0.2134      0.1649      0.3838      0.4471      2.1517      2.2096      1.5904    -12.4911    -67.8465      1.5904    -38.3989    -16.6548      0.1704      0.3409      0.3409      0.7866
   2766.5000      2.1362      0.8016      2.7275      0.1984      0.1638      0.3801      0.4410      2.1362      2.3170      1.5289    -10.9567    -67.8399      1.5289    -36.8760    -14.6090      0.1817      0.3635      0.3635      0.8016
   2767.0000      2.2422      0.8114      2.7344      0.1886      0.1631      0.3777      0.4370      2.2422      2.3535      1.4223     -9.9575    -67.8334      1.4223    -35.8883    -13.2767      0.1891      0.3782      0.3782      0.8114
   2767.5000      2.3465      0.8248      2.7437      0.1752      0.1621      0.3744      0.4316      2.3465      2.4053      1.2995     -8.5906    -67.8268      1.2995    -34.5329    -11.4541      0.1992      0.3983      0.3983      0.8248
   2768.0000      2.4698      0.8417      2.7555      0.1583      0.1609      0.3702      0.4247      2.4698      2.4737      1.2158     -6.8649    -67.8203      1.2158    -32.8188     -9.1532      0.2119      0.4238      0.4238      0.8417
   2768.5000      2.8326      0.8593      2.7677      0.1407      0.1596      0.3658      0.4176      2.8326      2.5483      1.3534     -5.0774    -67.8137      1.3534    -31.0428     -6.7698      0.2250      0.4501      0.4501      0.8593
   2769.0000      3.3112      0.8632      2.7704      0.1368      0.1593      0.3648      0.4160      3.3112      2.5657      1.5165     -4.4756    -67.8072      1.5165    -30.4525     -5.9674      0.2280      0.4560      0.4560      0.8632
   2769.5000      3.9556      0.8528      2.7633      0.1472      0.1600      0.3674      0.4202      3.9556      2.5205      1.6959     -5.7383    -67.8006      1.6959    -31.7267     -7.6510      0.2202      0.4404      0.4404      0.8528
   2770.0000      4.7074      0.8424      2.7561      0.1576      0.1608      0.3700      0.4244      4.7074      2.4765      1.8578     -6.8013    -67.7941      1.8578    -32.8013     -9.0685      0.2123      0.4247      0.4247      0.8424
   2770.5000      5.2751      0.8311      2.7483      0.1689      0.1616      0.3728      0.4290      5.2751      2.4304      1.8110     -7.9532    -67.7875      1.8110    -33.9411    -10.6043      0.2038      0.4077      0.4077      0.8311
   2771.0000      5.5581      0.8374      2.7527      0.1626      0.1612      0.3712      0.4264      5.5581      2.4561      1.7669     -7.3085    -67.7810      1.7669    -33.2843     -9.7447      0.2086      0.4172      0.4172      0.8374
   2771.5000      5.4474      0.8534      2.7638      0.1466      0.1600      0.3672      0.4199      5.4474      2.5233      1.7307     -5.6762    -67.7744      1.7307    -31.6398     -7.5682      0.2206      0.4412      0.4412      0.8534
   2772.0000      5.3591      0.8674      2.7735      0.1326      0.1590      0.3637      0.4142      5.3591      2.5844      1.7096     -3.8509    -67.7678      1.7096    -29.8024     -5.1345      0.2311      0.4621      0.4621      0.8674
   2772.5000      5.3112      0.8750      2.7788      0.1250      0.1584      0.3618      0.4112      5.3112      2.6189      1.7010     -2.6929    -67.7613      1.7010    -28.6323     -3.5905      0.2368      0.4735      0.4735      0.8750
   2773.0000      5.2946      0.8788      2.7815      0.1212      0.1581      0.3608      0.4096      5.2946      2.6364      1.7076     -2.1175    -67.7547      1.7076    -28.0448     -2.8233      0.2396      0.4792      0.4792      0.8788
   2773.5000      5.4268      0.8792      2.7818      0.1208      0.1581      0.3607      0.4094      5.4268      2.6385      1.8565     -2.0518    -67.7482      1.8565    -27.9670     -2.7358      0.2399      0.4798      0.4798      0.8792
   2774.0000      5.6269      0.8775      2.7806      0.1225      0.1582      0.3611      0.4101      5.6269      2.6304      2.2705     -2.3217    -67.7416      2.2705    -28.2248     -3.0956      0.2386      0.4772      0.4772      0.8775
   2774.5000      5.6687      0.8688      2.7746      0.1312      0.1588      0.3633      0.4136      5.6687      2.5909      2.6720     -3.6440    -67.7351      2.6720    -29.5349     -4.8587      0.2321      0.4641      0.4641      0.8688
   2775.0000      7.0864      0.8407      2.7552      0.1593      0.1609      0.3703      0.4250      7.0864      2.4699      3.1133     -6.9761    -67.7285      3.1133    -32.8549     -9.3015      0.2110      0.4220      0.4220      0.8407
   2775.5000      8.7779      0.7706      2.6145      0.2294      0.1661      0.3876      0.4535      8.7779      2.0242      3.5699    -14.1276    -67.7220      3.5699    -39.9943    -18.8368      0.1582      0.3164      0.3164      0.7706
   2776.0000     10.6301      0.7403      2.4676      0.2597      0.1683      0.3949      0.4659     10.6301      1.7245      3.9933    -17.2349    -67.7154      3.9933    -43.0895    -22.9799      0.1352      0.2705      0.2705      0.7403
   2776.5000     12.3772      0.7086      2.3136      0.2914      0.1707      0.4025      0.4789     12.3772      1.4679      4.4465    -20.4940    -67.7089      4.4465    -46.3364    -27.3253      0.1112      0.2223      0.2223      0.7086
   2777.0000     14.7109      0.6824      2.1859      0.3176      0.1727      0.4088      0.4897     14.7109      1.2911      4.7137    -23.1944    -67.7023      4.7137    -49.0247    -30.9259      0.0912      0.1824      0.1824      0.6080
   2777.5000     16.9317      0.6597      2.0749      0.3403      0.1744      0.4142      0.4990     16.9317      1.1592      4.8651    -25.7694    -67.6958      4.8651    -51.5876    -34.3593      0.0739      0.1477      0.1477      0.4924
