~V
VERS. 2.00: Ver 2.00
WRAP.   NO:        
~W
 STRT.FT 670:
 STOP.FT 4300:
 STEP.FT 0.5:
 NULL. -999.250000:
 COMP. Shell (SWEPI, Cal Resources):Company
 WELL. SAN EMIDIO 1A #8-32:Well
 FLD. :Field
 LOC. S32 T11N R22W:Location
 STAT. CA:State
 SRVC. :Service Company
 SON. :Service Order #
 DATE. :Log Date
 UWI. :Unique Well ID
~C
 DEPT.FT :
 LN.OHMM :
 LTHE. :
 MM. :
 PHES. :
 PHMX. :
 PHTS. :
 PHZC. :
 RD.OHMM :
 ROS. :
 RS.OHMM :
 SBL.MV :
 SCLN. :
 SN.OHMM :
 SP.MV :
 SPN. :
 VCDS. :
 VCLY. :
 VCWS. :
 VSHS. :
~P
~A
# ...
   2353.0000      1.9074      0.7721      2.6491      0.2279      0.1669      0.3949      0.4580      1.9074      2.1278      1.9701    -12.5574    -65.7781      1.9701    -28.9414    -16.7432      0.1670      0.3341      0.3341      0.7721
   2353.5000      2.1167      0.7480      2.5325      0.2520      0.1687      0.4008      0.4679      2.1167      1.8719      2.1532    -14.9544    -65.7831      2.1532    -31.3499    -19.9392      0.1488      0.2977      0.2977      0.7480
   2354.0000      2.3638      0.7360      2.4742      0.2640      0.1696      0.4037      0.4728      2.3638      1.7583      2.3728    -16.1559    -65.7880      2.3728    -32.5630    -21.5412      0.1397      0.2794      0.2794      0.7360
   2354.5000      2.6214      0.7267      2.4292      0.2733      0.1703      0.4060      0.4766      2.6214      1.6766      2.6396    -17.0819    -65.7930      2.6396    -33.5005    -22.7759      0.1327      0.2654      0.2654      0.7267
   2355.0000      2.8968      0.7192      2.3924      0.2808      0.1708      0.4078      0.4796      2.8968      1.6132      2.9455    -17.8398    -65.7979      2.9455    -34.2699    -23.7863      0.1269      0.2539      0.2539      0.7192
   2355.5000      3.1499      0.7120      2.3574      0.2880      0.1714      0.4095      0.4826      3.1499      1.5558      3.1876    -18.5603    -65.8029      3.1876    -35.0020    -24.7470      0.1215      0.2429      0.2429      0.7120
   2356.0000      3.3605      0.7063      2.3296      0.2937      0.1718      0.4109      0.4849      3.3605      1.5121      3.3997    -19.1328    -65.8079      3.3997    -35.5860    -25.5104      0.1171      0.2343      0.2343      0.7063
   2356.5000      3.5189      0.7010      2.3041      0.2990      0.1722      0.4121      0.4871      3.5189      1.4732      3.5706    -19.6591    -65.8128      3.5706    -36.1239    -26.2122      0.1131      0.2263      0.2263      0.7010
   2357.0000      3.6098      0.6956      2.2775      0.3044      0.1726      0.4134      0.4893      3.6098      1.4341      3.6679    -20.2078    -65.8178      3.6679    -36.6841    -26.9437      0.1090      0.2180      0.2180      0.6956
   2357.5000      3.6092      0.6998      2.2982      0.3002      0.1723      0.4124      0.4875      3.6092      1.4643      3.6991    -19.7848    -65.8228      3.6991    -36.2726    -26.3797      0.1122      0.2244      0.2244      0.6998
   2358.0000      3.5845      0.7063      2.3295      0.2937      0.1718      0.4108      0.4849      3.5845      1.5118      3.5287    -19.1406    -65.8277      3.5287    -35.6399    -25.5208      0.1171      0.2342      0.2342      0.7063
   2358.5000      3.4523      0.7157      2.3750      0.2843      0.1711      0.4085      0.4810      3.4523      1.5842      3.2900    -18.2073    -65.8327      3.2900    -34.7181    -24.2764      0.1242      0.2484      0.2484      0.7157
   2359.0000      3.1927      0.7275      2.4322      0.2725      0.1702      0.4057      0.4762      3.1927      1.6816      3.0306    -17.0315    -65.8376      3.0306    -33.5539    -22.7087      0.1332      0.2663      0.2663      0.7275
   2359.5000      2.9265      0.7346      2.4667      0.2654      0.1697      0.4040      0.4733      2.9265      1.7441      2.8030    -16.3231    -65.8426      2.8030    -32.8571    -21.7642      0.1385      0.2771      0.2771      0.7346
   2360.0000      2.6591      0.7376      2.4814      0.2624      0.1695      0.4032      0.4720      2.6591      1.7715      2.5926    -16.0220    -65.8476      2.5926    -32.5675    -21.3627      0.1408      0.2817      0.2817      0.7376
   2360.5000      2.4138      0.7403      2.4941      0.2597      0.1693      0.4026      0.4709      2.4138      1.7957      2.4043    -15.7621    -65.8525      2.4043    -32.3191    -21.0162      0.1428      0.2856      0.2856      0.7403
   2361.0000      2.2369      0.7429      2.5068      0.2571      0.1691      0.4019      0.4699      2.2369      1.8204      2.2334    -15.5009    -65.8575      2.2334    -32.0694    -20.6678      0.1448      0.2896      0.2896      0.7429
   2361.5000      2.0921      0.7460      2.5216      0.2540      0.1688      0.4012      0.4686      2.0921      1.8496      2.0907    -15.1975    -65.8625      2.0907    -31.7776    -20.2634      0.1471      0.2943      0.2943      0.7460
   2362.0000      1.9643      0.7500      2.5412      0.2500      0.1685      0.4002      0.4669      1.9643      1.8891      1.9871    -14.7958    -65.8674      1.9871    -31.3874    -19.7277      0.1502      0.3004      0.3004      0.7500
   2362.5000      1.8685      0.7548      2.5642      0.2452      0.1682      0.3990      0.4650      1.8685      1.9369      1.8923    -14.3236    -65.8724      1.8923    -30.9267    -19.0981      0.1538      0.3076      0.3076      0.7548
   2363.0000      1.7784      0.7585      2.5821      0.2415      0.1679      0.3981      0.4635      1.7784      1.9753      1.8182    -13.9548    -65.8773      1.8182    -30.5695    -18.6064      0.1566      0.3132      0.3132      0.7585
   2363.5000      1.7121      0.7600      2.5893      0.2400      0.1678      0.3977      0.4628      1.7121      1.9908      1.7441    -13.8090    -65.8823      1.7441    -30.4352    -18.4120      0.1577      0.3154      0.3154      0.7600
   2364.0000      1.6539      0.7595      2.5870      0.2405      0.1678      0.3978      0.4630      1.6539      1.9858      1.6792    -13.8573    -65.8873      1.6792    -30.4950    -18.4764      0.1573      0.3147      0.3147      0.7595
   2364.5000      1.6153      0.7576      2.5774      0.2424      0.1680      0.3983      0.4638      1.6153      1.9649      1.6240    -14.0564    -65.8922      1.6240    -30.7057    -18.7419      0.1558      0.3117      0.3117      0.7576
   2365.0000      1.5768      0.7473      2.5277      0.2527      0.1687      0.4008      0.4680      1.5768      1.8617      1.5897    -15.0794    -65.8972      1.5897    -31.7401    -20.1058      0.1481      0.2962      0.2962      0.7473
   2365.5000      1.5601      0.7402      2.4932      0.2598      0.1693      0.4025      0.4709      1.5601      1.7937      1.5553    -15.7922    -65.9021      1.5553    -32.4645    -21.0563      0.1427      0.2854      0.2854      0.7402
   2366.0000      1.5516      0.7364      2.4748      0.2636      0.1695      0.4034      0.4725      1.5516      1.7588      1.5512    -16.1728    -65.9071      1.5512    -32.8566    -21.5637      0.1398      0.2796      0.2796      0.7364
   2366.5000      1.5619      0.7353      2.4693      0.2647      0.1696      0.4037      0.4729      1.5619      1.7485      1.5502    -16.2874    -65.9121      1.5502    -32.9827    -21.7165      0.1389      0.2779      0.2779      0.7353
   2367.0000      1.5694      0.7349      2.4672      0.2651      0.1696      0.4037      0.4731      1.5694      1.7447      1.5704    -16.3304    -65.9170      1.5704    -33.0372    -21.7738      0.1386      0.2773      0.2773      0.7349
   2367.5000      1.5955      0.7347      2.4661      0.2653      0.1697      0.4038      0.4732      1.5955      1.7426      1.5919    -16.3552    -65.9220      1.5919    -33.0736    -21.8070      0.1385      0.2769      0.2769      0.7347
   2368.0000      1.6217      0.7301      2.4441      0.2699      0.1700      0.4049      0.4750      1.6217      1.7025      1.6260    -16.8089    -65.9270      1.6260    -33.5388    -22.4118      0.1350      0.2700      0.2700      0.7301
   2368.5000      1.6593      0.7180      2.3849      0.2820      0.1709      0.4078      0.4800      1.6593      1.6001      1.6593    -18.0298    -65.9319      1.6593    -34.7712    -24.0397      0.1258      0.2515      0.2515      0.7180
   2369.0000      1.6905      0.7070      2.3316      0.2930      0.1717      0.4104      0.4845      1.6905      1.5145      1.6915    -19.1301    -65.9369      1.6915    -35.8831    -25.5068      0.1174      0.2349      0.2349      0.7070
   2369.5000      1.7179      0.7004      2.2992      0.2996      0.1722      0.4120      0.4872      1.7179      1.4654      1.7049    -19.7983    -65.9418      1.7049    -36.5628    -26.3977      0.1124      0.2248      0.2248      0.7004
