~V
VERS. 2.00: Ver 2.00
WRAP.   NO:        
~W
 STRT.FT 670:
 STOP.FT 4300:
 STEP.FT 0.5:
 NULL. -999.250000:
 COMP. Shell (SWEPI, Cal Resources):Company
 WELL. SAN EMIDIO 1A #8-32:Well
 FLD. :Field
 LOC. S32 T11N R22W:Location
 STAT. CA:State
 SRVC. :Service Company
 SON. :Service Order #
 DATE. :Log Date
 UWI. :Unique Well ID
~C
 DEPT.FT :
 LN.OHMM :
 LTHE. :
 MM. :
 PHES. :
 PHMX. :
 PHTS. :
 PHZC. :
 RD.OHMM :
 ROS. :
 RS.OHMM :
 SBL.MV :
 SCLN. :
 SN.OHMM :
 SP.MV :
 SPN. :
 VCDS. :
 VCLY. :
 VCWS. :
 VSHS. :
~P
~A
# ...
   1554.0000      1.8915      0.7824      2.7134      0.2176      0.1679      0.4071      0.4635      1.8915      2.4022      1.6569     -8.4457    -57.8495      1.6569     -8.4457    -11.2609      0.1895      0.3790      0.3790      0.7824
   1554.5000      1.9008      0.7861      2.7160      0.2139      0.1676      0.4062      0.4620      1.9008      2.4180      1.6665     -8.1225    -57.8544      1.6665     -8.1225    -10.8300      0.1923      0.3846      0.3846      0.7861
   1555.0000      1.9098      0.7883      2.7175      0.2117      0.1675      0.4056      0.4610      1.9098      2.4275      1.6791     -7.9297    -57.8594      1.6791     -7.9297    -10.5729      0.1940      0.3879      0.3879      0.7883
   1555.5000      1.9188      0.7889      2.7179      0.2111      0.1674      0.4055      0.4608      1.9188      2.4297      1.6945     -7.8851    -57.8644      1.6945     -7.8851    -10.5134      0.1944      0.3887      0.3887      0.7889
   1556.0000      1.9315      0.7904      2.7189      0.2096      0.1673      0.4051      0.4602      1.9315      2.4361      1.7075     -7.7564    -57.8693      1.7075     -7.7564    -10.3418      0.1955      0.3910      0.3910      0.7904
   1556.5000      1.9450      0.7934      2.7210      0.2066      0.1671      0.4044      0.4590      1.9450      2.4492      1.7159     -7.4940    -57.8743      1.7159     -7.4940     -9.9920      0.1978      0.3955      0.3955      0.7934
   1557.0000      1.9585      0.7984      2.7245      0.2016      0.1667      0.4031      0.4569      1.9585      2.4713      1.7227     -7.0578    -57.8793      1.7227     -7.0578     -9.4104      0.2015      0.4031      0.4031      0.7984
   1557.5000      1.9729      0.8014      2.7265      0.1986      0.1665      0.4024      0.4557      1.9729      2.4845      1.7294     -6.8003    -57.8842      1.7294     -6.8003     -9.0670      0.2038      0.4075      0.4075      0.8014
   1558.0000      1.9909      0.8009      2.7262      0.1991      0.1665      0.4025      0.4559      1.9909      2.4821      1.7367     -6.8445    -57.8892      1.7367     -6.8445     -9.1260      0.2034      0.4068      0.4068      0.8009
   1558.5000      2.0089      0.7994      2.7251      0.2006      0.1666      0.4028      0.4565      2.0089      2.4750      1.7445     -6.9819    -57.8941      1.7445     -6.9819     -9.3092      0.2022      0.4044      0.4044      0.7994
   1559.0000      2.0269      0.7965      2.7231      0.2035      0.1669      0.4035      0.4577      2.0269      2.4621      1.7490     -7.2345    -57.8991      1.7490     -7.2345     -9.6460      0.2000      0.4000      0.4000      0.7965
   1559.5000      2.0437      0.7936      2.7211      0.2064      0.1671      0.4042      0.4589      2.0437      2.4493      1.7256     -7.4872    -57.9041      1.7256     -7.4872     -9.9829      0.1978      0.3957      0.3957      0.7936
   1560.0000      2.0588      0.7915      2.7196      0.2085      0.1672      0.4048      0.4597      2.0588      2.4399      1.6921     -7.6735    -57.9090      1.6921     -7.6735    -10.2314      0.1962      0.3925      0.3925      0.7915
   1560.5000      2.0740      0.7965      2.7231      0.2035      0.1668      0.4035      0.4577      2.0740      2.4617      1.6516     -7.2393    -57.9140      1.6516     -7.2393     -9.6524      0.2000      0.4000      0.4000      0.7965
   1561.0000      2.0891      0.7992      2.7249      0.2008      0.1666      0.4028      0.4566      2.0891      2.4735      1.6192     -7.0073    -57.9190      1.6192     -7.0073     -9.3431      0.2020      0.4040      0.4040      0.7992
   1561.5000      2.1043      0.8004      2.7258      0.1996      0.1666      0.4025      0.4561      2.1043      2.4788      1.5774     -6.9026    -57.9239      1.5774     -6.9026     -9.2035      0.2029      0.4058      0.4058      0.8004
   1562.0000      2.1252      0.8009      2.7261      0.1991      0.1665      0.4024      0.4558      2.1252      2.4812      1.5477     -6.8556    -57.9289      1.5477     -6.8556     -9.1408      0.2033      0.4067      0.4067      0.8009
   1562.5000      2.1285      0.7988      2.7247      0.2012      0.1667      0.4029      0.4567      2.1285      2.4716      1.5649     -7.0417    -57.9338      1.5649     -7.0417     -9.3889      0.2017      0.4035      0.4035      0.7988
   1563.0000      2.1552      0.7884      2.7174      0.2116      0.1674      0.4055      0.4609      2.1552      2.4257      1.6157     -7.9550    -57.9388      1.6157     -7.9550    -10.6066      0.1939      0.3877      0.3877      0.7884
   1563.5000      2.3750      0.7579      2.6734      0.2421      0.1697      0.4130      0.4733      2.3750      2.2537      1.6799    -10.6213    -57.9438      1.6799    -10.6213    -14.1617      0.1708      0.3417      0.3417      0.7579
   1564.0000      2.6234      0.7203      2.4915      0.2797      0.1725      0.4221      0.4887      2.6234      1.8502      1.8823    -13.9172    -57.9487      1.8823    -13.9172    -18.5563      0.1424      0.2848      0.2848      0.7203
   1564.5000      2.8991      0.6897      2.3431      0.3103      0.1748      0.4295      0.5012      2.8991      1.5861      2.0496    -16.6062    -57.9537      2.0496    -16.6062    -22.1416      0.1192      0.2385      0.2385      0.6897
   1565.0000      3.1564      0.6597      2.1968      0.3403      0.1770      0.4367      0.5135      3.1564      1.3707      2.2357    -19.2568    -57.9586      2.2357    -19.2568    -25.6757      0.0964      0.1927      0.1927      0.6425
   1565.5000      3.4335      0.6604      2.2000      0.3396      0.1770      0.4365      0.5132      3.4335      1.3749      2.4413    -19.2006    -57.9636      2.4413    -19.2006    -25.6008      0.0969      0.1937      0.1937      0.6458
   1566.0000      3.6802      0.6613      2.2042      0.3387      0.1769      0.4363      0.5129      3.6802      1.3806      2.6057    -19.1254    -57.9686      2.6057    -19.1254    -25.5005      0.0975      0.1951      0.1951      0.6502
   1566.5000      3.8990      0.6626      2.2106      0.3374      0.1768      0.4359      0.5123      3.8990      1.3893      2.7591    -19.0115    -57.9735      2.7591    -19.0115    -25.3486      0.0985      0.1971      0.1971      0.6569
   1567.0000      4.0447      0.6641      2.2181      0.3359      0.1767      0.4356      0.5117      4.0447      1.3995      2.8759    -18.8771    -57.9785      2.8759    -18.8771    -25.1695      0.0997      0.1994      0.1994      0.6641
   1567.5000      4.1128      0.6657      2.2256      0.3343      0.1766      0.4352      0.5110      4.1128      1.4098      2.9542    -18.7430    -57.9835      2.9542    -18.7430    -24.9906      0.1009      0.2018      0.2018      0.6657
   1568.0000      4.1050      0.6676      2.2348      0.3324      0.1764      0.4347      0.5103      4.1050      1.4227      3.0165    -18.5779    -57.9884      3.0165    -18.5779    -24.7705      0.1023      0.2046      0.2046      0.6676
   1568.5000      4.0696      0.6672      2.2329      0.3328      0.1764      0.4348      0.5104      4.0696      1.4200      3.0471    -18.6134    -57.9934      3.0471    -18.6134    -24.8179      0.1020      0.2040      0.2040      0.6672
   1569.0000      4.0244      0.6626      2.2104      0.3374      0.1768      0.4359      0.5123      4.0244      1.3888      2.6333    -19.0230    -57.9983      2.6333    -19.0230    -25.3640      0.0985      0.1970      0.1970      0.6567
   1569.5000      4.0120      0.6500      2.1487      0.3500      0.1777      0.4389      0.5175      4.0120      1.3077      2.4641    -20.1438    -58.0033      2.4641    -20.1438    -26.8584      0.0889      0.1777      0.1777      0.5924
   1570.0000      4.0479      0.6370      2.0853      0.3630      0.1787      0.4420      0.5228      4.0479      1.2306      2.2927    -21.2946    -58.0083      2.2927    -21.2946    -28.3929      0.0790      0.1579      0.1579      0.5263
   1570.5000      4.1321      0.6328      2.0646      0.3672      0.1790      0.4429      0.5246      4.1321      1.2067      2.1412    -21.6716    -58.0132      2.1412    -21.6716    -28.8954      0.0757      0.1514      0.1514      0.5048
