~V
VERS. 2.00: Ver 2.00
WRAP.   NO:        
~W
 STRT.FT 670:
 STOP.FT 4300:
 STEP.FT 0.5:
 NULL. -999.250000:
 COMP. Shell (SWEPI, Cal Resources):Company
 WELL. SAN EMIDIO 1A #8-32:Well
 FLD. :Field
 LOC. S32 T11N R22W:Location
 STAT. CA:State
 SRVC. :Service Company
 SON. :Service Order #
 DATE. :Log Date
 UWI. :Unique Well ID
~C
 DEPT.FT :
 LN.OHMM :
 LTHE. :
 MM. :
 PHES. :
 PHMX. :
 PHTS. :
 PHZC. :
 RD.OHMM :
 ROS. :
 RS.OHMM :
 SBL.MV :
 SCLN. :
 SN.OHMM :
 SP.MV :
 SPN. :
 VCDS. :
 VCLY. :
 VCWS. :
 VSHS. :
~P
~A
# ...
   2081.0000      1.8038      0.6756      2.2128      0.3244      0.1747      0.4233      0.5008      1.8038      1.3580      1.7894    -20.6426    -63.0790      1.7894    -30.7544    -27.5235      0.0989      0.1977      0.1977      0.6592
   2081.5000      1.8401      0.6793      2.2310      0.3207      0.1744      0.4224      0.4993      1.8401      1.3826      1.8251    -20.2857    -63.0840      1.8251    -30.4090    -27.0476      0.1017      0.2034      0.2034      0.6781
   2082.0000      1.8763      0.6811      2.2393      0.3189      0.1743      0.4220      0.4986      1.8763      1.3940      1.8615    -20.1235    -63.0889      1.8615    -30.2584    -26.8314      0.1030      0.2060      0.2060      0.6811
   2082.5000      1.9137      0.6843      2.2549      0.3157      0.1740      0.4212      0.4972      1.9137      1.4159      1.8953    -19.8171    -63.0939      1.8953    -29.9634    -26.4228      0.1055      0.2109      0.2109      0.6843
   2083.0000      1.9578      0.6906      2.2854      0.3094      0.1736      0.4197      0.4947      1.9578      1.4598      1.9270    -19.2168    -63.0988      1.9270    -29.3746    -25.6223      0.1102      0.2205      0.2205      0.6906
   2083.5000      2.0018      0.6973      2.3180      0.3027      0.1731      0.4181      0.4919      2.0018      1.5086      1.9585    -18.5769    -63.1038      1.9585    -28.7463    -24.7692      0.1153      0.2306      0.2306      0.6973
   2084.0000      2.0410      0.7027      2.3446      0.2973      0.1727      0.4167      0.4896      2.0410      1.5501      1.9891    -18.0524    -63.1088      1.9891    -28.2333    -24.0699      0.1195      0.2389      0.2389      0.7027
   2084.5000      2.0786      0.7010      2.3359      0.2990      0.1728      0.4171      0.4904      2.0786      1.5363      2.0198    -18.2261    -63.1137      2.0198    -28.4185    -24.3014      0.1181      0.2362      0.2362      0.7010
   2085.0000      2.1161      0.6971      2.3170      0.3029      0.1731      0.4181      0.4919      2.1161      1.5070      2.0506    -18.5999    -63.1187      2.0506    -28.8039    -24.7999      0.1152      0.2303      0.2303      0.6971
   2085.5000      2.1506      0.6921      2.2929      0.3079      0.1734      0.4192      0.4940      2.1506      1.4707      2.0849    -19.0776    -63.1237      2.0849    -29.2931    -25.4368      0.1114      0.2228      0.2228      0.6921
   2086.0000      2.1850      0.6873      2.2694      0.3127      0.1738      0.4204      0.4959      2.1850      1.4363      2.1192    -19.5420    -63.1286      2.1192    -29.7691    -26.0561      0.1077      0.2154      0.2154      0.6873
   2086.5000      2.2229      0.6819      2.2428      0.3181      0.1742      0.4217      0.4982      2.2229      1.3987      2.1548    -20.0681    -63.1336      2.1548    -30.3067    -26.7575      0.1036      0.2071      0.2071      0.6819
   2087.0000      2.2518      0.6841      2.2535      0.3159      0.1740      0.4211      0.4973      2.2518      1.4136      2.1829    -19.8587    -63.1385      2.1829    -30.1088    -26.4782      0.1052      0.2105      0.2105      0.6841
   2087.5000      2.2707      0.6894      2.2791      0.3106      0.1737      0.4199      0.4951      2.2707      1.4502      2.1402    -19.3564    -63.1435      2.1402    -29.6181    -25.8086      0.1092      0.2185      0.2185      0.6894
   2088.0000      2.2299      0.6947      2.3052      0.3053      0.1733      0.4186      0.4929      2.2299      1.4889      2.1200    -18.8421    -63.1485      2.1200    -29.1152    -25.1228      0.1133      0.2266      0.2266      0.6947
   2088.5000      2.1615      0.7036      2.3482      0.2964      0.1726      0.4164      0.4892      2.1615      1.5556      2.1028    -17.9938    -63.1534      2.1028    -28.2785    -23.9918      0.1200      0.2401      0.2401      0.7036
   2089.0000      2.0971      0.7141      2.3991      0.2859      0.1718      0.4139      0.4849      2.0971      1.6393      2.0847    -16.9908    -63.1584      2.0847    -27.2870    -22.6544      0.1280      0.2560      0.2560      0.7141
   2089.5000      2.0412      0.7204      2.4299      0.2796      0.1713      0.4124      0.4823      2.0412      1.6927      2.0599    -16.3853    -63.1633      2.0599    -26.6931    -21.8471      0.1328      0.2656      0.2656      0.7204
   2090.0000      1.9882      0.7266      2.4596      0.2734      0.1709      0.4109      0.4798      1.9882      1.7463      2.0310    -15.8002    -63.1683      2.0310    -26.1195    -21.0669      0.1374      0.2749      0.2749      0.7266
   2090.5000      1.9485      0.7328      2.4897      0.2672      0.1704      0.4093      0.4773      1.9485      1.8029      1.9975    -15.2064    -63.1733      1.9975    -25.5372    -20.2752      0.1421      0.2843      0.2843      0.7328
   2091.0000      1.9101      0.7406      2.5277      0.2594      0.1698      0.4074      0.4740      1.9101      1.8776      1.9627    -14.4576    -63.1782      1.9627    -24.8000    -19.2768      0.1481      0.2962      0.2962      0.7406
   2091.5000      1.8836      0.7493      2.5694      0.2507      0.1692      0.4053      0.4705      1.8836      1.9641      1.9305    -13.6364    -63.1832      1.9305    -23.9903    -18.1819      0.1546      0.3092      0.3092      0.7493
   2092.0000      1.8587      0.7566      2.6046      0.2434      0.1686      0.4035      0.4675      1.8587      2.0412      1.8997    -12.9408    -63.1882      1.8997    -23.3063    -17.2545      0.1601      0.3202      0.3202      0.7566
   2092.5000      1.8469      0.7631      2.6361      0.2369      0.1682      0.4019      0.4649      1.8469      2.1132      1.8849    -12.3204    -63.1931      1.8849    -22.6973    -16.4272      0.1650      0.3300      0.3300      0.7631
   2093.0000      1.8352      0.7694      2.6666      0.2306      0.1677      0.4004      0.4623      1.8352      2.1861      1.8718    -11.7189    -63.1981      1.8718    -22.1074    -15.6252      0.1698      0.3396      0.3396      0.7694
   2093.5000      1.8256      0.7771      2.7005      0.2229      0.1671      0.3985      0.4591      1.8256      2.2722      1.8654    -10.9891    -63.2030      1.8654    -21.3891    -14.6521      0.1756      0.3511      0.3511      0.7771
   2094.0000      1.8242      0.7598      2.6201      0.2402      0.1684      0.4027      0.4662      1.8242      2.0760      1.8640    -12.6399    -63.2080      1.8640    -23.0514    -16.8532      0.1625      0.3250      0.3250      0.7598
   2094.5000      1.8228      0.7425      2.5365      0.2575      0.1697      0.4069      0.4732      1.8228      1.8953      1.8626    -14.2915    -63.2130      1.8626    -24.7146    -19.0554      0.1495      0.2989      0.2989      0.7425
   2095.0000      1.8213      0.7274      2.4629      0.2726      0.1708      0.4106      0.4794      1.8213      1.7521      1.8608    -15.7472    -63.2179      1.8608    -26.1817    -20.9962      0.1380      0.2759      0.2759      0.7274
   2095.5000      1.8199      0.7201      2.4274      0.2799      0.1713      0.4123      0.4824      1.8199      1.6879      1.8665    -16.4502    -63.2229      1.8665    -26.8963    -21.9336      0.1324      0.2648      0.2648      0.7201
   2096.0000      1.8185      0.7137      2.3965      0.2863      0.1718      0.4139      0.4850      1.8185      1.6345      1.8746    -17.0607    -63.2278      1.8746    -27.5184    -22.7476      0.1276      0.2552      0.2552      0.7137
   2096.5000      1.8171      0.7072      2.3650      0.2928      0.1723      0.4154      0.4876      1.8171      1.5820      1.8824    -17.6859    -63.2328      1.8824    -28.1551    -23.5812      0.1227      0.2453      0.2453      0.7072
   2097.0000      1.8156      0.7004      2.3319      0.2996      0.1728      0.4170      0.4904      1.8156      1.5292      1.8901    -18.3418    -63.2378      1.8901    -28.8225    -24.4558      0.1175      0.2350      0.2350      0.7004
   2097.5000      1.8222      0.6952      2.3062      0.3048      0.1732      0.4183      0.4926      1.8222      1.4899      1.8993    -18.8498    -63.2427      1.8993    -29.3420    -25.1330      0.1135      0.2269      0.2269      0.6952
