~V
VERS. 2.00: Ver 2.00
WRAP.   NO:        
~W
 STRT.FT 670:
 STOP.FT 4300:
 STEP.FT 0.5:
 NULL. -999.250000:
 COMP. Shell (SWEPI, Cal Resources):Company
 WELL. SAN EMIDIO 1A #8-32:Well
 FLD. :Field
 LOC. S32 T11N R22W:Location
 STAT. CA:State
 SRVC. :Service Company
 SON. :Service Order #
 DATE. :Log Date
 UWI. :Unique Well ID
~C
 DEPT.FT :
 LN.OHMM :
 LTHE. :
 MM. :
 PHES. :
 PHMX. :
 PHTS. :
 PHZC. :
 RD.OHMM :
 ROS. :
 RS.OHMM :
 SBL.MV :
 SCLN. :
 SN.OHMM :
 SP.MV :
 SPN. :
 VCDS. :
 VCLY. :
 VCWS. :
 VSHS. :
~P
~A
# ...
   1809.0000      1.3991      0.7386      2.5513      0.2614      0.1706      0.4131      0.4783      1.3991      1.9480      1.4445    -13.3730    -60.3799      1.4445    -17.2124    -17.8306      0.1518      0.3035      0.3035      0.7386
   1809.5000      1.3671      0.7342      2.5296      0.2658      0.1709      0.4142      0.4801      1.3671      1.9030      1.4017    -13.7835    -60.3849      1.4017    -17.6345    -18.3781      0.1484      0.2967      0.2967      0.7342
   1810.0000      1.3379      0.7263      2.4915      0.2737      0.1715      0.4161      0.4833      1.3379      1.8273      1.3567    -14.5038    -60.3898      1.3567    -18.3664    -19.3384      0.1424      0.2848      0.2848      0.7263
   1810.5000      1.3159      0.7136      2.4299      0.2864      0.1724      0.4192      0.4885      1.3159      1.7127      1.3110    -15.6661    -60.3948      1.3110    -19.5401    -20.8881      0.1328      0.2656      0.2656      0.7136
   1811.0000      1.2962      0.7001      2.3642      0.2999      0.1735      0.4224      0.4940      1.2962      1.6002      1.2853    -16.9078    -60.3997      1.2853    -20.7934    -22.5438      0.1225      0.2451      0.2451      0.7001
   1811.5000      1.2894      0.6870      2.3005      0.3130      0.1744      0.4255      0.4994      1.2894      1.4999      1.2656    -18.1111    -60.4047      1.2656    -22.0082    -24.1481      0.1126      0.2252      0.2252      0.6870
   1812.0000      1.2887      0.6822      2.2769      0.3178      0.1748      0.4267      0.5013      1.2887      1.4647      1.2555    -18.5583    -60.4097      1.2555    -22.4669    -24.7444      0.1089      0.2178      0.2178      0.6822
   1812.5000      1.2882      0.6828      2.2797      0.3172      0.1747      0.4265      0.5011      1.2882      1.4688      1.2480    -18.5079    -60.4146      1.2480    -22.4281    -24.6772      0.1093      0.2187      0.2187      0.6828
   1813.0000      1.2925      0.6833      2.2823      0.3167      0.1747      0.4264      0.5009      1.2925      1.4725      1.2530    -18.4607    -60.4196      1.2530    -22.3924    -24.6143      0.1097      0.2195      0.2195      0.6833
   1813.5000      1.2959      0.6840      2.2855      0.3160      0.1747      0.4262      0.5006      1.2959      1.4772      1.2604    -18.4015    -60.4246      1.2604    -22.3447    -24.5353      0.1102      0.2205      0.2205      0.6840
   1814.0000      1.3176      0.6845      2.2878      0.3155      0.1746      0.4261      0.5004      1.3176      1.4806      1.2693    -18.3598    -60.4295      1.2693    -22.3146    -24.4798      0.1106      0.2212      0.2212      0.6845
   1814.5000      1.3445      0.6821      2.2763      0.3179      0.1748      0.4267      0.5013      1.3445      1.4636      1.2853    -18.5787    -60.4345      1.2853    -22.5450    -24.7717      0.1088      0.2176      0.2176      0.6821
   1815.0000      1.3713      0.6725      2.2293      0.3275      0.1755      0.4290      0.5053      1.3713      1.3968      1.3013    -19.4672    -60.4394      1.3013    -23.4450    -25.9563      0.1015      0.2029      0.2029      0.6725
   1815.5000      1.3959      0.6647      2.1911      0.3353      0.1761      0.4308      0.5085      1.3959      1.3452      1.3197    -20.1911    -60.4444      1.3197    -24.1805    -26.9215      0.0955      0.1910      0.1910      0.6365
   1816.0000      1.4201      0.6675      2.2047      0.3325      0.1759      0.4301      0.5073      1.4201      1.3633      1.3483    -19.9348    -60.4494      1.3483    -23.9357    -26.5797      0.0976      0.1952      0.1952      0.6507
   1816.5000      1.4454      0.6704      2.2190      0.3296      0.1757      0.4294      0.5061      1.4454      1.3825      1.3770    -19.6674    -60.4543      1.3770    -23.6798    -26.2232      0.0998      0.1997      0.1997      0.6656
   1817.0000      1.4809      0.6734      2.2333      0.3266      0.1754      0.4287      0.5049      1.4809      1.4021      1.4056    -19.3986    -60.4593      1.4056    -23.4225    -25.8648      0.1021      0.2041      0.2041      0.6734
   1817.5000      1.5165      0.6761      2.2465      0.3239      0.1752      0.4281      0.5038      1.5165      1.4205      1.4341    -19.1509    -60.4642      1.4341    -23.1864    -25.5345      0.1041      0.2083      0.2083      0.6761
   1818.0000      1.5494      0.6786      2.2586      0.3214      0.1750      0.4274      0.5027      1.5494      1.4378      1.4625    -18.9229    -60.4692      1.4625    -22.9700    -25.2306      0.1060      0.2121      0.2121      0.6786
   1818.5000      1.5819      0.6815      2.2729      0.3185      0.1748      0.4267      0.5015      1.5819      1.4584      1.4958    -18.6538    -60.4742      1.4958    -22.7123    -24.8717      0.1083      0.2165      0.2165      0.6815
   1819.0000      1.6207      0.6797      2.2637      0.3203      0.1750      0.4272      0.5023      1.6207      1.4450      1.5396    -18.8301    -60.4791      1.5396    -22.9002    -25.1068      0.1068      0.2137      0.2137      0.6797
   1819.5000      1.6618      0.6744      2.2379      0.3256      0.1754      0.4284      0.5045      1.6618      1.4083      1.5958    -19.3198    -60.4841      1.5958    -23.4014    -25.7597      0.1028      0.2056      0.2056      0.6744
   1820.0000      1.7109      0.6668      2.2009      0.3332      0.1759      0.4302      0.5076      1.7109      1.3580      1.6507    -20.0192    -60.4891      1.6507    -24.1123    -26.6923      0.0970      0.1940      0.1940      0.6468
   1820.5000      1.7458      0.6746      2.2390      0.3254      0.1753      0.4283      0.5043      1.7458      1.4099      1.6857    -19.3008    -60.4940      1.6857    -23.4055    -25.7344      0.1030      0.2059      0.2059      0.6746
   1821.0000      1.7373      0.6817      2.2732      0.3183      0.1748      0.4267      0.5015      1.7373      1.4586      1.6953    -18.6568    -60.4990      1.6953    -22.7730    -24.8757      0.1083      0.2166      0.2166      0.6817
   1821.5000      1.6963      0.6871      2.2996      0.3129      0.1744      0.4253      0.4992      1.6963      1.4978      1.6720    -18.1587    -60.5039      1.6720    -22.2864    -24.2116      0.1124      0.2249      0.2249      0.6871
   1822.0000      1.6539      0.6899      2.3134      0.3101      0.1742      0.4247      0.4980      1.6539      1.5188      1.6440    -17.8991    -60.5089      1.6440    -22.0384    -23.8655      0.1146      0.2292      0.2292      0.6899
   1822.5000      1.5953      0.6841      2.2850      0.3159      0.1746      0.4260      0.5004      1.5953      1.4758      1.5933    -18.4383    -60.5139      1.5933    -22.5891    -24.5844      0.1102      0.2203      0.2203      0.6841
   1823.0000      1.5376      0.6781      2.2556      0.3219      0.1751      0.4275      0.5029      1.5376      1.4332      1.5425    -18.9947    -60.5188      1.5425    -23.1570    -25.3263      0.1056      0.2111      0.2111      0.6781
   1823.5000      1.4868      0.6730      2.2308      0.3270      0.1754      0.4287      0.5050      1.4868      1.3983      1.4934    -19.4659    -60.5238      1.4934    -23.6397    -25.9545      0.1017      0.2034      0.2034      0.6730
   1824.0000      1.4361      0.6762      2.2464      0.3238      0.1752      0.4279      0.5036      1.4361      1.4200      1.4499    -19.1726    -60.5287      1.4499    -23.3579    -25.5634      0.1041      0.2082      0.2082      0.6762
   1824.5000      1.4142      0.6802      2.2657      0.3198      0.1749      0.4269      0.5020      1.4142      1.4475      1.4331    -18.8098    -60.5337      1.4331    -23.0067    -25.0797      0.1071      0.2143      0.2143      0.6802
   1825.0000      1.3912      0.6827      2.2779      0.3173      0.1747      0.4263      0.5010      1.3912      1.4652      1.4219    -18.5803    -60.5387      1.4219    -22.7887    -24.7738      0.1090      0.2181      0.2181      0.6827
   1825.5000      1.3974      0.6777      2.2536      0.3223      0.1751      0.4275      0.5030      1.3974      1.4301      1.4159    -19.0413    -60.5436      1.4159    -23.2613    -25.3885      0.1052      0.2105      0.2105      0.6777
