~V
VERS. 2.00: Ver 2.00
WRAP.   NO:        
~W
 STRT.FT 670:
 STOP.FT 4300:
 STEP.FT 0.5:
 NULL. -999.250000:
 COMP. Shell (SWEPI, Cal Resources):Company
 WELL. SAN EMIDIO 1A #8-32:Well
 FLD. :Field
 LOC. S32 T11N R22W:Location
 STAT. CA:State
 SRVC. :Service Company
 SON. :Service Order #
 DATE. :Log Date
 UWI. :Unique Well ID
~C
 DEPT.FT :
 LN.OHMM :
 LTHE. :
 MM. :
 PHES. :
 PHMX. :
 PHTS. :
 PHZC. :
 RD.OHMM :
 ROS. :
 RS.OHMM :
 SBL.MV :
 SCLN. :
 SN.OHMM :
 SP.MV :
 SPN. :
 VCDS. :
 VCLY. :
 VCWS. :
 VSHS. :
~P
~A
# ...
   1418.0000      1.8850      2.0813      2.8266      0.0000   -999.2500      0.2903      0.2634      1.8850   -999.2500      1.6402     -3.9794    -49.1304      1.6402     -4.9594     -5.3058      0.2997      0.6244      0.5901      2.0813
   1418.5000      1.9126      2.0696      2.8250      0.0000   -999.2500      0.2905      0.2637      1.9126   -999.2500      1.6508     -4.1660    -49.1347      1.6508     -5.1260     -5.5546      0.2980      0.6209      0.5886      2.0696
   1419.0000      1.9444      2.0566      2.8232      0.0000   -999.2500      0.2908      0.2641      1.9444   -999.2500      1.6629     -4.3712    -49.1390      1.6629     -5.3112     -5.8282      0.2961      0.6170      0.5869      2.0566
   1419.5000      1.9825      2.0426      2.8213      0.0000   -999.2500      0.2910      0.2645      1.9825   -999.2500      1.6726     -4.5920    -49.1433      1.6726     -5.5120     -6.1227      0.2941      0.6128      0.5851      2.0426
   1420.0000      2.0205      2.0302      2.8196      0.0000   -999.2500      0.2912      0.2649      2.0205   -999.2500      1.6789     -4.7890    -49.1476      1.6789     -5.6890     -6.3854      0.2923      0.6091      0.5835      2.0302
   1420.5000      2.0586      2.0177      2.8178      0.0000   -999.2500      0.2914      0.2653      2.0586   -999.2500      1.6837     -4.9866    -49.1520      1.6837     -5.8666     -6.6488      0.2905      0.6053      0.5820      2.0177
   1421.0000      2.0966      2.0036      2.8159      0.0000   -999.2500      0.2916      0.2657      2.0966   -999.2500      1.6884     -5.2097    -49.1563      1.6884     -6.0697     -6.9462      0.2885      0.6011      0.5802      2.0036
   1421.5000      2.1445      1.9687      2.8110      0.0000   -999.2500      0.2922      0.2667      2.1445   -999.2500      1.6920     -5.7625    -49.1606      1.6920     -6.6025     -7.6833      0.2835      0.5906      0.5757      1.9687
   1422.0000      2.1925      1.9257      2.8051      0.0000   -999.2500      0.2930      0.2680      2.1925   -999.2500      1.6955     -6.4424    -49.1649      1.6955     -7.2624     -8.5898      0.2773      0.5777      0.5703      1.9257
   1422.5000      2.2405      1.8624      2.7963      0.0000   -999.2500      0.2905      0.2699      2.2405   -999.2500      1.6996     -7.4427    -49.1692      1.6996     -8.2427     -9.9236      0.2682      0.5587      0.5587      1.8624
   1423.0000      2.2889      1.8027      2.7881      0.0000   -999.2500      0.2812      0.2717      2.2889   -999.2500      1.7051     -8.3874    -49.1735      1.7051     -9.1674    -11.1832      0.2596      0.5408      0.5408      1.8027
   1423.5000      2.3382      1.7653      2.7829      0.0000   -999.2500      0.2754      0.2728      2.3382   -999.2500      1.7131     -8.9798    -49.1778      1.7131     -9.7398    -11.9730      0.2542      0.5296      0.5296      1.7653
   1424.0000      2.3839      1.7539      2.7813      0.0000   -999.2500      0.2736      0.2731      2.3839   -999.2500      1.7227     -9.1593    -49.1822      1.7227     -9.8993    -12.2124      0.2526      0.5262      0.5262      1.7539
   1424.5000      2.2763      1.7840      2.7855      0.0000   -999.2500      0.2783      0.2722      2.2763   -999.2500      1.7323     -8.6843    -49.1865      1.7323     -9.4043    -11.5791      0.2569      0.5352      0.5352      1.7840
   1425.0000      2.1858      1.8265      2.7914      0.0000   -999.2500      0.2849      0.2710      2.1858   -999.2500      1.7420     -8.0136    -49.1908      1.7420     -8.7136    -10.6848      0.2630      0.5480      0.5480      1.8265
   1425.5000      2.1067      1.8796      2.7987      0.0000   -999.2500      0.2932      0.2694      2.1067   -999.2500      1.7575     -7.1750    -49.1951      1.7575     -7.8550     -9.5667      0.2707      0.5639      0.5639      1.8796
   1426.0000      2.0289      1.9322      2.8060      0.0000   -999.2500      0.2928      0.2678      2.0289   -999.2500      1.7788     -6.3441    -49.1994      1.7788     -7.0041     -8.4589      0.2782      0.5796      0.5710      1.9322
   1426.5000      1.9540      1.9763      2.8121      0.0000   -999.2500      0.2920      0.2664      1.9540   -999.2500      1.8048     -5.6464    -49.2037      1.8048     -6.2864     -7.5286      0.2846      0.5929      0.5766      1.9763
   1427.0000      1.8836      2.0148      2.8174      0.0000   -999.2500      0.2914      0.2653      1.8836   -999.2500      1.8218     -5.0380    -49.2080      1.8218     -5.6580     -6.7173      0.2901      0.6044      0.5815      2.0148
   1427.5000      1.8439      2.0483      2.8221      0.0000   -999.2500      0.2908      0.2643      1.8439   -999.2500      1.8574     -4.5089    -49.2124      1.8574     -5.1089     -6.0118      0.2950      0.6145      0.5858      2.0483
   1428.0000      1.8436      2.0762      2.8259      0.0000   -999.2500      0.2903      0.2634      1.8436   -999.2500      1.8875     -4.0684    -49.2167      1.8875     -4.6484     -5.4245      0.2990      0.6228      0.5893      2.0762
   1428.5000      1.8743      2.0885      2.8276      0.0000   -999.2500      0.2901      0.2631      1.8743   -999.2500      1.9331     -3.8734    -49.2210      1.9331     -4.4334     -5.1645      0.3007      0.6266      0.5909      2.0885
   1429.0000      1.9108      2.0946      2.8285      0.0000   -999.2500      0.2900      0.2629      1.9108   -999.2500      1.9812     -3.7779    -49.2253      1.9812     -4.3179     -5.0372      0.3016      0.6284      0.5916      2.0946
   1429.5000      1.9551      2.1025      2.8296      0.0000   -999.2500      0.2899      0.2626      1.9551   -999.2500      1.9921     -3.6532    -49.2296      1.9921     -4.1732     -4.8709      0.3028      0.6307      0.5926      2.1025
   1430.0000      2.0025      2.1204      2.8321      0.0000   -999.2500      0.2896      0.2621      2.0025   -999.2500      1.7478     -3.3699    -49.2339      1.7478     -3.8699     -4.4932      0.3053      0.6361      0.5949      2.1204
   1430.5000      2.0642      2.1452      2.8355      0.0000   -999.2500      0.2891      0.2613      2.0642   -999.2500      1.6084     -2.9777    -49.2382      1.6084     -3.4577     -3.9703      0.3089      0.6436      0.5980      2.1452
   1431.0000      2.1317      2.1687      2.8387      0.0000   -999.2500      0.2887      0.2606      2.1317   -999.2500      1.5927     -2.6056    -49.2426      1.5927     -3.0656     -3.4742      0.3123      0.6506      0.6010      2.1687
   1431.5000      2.2036      2.1909      2.8418      0.0000   -999.2500      0.2883      0.2600      2.2036   -999.2500      1.6070     -2.2547    -49.2469      1.6070     -2.6947     -3.0063      0.3155      0.6573      0.6038      2.1909
   1432.0000      2.2756      2.2035      2.8436      0.0000   -999.2500      0.2881      0.2596      2.2756   -999.2500      1.6501     -2.0557    -49.2512      1.6501     -2.4757     -2.7410      0.3173      0.6610      0.6054      2.2035
   1432.5000      2.3481      2.2093      2.8444      0.0000   -999.2500      0.2880      0.2594      2.3481   -999.2500      1.7421     -1.9630    -49.2555      1.7421     -2.3630     -2.6173      0.3181      0.6628      0.6062      2.2093
   1433.0000      2.4497      2.1966      2.8426      0.0000   -999.2500      0.2882      0.2598      2.4497   -999.2500      1.8779     -2.1642    -49.2598      1.8779     -2.5442     -2.8857      0.3163      0.6590      0.6045      2.1966
   1433.5000      2.5435      2.1736      2.8394      0.0000   -999.2500      0.2886      0.2605      2.5435   -999.2500      2.0226     -2.5289    -49.2641      2.0226     -2.8889     -3.3719      0.3130      0.6521      0.6016      2.1736
   1434.0000      2.6247      2.1430      2.8352      0.0000   -999.2500      0.2891      0.2614      2.6247   -999.2500      2.1534     -3.0148    -49.2684      2.1534     -3.3548     -4.0198      0.3086      0.6429      0.5977      2.1430
   1434.5000      2.6990      2.1177      2.8317      0.0000   -999.2500      0.2896      0.2621      2.6990   -999.2500      2.3283     -3.4148    -49.2728      2.3283     -3.7348     -4.5531      0.3050      0.6353      0.5945      2.1177
