~V
VERS. 2.00: Ver 2.00
WRAP.   NO:        
~W
 STRT.FT 670:
 STOP.FT 4300:
 STEP.FT 0.5:
 NULL. -999.250000:
 COMP. Shell (SWEPI, Cal Resources):Company
 WELL. SAN EMIDIO 1A #8-32:Well
 FLD. :Field
 LOC. S32 T11N R22W:Location
 STAT. CA:State
 SRVC. :Service Company
 SON. :Service Order #
 DATE. :Log Date
 UWI. :Unique Well ID
~C
 DEPT.FT :
 LN.OHMM :
 LTHE. :
 MM. :
 PHES. :
 PHMX. :
 PHTS. :
 PHZC. :
 RD.OHMM :
 ROS. :
 RS.OHMM :
 SBL.MV :
 SCLN. :
 SN.OHMM :
 SP.MV :
 SPN. :
 VCDS. :
 VCLY. :
 VCWS. :
 VSHS. :
~P
~A
# ...
   3016.0000      5.2103      0.8101      2.7492      0.1899      0.1626      0.3735      0.4345      5.2103      2.3689      3.4646    -11.8627    -75.1375      3.4646    -31.8991    -15.8170      0.1836      0.3671      0.3671      0.8101
   3016.5000      5.1659      0.8107      2.7497      0.1893      0.1626      0.3733      0.4343      5.1659      2.3713      3.4017    -11.7967    -75.1635      3.4017    -31.8210    -15.7289      0.1840      0.3681      0.3681      0.8107
   3017.0000      5.1035      0.8121      2.7507      0.1879      0.1625      0.3730      0.4337      5.1035      2.3768      3.3464    -11.6397    -75.1895      3.3464    -31.6518    -15.5196      0.1851      0.3702      0.3702      0.8121
   3017.5000      5.0112      0.8209      2.7568      0.1791      0.1618      0.3708      0.4301      5.0112      2.4104      3.2989    -10.6502    -75.2154      3.2989    -30.6502    -14.2003      0.1917      0.3834      0.3834      0.8209
   3018.0000      4.8785      0.8306      2.7636      0.1694      0.1611      0.3684      0.4261      4.8785      2.4486      3.5388     -9.5546    -75.2414      3.5388    -29.5424    -12.7394      0.1990      0.3980      0.3980      0.8306
   3018.5000      4.6870      0.8377      2.7685      0.1623      0.1606      0.3666      0.4233      4.6870      2.4771      3.7268     -8.7625    -75.2674      3.7268    -28.7383    -11.6834      0.2043      0.4086      0.4086      0.8377
   3019.0000      4.4905      0.8428      2.7721      0.1572      0.1602      0.3654      0.4212      4.4905      2.4980      3.8866     -8.1911    -75.2933      3.8866    -28.1548    -10.9215      0.2081      0.4162      0.4162      0.8428
   3019.5000      4.3500      0.8427      2.7720      0.1573      0.1602      0.3654      0.4212      4.3500      2.4976      4.0308     -8.2070    -75.3193      4.0308    -28.1585    -10.9426      0.2080      0.4160      0.4160      0.8427
   3020.0000      4.6322      0.8404      2.7705      0.1596      0.1604      0.3659      0.4222      4.6322      2.4883      4.1098     -8.4673    -75.3452      4.1098    -28.4067    -11.2897      0.2063      0.4126      0.4126      0.8404
   3020.5000      4.9150      0.8363      2.7677      0.1637      0.1607      0.3669      0.4238      4.9150      2.4717      3.9799     -8.9355    -75.3712      3.9799    -28.8628    -11.9141      0.2032      0.4064      0.4064      0.8363
   3021.0000      5.1742      0.7948      2.7224      0.2052      0.1638      0.3772      0.4407      5.1742      2.2767      3.7463    -13.6483    -75.3972      3.7463    -33.5635    -18.1978      0.1720      0.3440      0.3440      0.7948
   3021.5000      5.4087      0.7841      2.6704      0.2159      0.1646      0.3798      0.4450      5.4087      2.1450      3.4788    -14.8812    -75.4231      3.4788    -34.7842    -19.8415      0.1638      0.3277      0.3277      0.7841
   3022.0000      5.6447      0.7743      2.6233      0.2257      0.1653      0.3822      0.4490      5.6447      2.0341      3.2959    -15.9972    -75.4491      3.2959    -35.8881    -21.3295      0.1565      0.3130      0.3130      0.7743
   3022.5000      5.8696      0.7646      2.5761      0.2354      0.1660      0.3845      0.4530      5.8696      1.9300      3.1673    -17.1157    -75.4751      3.1673    -36.9945    -22.8209      0.1491      0.2982      0.2982      0.7646
   3023.0000      6.0536      0.7543      2.5264      0.2457      0.1668      0.3870      0.4572      6.0536      1.8275      3.0834    -18.2959    -75.5010      3.0834    -38.1626    -24.3945      0.1413      0.2827      0.2827      0.7543
   3023.5000      6.1874      0.7454      2.4828      0.2546      0.1674      0.3892      0.4608      6.1874      1.7432      3.0123    -19.3316    -75.5270      3.0123    -39.1862    -25.7755      0.1345      0.2690      0.2690      0.7454
   3024.0000      6.2817      0.7401      2.4574      0.2599      0.1678      0.3904      0.4630      6.2817      1.6963      2.9669    -19.9387    -75.5529      2.9669    -39.7811    -26.5849      0.1305      0.2611      0.2611      0.7401
   3024.5000      6.2276      0.7383      2.4485      0.2617      0.1679      0.3909      0.4637      6.2276      1.6802      2.9359    -20.1582    -75.5789      2.9359    -39.9885    -26.8777      0.1291      0.2583      0.2583      0.7383
   3025.0000      5.9294      0.7554      2.5313      0.2446      0.1667      0.3867      0.4567      5.9294      1.8371      2.9486    -18.2100    -75.6049      2.9486    -38.0282    -24.2800      0.1421      0.2841      0.2841      0.7554
   3025.5000      5.6378      0.7644      2.5749      0.2356      0.1660      0.3845      0.4530      5.6378      1.9272      2.9632    -17.1867    -75.6308      2.9632    -36.9928    -22.9156      0.1489      0.2978      0.2978      0.7644
   3026.0000      5.3951      0.7728      2.6156      0.2272      0.1654      0.3825      0.4496      5.3951      2.0166      2.9819    -16.2296    -75.6568      2.9819    -36.0236    -21.6395      0.1552      0.3105      0.3105      0.7728
   3026.5000      5.1823      0.7798      2.6498      0.2202      0.1649      0.3807      0.4467      5.1823      2.0955      3.0095    -15.4285    -75.6827      3.0095    -35.2103    -20.5713      0.1606      0.3211      0.3211      0.7798
   3027.0000      5.0813      0.7842      2.6708      0.2158      0.1645      0.3796      0.4449      5.0813      2.1461      3.0484    -14.9362    -75.7087      3.0484    -34.7059    -19.9150      0.1639      0.3277      0.3277      0.7842
   3027.5000      5.1961      0.7858      2.6784      0.2142      0.1644      0.3793      0.4443      5.1961      2.1646      3.0968    -14.7630    -75.7347      3.0968    -34.5206    -19.6841      0.1650      0.3301      0.3301      0.7858
   3028.0000      5.3937      0.7837      2.6684      0.2163      0.1646      0.3798      0.4451      5.3937      2.1401      3.1530    -15.0063    -75.7606      3.1530    -34.7517    -20.0083      0.1635      0.3269      0.3269      0.7837
   3028.5000      5.6758      0.7788      2.6448      0.2212      0.1649      0.3809      0.4471      5.6758      2.0838      3.2162    -15.5704    -75.7866      3.2162    -35.3038    -20.7606      0.1598      0.3195      0.3195      0.7788
   3029.0000      6.0286      0.7723      2.6133      0.2277      0.1654      0.3825      0.4497      6.0286      2.0113      3.2834    -16.3232    -75.8126      3.2834    -36.0444    -21.7643      0.1548      0.3097      0.3097      0.7723
   3029.5000      6.7295      0.7662      2.5837      0.2338      0.1659      0.3840      0.4522      6.7295      1.9461      3.3290    -17.0320    -75.8385      3.3290    -36.7411    -22.7093      0.1502      0.3004      0.3004      0.7662
   3030.0000      7.1839      0.7552      2.5304      0.2448      0.1667      0.3867      0.4567      7.1839      1.8352      3.3629    -18.3025    -75.8645      3.3629    -37.9994    -24.4033      0.1419      0.2837      0.2837      0.7552
   3030.5000      7.4807      0.7448      2.4798      0.2552      0.1675      0.3892      0.4610      7.4807      1.7373      3.3823    -19.5092    -75.8904      3.3823    -39.1941    -26.0123      0.1340      0.2679      0.2679      0.7448
   3031.0000      7.6454      0.7376      2.4451      0.2624      0.1680      0.3909      0.4639      7.6454      1.6740      3.3865    -20.3396    -75.9164      3.3865    -40.0123    -27.1194      0.1285      0.2571      0.2571      0.7376
   3031.5000      7.7726      0.7319      2.4174      0.2681      0.1684      0.3923      0.4662      7.7726      1.6254      3.3927    -21.0060    -75.9424      3.3927    -40.6666    -28.0081      0.1242      0.2484      0.2484      0.7319
   3032.0000      7.8484      0.7277      2.3967      0.2723      0.1687      0.3933      0.4680      7.8484      1.5904      3.4074    -21.5041    -75.9683      3.4074    -41.1526    -28.6721      0.1210      0.2419      0.2419      0.7277
   3032.5000      7.7511      0.7253      2.3852      0.2747      0.1689      0.3938      0.4689      7.7511      1.5713      3.4068    -21.7860    -75.9943      3.4068    -41.4224    -29.0481      0.1192      0.2383      0.2383      0.7253
