~V
VERS. 2.00: Ver 2.00
WRAP.   NO:        
~W
 STRT.FT 670:
 STOP.FT 4300:
 STEP.FT 0.5:
 NULL. -999.250000:
 COMP. Shell (SWEPI, Cal Resources):Company
 WELL. SAN EMIDIO 1A #8-32:Well
 FLD. :Field
 LOC. S32 T11N R22W:Location
 STAT. CA:State
 SRVC. :Service Company
 SON. :Service Order #
 DATE. :Log Date
 UWI. :Unique Well ID
~C
 DEPT.FT :
 LN.OHMM :
 LTHE. :
 MM. :
 PHES. :
 PHMX. :
 PHTS. :
 PHZC. :
 RD.OHMM :
 ROS. :
 RS.OHMM :
 SBL.MV :
 SCLN. :
 SN.OHMM :
 SP.MV :
 SPN. :
 VCDS. :
 VCLY. :
 VCWS. :
 VSHS. :
~P
~A
# ...
   3288.0000      5.7549      0.7890      2.6842      0.2110      0.1636      0.3737      0.4398      5.7549      2.1732      3.5958    -13.4303    -67.2750      3.5958    -26.8727    -17.9071      0.1627      0.3254      0.3254      0.7890
   3288.5000      5.7958      0.7823      2.6522      0.2177      0.1641      0.3753      0.4425      5.7958      2.0952      3.7085    -14.1048    -67.2750      3.7085    -27.5352    -18.8065      0.1577      0.3153      0.3153      0.7823
   3289.0000      5.8516      0.7764      2.6232      0.2236      0.1645      0.3768      0.4449      5.8516      2.0278      3.8028    -14.7137    -67.2750      3.8028    -28.1319    -19.6183      0.1531      0.3063      0.3063      0.7764
   3289.5000      5.9186      0.7704      2.5944      0.2296      0.1650      0.3782      0.4474      5.9186      1.9633      3.8914    -15.3206    -67.2750      3.8914    -28.7267    -20.4275      0.1486      0.2973      0.2973      0.7704
   3290.0000      6.0033      0.7657      2.5718      0.2343      0.1653      0.3794      0.4493      6.0033      1.9145      3.9768    -15.7963    -67.2750      3.9768    -29.1903    -21.0618      0.1451      0.2902      0.2902      0.7657
   3290.5000      6.0449      0.7619      2.5532      0.2381      0.1656      0.3803      0.4508      6.0449      1.8755      4.0486    -16.1890    -67.2750      4.0486    -29.5709    -21.5854      0.1422      0.2844      0.2844      0.7619
   3291.0000      6.0142      0.7599      2.5433      0.2401      0.1658      0.3808      0.4517      6.0142      1.8552      4.1046    -16.3974    -67.2750      4.1046    -29.7671    -21.8632      0.1406      0.2813      0.2813      0.7599
   3291.5000      5.9734      0.7597      2.5427      0.2403      0.1658      0.3808      0.4517      5.9734      1.8539      4.1221    -16.4115    -67.2750      4.1221    -29.7690    -21.8819      0.1405      0.2811      0.2811      0.7597
   3292.0000      5.9161      0.7605      2.5465      0.2395      0.1657      0.3806      0.4514      5.9161      1.8616      3.9617    -16.3331    -67.2750      3.9617    -29.6785    -21.7774      0.1411      0.2822      0.2822      0.7605
   3292.5000      5.8419      0.7623      2.5550      0.2377      0.1656      0.3801      0.4506      5.8419      1.8792      3.8133    -16.1545    -67.2750      3.8133    -29.4878    -21.5393      0.1424      0.2849      0.2849      0.7623
   3293.0000      5.7668      0.7647      2.5666      0.2353      0.1654      0.3796      0.4497      5.7668      1.9033      3.6976    -15.9124    -67.2750      3.6976    -29.2336    -21.2165      0.1442      0.2885      0.2885      0.7647
   3293.5000      5.7068      0.7682      2.5838      0.2318      0.1651      0.3787      0.4482      5.7068      1.9401      3.5983    -15.5504    -67.2750      3.5983    -28.8595    -20.7339      0.1469      0.2939      0.2939      0.7682
   3294.0000      5.6475      0.7731      2.6071      0.2269      0.1648      0.3775      0.4462      5.6475      1.9913      3.5042    -15.0616    -67.2750      3.5042    -28.3585    -20.0821      0.1506      0.3011      0.3011      0.7731
   3294.5000      5.5755      0.7782      2.6317      0.2218      0.1644      0.3763      0.4441      5.5755      2.0472      3.4433    -14.5445    -67.2750      3.4433    -27.8293    -19.3926      0.1544      0.3088      0.3088      0.7782
   3295.0000      5.4990      0.7831      2.6558      0.2169      0.1640      0.3750      0.4421      5.4990      2.1038      3.3848    -14.0395    -67.2750      3.3848    -27.3123    -18.7194      0.1582      0.3163      0.3163      0.7831
   3295.5000      5.4239      0.7873      2.6758      0.2127      0.1637      0.3740      0.4404      5.4239      2.1524      3.3455    -13.6188    -67.2750      3.3455    -26.8794    -18.1584      0.1613      0.3226      0.3226      0.7873
   3296.0000      5.3183      0.7905      2.6912      0.2095      0.1635      0.3732      0.4391      5.3183      2.1907      3.3361    -13.2961    -67.2750      3.3361    -26.5445    -17.7281      0.1637      0.3274      0.3274      0.7905
   3296.5000      5.2292      0.7928      2.7023      0.2072      0.1633      0.3726      0.4382      5.2292      2.2187      3.3295    -13.0646    -67.2750      3.3295    -26.3010    -17.4195      0.1654      0.3308      0.3308      0.7928
   3297.0000      5.1809      0.7941      2.7089      0.2059      0.1632      0.3723      0.4376      5.1809      2.2357      3.3287    -12.9262    -67.2750      3.3287    -26.1504    -17.2349      0.1664      0.3329      0.3329      0.7941
   3297.5000      5.2382      0.7863      2.6709      0.2137      0.1638      0.3742      0.4408      5.2382      2.1402      3.3331    -13.7268    -67.2750      3.3331    -26.9389    -18.3024      0.1605      0.3210      0.3210      0.7863
   3298.0000      5.3079      0.7825      2.6525      0.2175      0.1641      0.3751      0.4423      5.3079      2.0958      3.3378    -14.1142    -67.2750      3.3378    -27.3142    -18.8190      0.1576      0.3152      0.3152      0.7825
   3298.5000      5.4030      0.7828      2.6540      0.2172      0.1640      0.3750      0.4422      5.4030      2.0994      3.3273    -14.0833    -67.2750      3.3273    -27.2712    -18.7778      0.1578      0.3157      0.3157      0.7828
   3299.0000      5.5092      0.7836      2.6579      0.2164      0.1640      0.3748      0.4419      5.5092      2.1087      3.3364    -14.0024    -67.2750      3.3364    -27.1782    -18.6699      0.1584      0.3169      0.3169      0.7836
   3299.5000      5.6157      0.7847      2.6633      0.2153      0.1639      0.3746      0.4414      5.6157      2.1218      3.3718    -13.8890    -67.2750      3.3718    -27.0527    -18.5187      0.1593      0.3185      0.3185      0.7847
   3300.0000      5.7223      0.7873      2.6760      0.2127      0.1637      0.3739      0.4403      5.7223      2.1527      3.4569    -13.6235    -67.2750      3.4569    -26.7750    -18.1646      0.1612      0.3225      0.3225      0.7873
   3300.5000      5.8295      0.7903      2.6905      0.2097      0.1635      0.3732      0.4391      5.8295      2.1888      3.5586    -13.3192    -67.2750      3.5586    -26.4586    -17.7590      0.1635      0.3270      0.3270      0.7903
   3301.0000      5.9412      0.7933      2.7047      0.2067      0.1633      0.3724      0.4379      5.9412      2.2248      3.6826    -13.0220    -67.2750      3.6826    -26.1493    -17.3627      0.1657      0.3314      0.3314      0.7933
   3301.5000      6.0559      0.7953      2.7142      0.2047      0.1631      0.3719      0.4371      6.0559      2.2493      3.8102    -12.8232    -67.2750      3.8102    -25.9384    -17.0976      0.1672      0.3344      0.3344      0.7953
   3302.0000      6.1713      0.7950      2.7130      0.2050      0.1631      0.3720      0.4372      6.1713      2.2463      3.9500    -12.8482    -67.2750      3.9500    -25.9513    -17.1310      0.1670      0.3340      0.3340      0.7950
   3302.5000      6.2870   -999.2500   -999.2500   -999.2500   -999.2500   -999.2500   -999.2500      6.2870   -999.2500      3.8646    -13.1724   -999.2500      3.8646    -26.2633    -17.5631   -999.2500   -999.2500   -999.2500   -999.2500
   3303.0000      6.4172   -999.2500   -999.2500   -999.2500   -999.2500   -999.2500   -999.2500      6.4172   -999.2500      3.7422    -13.8937   -999.2500      3.7422    -26.9725    -18.5250   -999.2500   -999.2500   -999.2500   -999.2500
   3303.5000      6.6840   -999.2500   -999.2500   -999.2500   -999.2500   -999.2500   -999.2500      6.6840   -999.2500      3.6529    -14.7405   -999.2500      3.6529    -27.8071    -19.6539   -999.2500   -999.2500   -999.2500   -999.2500
   3304.0000      8.0659   -999.2500   -999.2500   -999.2500   -999.2500   -999.2500   -999.2500      8.0659   -999.2500      3.5992    -15.6073   -999.2500      3.5992    -28.6619    -20.8097   -999.2500   -999.2500   -999.2500   -999.2500
   3304.5000     10.6849   -999.2500   -999.2500   -999.2500   -999.2500   -999.2500   -999.2500     10.6849   -999.2500      3.9039    -16.2983   -999.2500      3.9039    -29.3407    -21.7310   -999.2500   -999.2500   -999.2500   -999.2500
