~V
VERS. 2.00: Ver 2.00
WRAP.   NO:        
~W
 STRT.FT 1000:
 STOP.FT 8280:
 STEP.FT 0.5:
 NULL. -999.250000:
 COMP. Conoco:Company
 WELL. KCL M-1:Well
 FLD. :Field
 LOC. S27 T11N R22W:Location
 STAT. CA:State
 SRVC. :Service Company
 SON. :Service Order #
 DATE. :Log Date
 UWI. 3712400:Unique Well ID
~C
 DEPT.FT :
 18'.OHMM :
 9'.OHMM :
 LTHE. :
 MM. :
 PHES. :
 PHMX. :
 PHTS. :
 PHZC. :
 RD.OHMM :
 RM.OHMM :
 ROS. :
 RS.OHMM :
 SBL.MV :
 SCLN. :
 SN.OHMM :
 SP.MV :
 SPN. :
 VCDS. :
 VCLY. :
 VCWS. :
 VSHS. :
~P
~A
# ...
   7324.0000   -999.2500      3.3210      2.0302      3.0768      0.0000   -999.2500      0.3167      0.1837   -999.2500      3.3210   -999.2500      3.4440     -7.5024    -52.5000      3.4440    -28.6120     -6.8203      0.2923      0.6091      0.6091      2.0302
   7324.5000   -999.2500      3.3910      2.0127      3.0745      0.0000   -999.2500      0.3140      0.1842   -999.2500      3.3910   -999.2500      3.5340     -7.9350    -52.5000      3.5340    -29.0420     -7.2136      0.2898      0.6038      0.6038      2.0127
   7325.0000   -999.2500      3.4610      1.9966      3.0722      0.0000   -999.2500      0.3115      0.1847   -999.2500      3.4610   -999.2500      3.5340     -8.3336    -52.5000      3.5340    -29.4380     -7.5760      0.2875      0.5990      0.5990      1.9966
   7325.5000   -999.2500      3.5310      2.0221      3.0758      0.0000   -999.2500      0.3154      0.1839   -999.2500      3.5310   -999.2500      3.5140     -7.7033    -52.5000      3.5140    -28.8050     -7.0030      0.2912      0.6066      0.6066      2.0221
   7326.0000   -999.2500      3.6410      2.0757      3.0833      0.0000   -999.2500      0.3238      0.1823   -999.2500      3.6410   -999.2500      3.4810     -6.3759    -52.5000      3.4810    -27.4750     -5.7963      0.2989      0.6227      0.6227      2.0757
   7326.5000   -999.2500      3.7210      2.1214      3.0896      0.0000   -999.2500      0.3309      0.1809   -999.2500      3.7210   -999.2500      3.3250     -5.2466    -52.5000      3.3250    -26.3430     -4.7696      0.3055      0.6364      0.6364      2.1214
   7327.0000   -999.2500      3.8510      2.1723      3.0967      0.0000   -999.2500      0.3389      0.1794   -999.2500      3.8510   -999.2500      3.2920     -3.9862    -52.5000      3.2920    -25.0800     -3.6238      0.3128      0.6517      0.6517      2.1723
   7327.5000   -999.2500      3.5520      2.2072      3.1015      0.0000   -999.2500      0.3443      0.1783   -999.2500      3.5520   -999.2500      3.2950     -3.1229    -52.5000      3.2950    -24.2140     -2.8390      0.3178      0.6621      0.6621      2.2072
   7328.0000   -999.2500      3.3330      2.2092      3.1018      0.0000   -999.2500      0.3446      0.1783   -999.2500      3.3330   -999.2500      3.2990     -3.0735    -52.5000      3.2990    -24.1620     -2.7941      0.3181      0.6627      0.6627      2.2092
   7328.5000   -999.2500      3.1740      2.2111      3.1021      0.0000   -999.2500      0.3449      0.1782   -999.2500      3.1740   -999.2500      3.2160     -3.0241    -52.5000      3.2160    -24.1100     -2.7492      0.3184      0.6633      0.6633      2.2111
   7329.0000   -999.2500      3.1350      2.2017      3.1009      0.0000   -999.2500      0.3435      0.1785   -999.2500      3.1350   -999.2500      3.1430     -3.2568    -52.5000      3.1430    -24.3400     -2.9607      0.3171      0.6605      0.6605      2.2017
   7329.5000   -999.2500      3.0850      2.1830      3.0983      0.0000   -999.2500      0.3405      0.1790   -999.2500      3.0850   -999.2500      3.0430     -3.7214    -52.5000      3.0430    -24.8020     -3.3831      0.3143      0.6549      0.6549      2.1830
   7330.0000   -999.2500      3.0360      2.1668      3.0961      0.0000   -999.2500      0.3380      0.1795   -999.2500      3.0360   -999.2500      2.9940     -4.1211    -52.5000      2.9940    -25.1990     -3.7464      0.3120      0.6500      0.6500      2.1668
   7330.5000   -999.2500      2.9170      2.1467      3.0933      0.0000   -999.2500      0.3349      0.1801   -999.2500      2.9170   -999.2500      2.9410     -4.6187    -52.5000      2.9410    -25.6940     -4.1988      0.3091      0.6440      0.6440      2.1467
   7331.0000   -999.2500      2.8370      2.1373      3.0921      0.0000   -999.2500      0.3334      0.1804   -999.2500      2.8370   -999.2500      2.9010     -4.8513    -52.5000      2.9010    -25.9240     -4.4103      0.3078      0.6412      0.6412      2.1373
   7331.5000   -999.2500      2.8080      2.1225      3.0900      0.0000   -999.2500      0.3311      0.1808   -999.2500      2.8080   -999.2500      2.8410     -5.2170    -52.5000      2.8410    -26.2870     -4.7427      0.3056      0.6368      0.6368      2.1225
   7332.0000   -999.2500      2.8080      2.1252      3.0904      0.0000   -999.2500      0.3315      0.1807   -999.2500      2.8080   -999.2500      2.7880     -5.1506    -52.5000      2.7880    -26.2180     -4.6824      0.3060      0.6376      0.6376      2.1252
   7332.5000   -999.2500      2.8230      2.1534      3.0944      0.0000   -999.2500      0.3359      0.1799   -999.2500      2.8230   -999.2500      2.6860     -4.4543    -52.5000      2.6860    -25.5190     -4.0493      0.3101      0.6460      0.6460      2.1534
   7333.0000   -999.2500      2.8380      2.1748      3.0974      0.0000   -999.2500      0.3393      0.1792   -999.2500      2.8380   -999.2500      2.5500     -3.9229    -52.5000      2.5500    -24.9850     -3.5663      0.3132      0.6524      0.6524      2.1748
   7333.5000   -999.2500      3.0480      2.2030      3.1013      0.0000   -999.2500      0.3437      0.1784   -999.2500      3.0480   -999.2500      2.4230     -3.2266    -52.5000      2.4230    -24.2860     -2.9332      0.3172      0.6609      0.6609      2.2030
   7334.0000   -999.2500      3.2870      2.2338      3.1056      0.0000   -999.2500      0.3485      0.1774   -999.2500      3.2870   -999.2500      2.3110     -2.4632    -52.5000      2.3110    -23.5200     -2.2393      0.3217      0.6701      0.6701      2.2338
   7334.5000   -999.2500      3.3970      2.2593      3.1091      0.0000   -999.2500      0.3524      0.1766   -999.2500      3.3970   -999.2500      2.2380     -1.8328    -52.5000      2.2380    -22.8870     -1.6662      0.3253      0.6778      0.6778      2.2593
   7335.0000   -999.2500      3.1880      2.2794      3.1119      0.0000   -999.2500      0.3556      0.1760   -999.2500      3.1880   -999.2500      2.2550     -1.3345    -52.5000      2.2550    -22.3860     -1.2132      0.3282      0.6838      0.6838      2.2794
   7335.5000   -999.2500      3.1240      2.2888      3.1133      0.0000   -999.2500      0.3570      0.1757   -999.2500      3.1240   -999.2500      2.2180     -1.1031    -52.5000      2.2180    -22.1520     -1.0028      0.3296      0.6866      0.6866      2.2888
   7336.0000   -999.2500      3.0590      2.2914      3.1137      0.0000   -999.2500      0.3575      0.1757   -999.2500      3.0590   -999.2500      2.1580     -1.0368    -52.5000      2.1580    -22.0830     -0.9425      0.3300      0.6874      0.6874      2.2914
   7336.5000   -999.2500      2.7810      2.2928      3.1139      0.0000   -999.2500      0.3577      0.1756   -999.2500      2.7810   -999.2500      2.1440     -1.0044    -52.5000      2.1440    -22.0480     -0.9131      0.3302      0.6878      0.6878      2.2928
   7337.0000   -999.2500      2.7410      2.2927      3.1139      0.0000   -999.2500      0.3577      0.1756   -999.2500      2.7410   -999.2500      2.1290     -1.0050    -52.5000      2.1290    -22.0460     -0.9137      0.3302      0.6878      0.6878      2.2927
   7337.5000   -999.2500      2.6870      2.2887      3.1134      0.0000   -999.2500      0.3570      0.1757   -999.2500      2.6870   -999.2500      2.1170     -1.1037    -52.5000      2.1170    -22.1420     -1.0034      0.3296      0.6866      0.6866      2.2887
   7338.0000   -999.2500      2.6320      2.2873      3.1132      0.0000   -999.2500      0.3568      0.1757   -999.2500      2.6320   -999.2500      2.1060     -1.1383    -52.5000      2.1060    -22.1740     -1.0348      0.3294      0.6862      0.6862      2.2873
   7338.5000   -999.2500      2.5480      2.2806      3.1123      0.0000   -999.2500      0.3558      0.1759   -999.2500      2.5480   -999.2500      2.0960     -1.3040    -52.5000      2.0960    -22.3370     -1.1854      0.3284      0.6842      0.6842      2.2806
   7339.0000   -999.2500      2.4630      2.2874      3.1133      0.0000   -999.2500      0.3568      0.1757   -999.2500      2.4630   -999.2500      2.0860     -1.1376    -52.5000      2.0860    -22.1680     -1.0342      0.3294      0.6862      0.6862      2.2874
