~V
VERS. 2.00: Ver 2.00
WRAP.   NO:        
~W
 STRT.FT 1000:
 STOP.FT 8280:
 STEP.FT 0.5:
 NULL. -999.250000:
 COMP. Conoco:Company
 WELL. KCL M-1:Well
 FLD. :Field
 LOC. S27 T11N R22W:Location
 STAT. CA:State
 SRVC. :Service Company
 SON. :Service Order #
 DATE. :Log Date
 UWI. 3712400:Unique Well ID
~C
 DEPT.FT :
 18'.OHMM :
 9'.OHMM :
 LTHE. :
 MM. :
 PHES. :
 PHMX. :
 PHTS. :
 PHZC. :
 RD.OHMM :
 RM.OHMM :
 ROS. :
 RS.OHMM :
 SBL.MV :
 SCLN. :
 SN.OHMM :
 SP.MV :
 SPN. :
 VCDS. :
 VCLY. :
 VCWS. :
 VSHS. :
~P
~A
# ...
   7882.0000      4.2840      7.9950      0.1370      2.1281      0.2116   -999.2500      0.2330      0.2312      4.2840      7.9950   -999.2500   -999.2500    -92.3289    -93.0419   -999.2500   -100.0110    -83.9354      0.0197      0.0411      0.0411      0.1370
   7882.5000      4.3440      7.7270      0.1720      2.1387      0.2055   -999.2500      0.2324      0.2301      4.3440      7.7270   -999.2500   -999.2500    -89.7751    -93.0425   -999.2500    -97.4520    -81.6137      0.0248      0.0516      0.0516      0.1720
   7883.0000      4.3890      7.5580      0.2069      2.1492      0.1995   -999.2500      0.2318      0.2291      4.3890      7.5580   -999.2500   -999.2500    -87.2222    -93.0432   -999.2500    -94.8940    -79.2929      0.0298      0.0621      0.0621      0.2069
   7883.5000      4.4340      7.3300      0.2105      2.1503      0.1989   -999.2500      0.2317      0.2290      4.4340      7.3300   -999.2500   -999.2500    -86.9603    -93.0438   -999.2500    -94.6270    -79.0549      0.0303      0.0631      0.0631      0.2105
   7884.0000      4.4100      7.2300      0.2141      2.1514      0.1982   -999.2500      0.2316      0.2288      4.4100      7.2300   -999.2500   -999.2500    -86.6985    -93.0444   -999.2500    -94.3600    -78.8168      0.0308      0.0642      0.0642      0.2141
   7884.5000      4.3850      7.1910      0.2159      2.1519      0.1979   -999.2500      0.2316      0.2288      4.3850      7.1910   -999.2500   -999.2500    -86.5676    -93.0450   -999.2500    -94.2240    -78.6978      0.0311      0.0648      0.0648      0.2159
   7885.0000      4.3360      7.2310      0.2167      2.1522      0.1977   -999.2500      0.2316      0.2287      4.3360      7.2310   -999.2500   -999.2500    -86.5047    -93.0457   -999.2500    -94.1560    -78.6407      0.0312      0.0650      0.0650      0.2167
   7885.5000      4.2970      7.3010      0.2090      2.1499      0.1991   -999.2500      0.2317      0.2290      4.2970      7.3010   -999.2500   -999.2500    -87.0708    -93.0463   -999.2500    -94.7170    -79.1553      0.0301      0.0627      0.0627      0.2090
   7886.0000      4.2720      7.4110      0.2040      2.1484      0.1999   -999.2500      0.2318      0.2291      4.2720      7.4110   -999.2500   -999.2500    -87.4400    -93.0469   -999.2500    -95.0810    -79.4909      0.0294      0.0612      0.0612      0.2040
   7886.5000      4.2470      7.6010      0.1912      2.1447      0.2021   -999.2500      0.2320      0.2295      4.2470      7.6010   -999.2500   -999.2500    -88.3711    -93.0475   -999.2500    -96.0070    -80.3374      0.0275      0.0574      0.0574      0.1912
   7887.0000      4.2180      7.7250      0.1731      2.1392      0.2053   -999.2500      0.2323      0.2300      4.2180      7.7250   -999.2500   -999.2500    -89.7012    -93.0482   -999.2500    -97.3320    -81.5466      0.0249      0.0519      0.0519      0.1731
   7887.5000      4.1990      7.8500      0.1408      2.1296      0.2108   -999.2500      0.2328      0.2310      4.1990      7.8500   -999.2500   -999.2500    -92.0584    -93.0488   -999.2500    -99.6840    -83.6894      0.0203      0.0422      0.0422      0.1408
   7888.0000      4.1890      8.1090      0.0840      2.1126      0.2207   -999.2500      0.2338      0.2327      4.1890      8.1090   -999.2500   -999.2500    -96.2155    -93.0494   -999.2500   -103.8360    -87.4686      0.0121      0.0252      0.0252      0.0840
   7888.5000      4.1790      8.0100      0.0903      2.1145      0.2196   -999.2500      0.2337      0.2325      4.1790      8.0100   -999.2500   -999.2500    -95.7546    -93.0500   -999.2500   -103.3700    -87.0497      0.0130      0.0271      0.0271      0.0903
   7889.0000      4.1600      7.6220      0.1002      2.1175      0.2178   -999.2500      0.2335      0.2322      4.1600      7.6220   -999.2500   -999.2500    -95.0287    -93.0507   -999.2500   -102.6390    -86.3898      0.0144      0.0301      0.0301      0.1002
   7889.5000      4.1510      7.1350      0.1143      2.1217      0.2154   -999.2500      0.2332      0.2317      4.1510      7.1350   -999.2500   -999.2500    -94.0019    -93.0513   -999.2500   -101.6070    -85.4563      0.0165      0.0343      0.0343      0.1143
   7890.0000      4.1510      6.8770      0.1283      2.1260      0.2130   -999.2500      0.2330      0.2313      4.1510      6.8770   -999.2500   -999.2500    -92.9750    -93.0519   -999.2500   -100.5750    -84.5227      0.0185      0.0385      0.0385      0.1283
   7890.5000      4.1510      6.6190      0.1424      2.1302      0.2105   -999.2500      0.2327      0.2309      4.1510      6.6190   -999.2500   -999.2500    -91.9491    -93.0526   -999.2500    -99.5440    -83.5901      0.0205      0.0427      0.0427      0.1424
   7891.0000      4.1520      6.0720      0.1564      2.1344      0.2081   -999.2500      0.2325      0.2305      4.1520      6.0720   -999.2500   -999.2500    -90.9223    -93.0532   -999.2500    -98.5120    -82.6566      0.0225      0.0469      0.0469      0.1564
   7891.5000      4.1520      5.8440      0.1705      2.1387      0.2056   -999.2500      0.2322      0.2300      4.1520      5.8440   -999.2500   -999.2500    -89.8954    -93.0538   -999.2500    -97.4800    -81.7231      0.0245      0.0511      0.0511      0.1705
   7892.0000      4.1330      5.7750      0.1845      2.1429      0.2032   -999.2500      0.2320      0.2296      4.1330      5.7750   -999.2500   -999.2500    -88.8705    -93.0544   -999.2500    -96.4500    -80.7914      0.0266      0.0553      0.0553      0.1845
   7892.5000      4.0930      5.7450      0.1985      2.1472      0.2008   -999.2500      0.2317      0.2292      4.0930      5.7450   -999.2500   -999.2500    -87.8466    -93.0551   -999.2500    -95.4210    -79.8606      0.0286      0.0596      0.0596      0.1985
   7893.0000      4.0540      5.6760      0.1976      2.1469      0.2009   -999.2500      0.2317      0.2292      4.0540      5.6760   -999.2500   -999.2500    -87.9148    -93.0557   -999.2500    -95.4840    -79.9225      0.0285      0.0593      0.0593      0.1976
   7893.5000      3.9450      5.6060      0.1858      2.1434      0.2030   -999.2500      0.2319      0.2295      3.9450      5.6060   -999.2500   -999.2500    -88.7799    -93.0563   -999.2500    -96.3440    -80.7090      0.0267      0.0557      0.0557      0.1858
   7894.0000      3.8760      5.5570      0.1630      2.1366      0.2069   -999.2500      0.2323      0.2302      3.8760      5.5570   -999.2500   -999.2500    -90.4420    -93.0569   -999.2500    -98.0010    -82.2200      0.0235      0.0489      0.0489      0.1630
   7894.5000      3.8160      5.5270      0.1526      2.1335      0.2087   -999.2500      0.2325      0.2305      3.8160      5.5270   -999.2500   -999.2500    -91.2082    -93.0576   -999.2500    -98.7620    -82.9165      0.0220      0.0458      0.0458      0.1526
   7895.0000      3.7870      5.4980      0.1407      2.1300      0.2107   -999.2500      0.2327      0.2309      3.7870      5.4980   -999.2500   -999.2500    -92.0733    -93.0582   -999.2500    -99.6220    -83.7030      0.0203      0.0422      0.0422      0.1407
   7895.5000      3.7620      5.4630      0.0576      2.1050      0.2251   -999.2500      0.2341      0.2333      3.7620      5.4630   -999.2500   -999.2500    -98.1534    -93.0588   -999.2500   -105.6970    -89.2304      0.0083      0.0173      0.0173      0.0576
   7896.0000      3.7380      5.4290      0.0612      2.1061      0.2245   -999.2500      0.2340      0.2332      3.7380      5.4290   -999.2500   -999.2500    -97.8915    -93.0594   -999.2500   -105.4300    -88.9923      0.0088      0.0184      0.0184      0.0612
   7896.5000      3.6990      5.3600      0.0761      2.1106      0.2219   -999.2500      0.2338      0.2328      3.6990      5.3600   -999.2500   -999.2500    -96.8007    -93.0601   -999.2500   -104.3340    -88.0006      0.0110      0.0228      0.0228      0.0761
   7897.0000      3.6990      5.3110      0.0967      2.1168      0.2183   -999.2500      0.2334      0.2321      3.6990      5.3110   -999.2500   -999.2500    -95.2978    -93.0607   -999.2500   -102.8260    -86.6344      0.0139      0.0290      0.0290      0.0967
