~V
VERS. 2.00: Ver 2.00
WRAP.   NO:        
~W
 STRT.FT 1000:
 STOP.FT 8280:
 STEP.FT 0.5:
 NULL. -999.250000:
 COMP. Conoco:Company
 WELL. KCL M-1:Well
 FLD. :Field
 LOC. S27 T11N R22W:Location
 STAT. CA:State
 SRVC. :Service Company
 SON. :Service Order #
 DATE. :Log Date
 UWI. 3712400:Unique Well ID
~C
 DEPT.FT :
 18'.OHMM :
 9'.OHMM :
 LTHE. :
 MM. :
 PHES. :
 PHMX. :
 PHTS. :
 PHZC. :
 RD.OHMM :
 RM.OHMM :
 ROS. :
 RS.OHMM :
 SBL.MV :
 SCLN. :
 SN.OHMM :
 SP.MV :
 SPN. :
 VCDS. :
 VCLY. :
 VCWS. :
 VSHS. :
~P
~A
# ...
   6750.5000   -999.2500      4.4080      2.2662      3.0789      0.0000   -999.2500      0.3535      0.1862   -999.2500      4.4080   -999.2500      2.6470     -1.6617    -52.5000      2.6470    -36.3540     -1.5106      0.3263      0.6799      0.6799      2.2662
   6751.0000   -999.2500      3.9020      2.2215      3.0728      0.0000   -999.2500      0.3466      0.1875   -999.2500      3.9020   -999.2500      2.6670     -2.7684    -52.5000      2.6670    -37.4450     -2.5167      0.3199      0.6664      0.6664      2.2215
   6751.5000   -999.2500      3.5740      2.1821      3.0673      0.0000   -999.2500      0.3404      0.1887   -999.2500      3.5740   -999.2500      2.7170     -3.7430    -52.5000      2.7170    -38.4040     -3.4028      0.3142      0.6546      0.6546      2.1821
   6752.0000   -999.2500      3.0980      2.1494      3.0628      0.0000   -999.2500      0.3353      0.1897   -999.2500      3.0980   -999.2500      2.8270     -4.5517    -52.5000      2.8270    -39.1970     -4.1379      0.3095      0.6448      0.6448      2.1494
   6752.5000   -999.2500      2.9290      2.1208      3.0589      0.0000   -999.2500      0.3308      0.1905   -999.2500      2.9290   -999.2500      2.9310     -5.2604    -52.5000      2.9310    -39.8900     -4.7822      0.3054      0.6362      0.6362      2.1208
   6753.0000   -999.2500      2.7810      2.0988      3.0559      0.0000   -999.2500      0.3274      0.1912   -999.2500      2.7810   -999.2500      3.0360     -5.8040    -52.5000      3.0360    -40.4180     -5.2764      0.3022      0.6296      0.6296      2.0988
   6753.5000   -999.2500      2.7220      2.0863      3.0542      0.0000   -999.2500      0.3255      0.1915   -999.2500      2.7220   -999.2500      3.3020     -6.1147    -52.5000      3.3020    -40.7130     -5.5588      0.3004      0.6259      0.6259      2.0863
   6754.0000   -999.2500      2.7620      2.0804      3.0534      0.0000   -999.2500      0.3245      0.1917   -999.2500      2.7620   -999.2500      3.4680     -6.2604    -52.5000      3.4680    -40.8430     -5.6913      0.2996      0.6241      0.6241      2.0804
   6754.5000   -999.2500      2.8580      2.0718      3.0522      0.0000   -999.2500      0.3232      0.1919   -999.2500      2.8580   -999.2500      3.9360     -6.4720    -52.5000      3.9360    -41.0390     -5.8837      0.2983      0.6216      0.6216      2.0718
   6755.0000   -999.2500      2.9530      2.0606      3.0507      0.0000   -999.2500      0.3215      0.1923   -999.2500      2.9530   -999.2500      4.8150     -6.7497    -52.5000      4.8150    -41.3010     -6.1361      0.2967      0.6182      0.6182      2.0606
   6755.5000   -999.2500      3.2820      2.0373      3.0475      0.0000   -999.2500      0.3178      0.1930   -999.2500      3.2820   -999.2500      5.3990     -7.3264    -52.5000      5.3990    -41.8620     -6.6604      0.2934      0.6112      0.6112      2.0373
   6756.0000   -999.2500      3.8400      2.0020      3.0426      0.0000   -999.2500      0.3123      0.1940   -999.2500      3.8400   -999.2500      5.7900     -8.2011    -52.5000      5.7900    -42.7210     -7.4555      0.2883      0.6006      0.6006      2.0020
   6756.5000   -999.2500      4.5670      1.9733      3.0387      0.0000   -999.2500      0.3078      0.1949   -999.2500      4.5670   -999.2500      6.0460     -8.9107    -52.5000      6.0460    -43.4150     -8.1007      0.2842      0.5920      0.5920      1.9733
   6757.0000   -999.2500      4.8370      1.9205      3.0314      0.0000   -999.2500      0.2996      0.1964   -999.2500      4.8370   -999.2500      6.1860    -10.2164    -52.5000      6.1860    -44.7050     -9.2876      0.2766      0.5762      0.5762      1.9205
   6757.5000   -999.2500      4.8570      1.8584      3.0228      0.0000   -999.2500      0.2899      0.1983   -999.2500      4.8570   -999.2500      6.4310    -11.7551    -52.5000      6.4310    -46.2280    -10.6864      0.2676      0.5575      0.5575      1.8584
   6758.0000   -999.2500      4.8580      1.8096      3.0161      0.0000   -999.2500      0.2823      0.1997   -999.2500      4.8580   -999.2500      6.6570    -12.9617    -52.5000      6.6570    -47.4190    -11.7834      0.2606      0.5429      0.5429      1.8096
   6758.5000   -999.2500      5.0180      1.7756      3.0114      0.0000   -999.2500      0.2770      0.2008   -999.2500      5.0180   -999.2500      6.6510    -13.8034    -52.5000      6.6510    -48.2450    -12.5485      0.2557      0.5327      0.5327      1.7756
   6759.0000   -999.2500      5.3870      1.7724      3.0110      0.0000   -999.2500      0.2765      0.2008   -999.2500      5.3870   -999.2500      6.6210    -13.8831    -52.5000      6.6210    -48.3090    -12.6210      0.2552      0.5317      0.5317      1.7724
   6759.5000   -999.2500      5.7260      1.7732      3.0112      0.0000   -999.2500      0.2766      0.2008   -999.2500      5.7260   -999.2500      6.5950    -13.8627    -52.5000      6.5950    -48.2730    -12.6025      0.2553      0.5320      0.5320      1.7732
   6760.0000   -999.2500      5.6970      1.7982      3.0146      0.0000   -999.2500      0.2805      0.2001   -999.2500      5.6970   -999.2500      6.4620    -13.2444    -52.5000      6.4620    -47.6390    -12.0404      0.2589      0.5395      0.5395      1.7982
   6760.5000   -999.2500      4.9620      1.8245      3.0183      0.0000   -999.2500      0.2846      0.1993   -999.2500      4.9620   -999.2500      6.1940    -12.5941    -52.5000      6.1940    -46.9730    -11.4492      0.2627      0.5473      0.5473      1.8245
   6761.0000   -999.2500      4.2860      1.9003      3.0288      0.0000   -999.2500      0.2965      0.1970   -999.2500      4.2860   -999.2500      4.3240    -10.7168    -52.5000      4.3240    -45.0800     -9.7425      0.2736      0.5701      0.5701      1.9003
   6761.5000   -999.2500      4.0480      1.9548      3.0364      0.0000   -999.2500      0.3049      0.1953   -999.2500      4.0480   -999.2500      3.9160     -9.3694    -52.5000      3.9160    -43.7170     -8.5177      0.2815      0.5864      0.5864      1.9548
   6762.0000   -999.2500      3.5910      2.0977      3.0562      0.0000   -999.2500      0.3272      0.1910   -999.2500      3.5910   -999.2500      3.5980     -5.8331    -52.5000      3.5980    -40.1650     -5.3028      0.3021      0.6293      0.6293      2.0977
   6762.5000   -999.2500      3.3130      2.1668      3.0658      0.0000   -999.2500      0.3380      0.1890   -999.2500      3.3130   -999.2500      3.3360     -4.1218    -52.5000      3.3360    -38.4380     -3.7471      0.3120      0.6500      0.6500      2.1668
   6763.0000   -999.2500      2.9960      2.2159      3.0726      0.0000   -999.2500      0.3457      0.1875   -999.2500      2.9960   -999.2500      3.1110     -2.9064    -52.5000      3.1110    -37.2070     -2.6422      0.3191      0.6648      0.6648      2.2159
   6763.5000   -999.2500      2.7480      2.2368      3.0756      0.0000   -999.2500      0.3489      0.1868   -999.2500      2.7480   -999.2500      2.9990     -2.3891    -52.5000      2.9990    -36.6740     -2.1719      0.3221      0.6710      0.6710      2.2368
   6764.0000   -999.2500      2.5640      2.2510      3.0776      0.0000   -999.2500      0.3512      0.1864   -999.2500      2.5640   -999.2500      2.8830     -2.0368    -52.5000      2.8830    -36.3060     -1.8516      0.3241      0.6753      0.6753      2.2510
   6764.5000   -999.2500      2.3810      2.2519      3.0777      0.0000   -999.2500      0.3513      0.1864   -999.2500      2.3810   -999.2500      2.7500     -2.0164    -52.5000      2.7500    -36.2700     -1.8331      0.3243      0.6756      0.6756      2.2519
   6765.0000   -999.2500      2.0040      2.2460      3.0769      0.0000   -999.2500      0.3504      0.1865   -999.2500      2.0040   -999.2500      2.6780     -2.1621    -52.5000      2.6780    -36.4000     -1.9656      0.3234      0.6738      0.6738      2.2460
   6765.5000   -999.2500      1.9150      2.2401      3.0761      0.0000   -999.2500      0.3495      0.1867   -999.2500      1.9150   -999.2500      2.5850     -2.3078    -52.5000      2.5850    -36.5300     -2.0980      0.3226      0.6720      0.6720      2.2401
