~V
VERS. 2.00: Ver 2.00
WRAP.   NO:        
~W
 STRT.FT 1000:
 STOP.FT 8280:
 STEP.FT 0.5:
 NULL. -999.250000:
 COMP. Conoco:Company
 WELL. KCL M-1:Well
 FLD. :Field
 LOC. S27 T11N R22W:Location
 STAT. CA:State
 SRVC. :Service Company
 SON. :Service Order #
 DATE. :Log Date
 UWI. 3712400:Unique Well ID
~C
 DEPT.FT :
 18'.OHMM :
 9'.OHMM :
 LTHE. :
 MM. :
 PHES. :
 PHMX. :
 PHTS. :
 PHZC. :
 RD.OHMM :
 RM.OHMM :
 ROS. :
 RS.OHMM :
 SBL.MV :
 SCLN. :
 SN.OHMM :
 SP.MV :
 SPN. :
 VCDS. :
 VCLY. :
 VCWS. :
 VSHS. :
~P
~A
# ...
   6936.5000   -999.2500      2.3460      1.6019      2.9969      0.0000   -999.2500      0.2499      0.2030   -999.2500      2.3460   -999.2500      3.6110    -18.1028    -52.5000      3.6110    -46.9660    -16.4571      0.2307      0.4806      0.4806      1.6019
   6937.0000   -999.2500      2.3470      1.4571      2.9769      0.0000   -999.2500      0.2273      0.2073   -999.2500      2.3470   -999.2500      4.0590    -21.3324    -52.5000      4.0590    -50.1800    -19.3931      0.2098      0.4371      0.4371      1.4571
   6937.5000   -999.2500      2.3580      1.0000      2.9040      0.0000   -999.2500      0.2317      0.2171   -999.2500      2.3580   -999.2500      4.3250    -26.6861    -52.5000      4.3250    -55.5180    -24.2601      0.1631      0.3398      0.3398      1.0000
   6938.0000   -999.2500      2.5380      1.0000      2.9226      0.0000   -999.2500      0.2314      0.2165   -999.2500      2.5380   -999.2500      4.5900    -26.3678    -52.5000      4.5900    -55.1840    -23.9707      0.1659      0.3456      0.3456      1.0000
   6938.5000   -999.2500      2.6980      1.2094      2.9426      0.0000   -999.2500      0.1887      0.2147   -999.2500      2.6980   -999.2500      4.8660    -25.4194    -52.5000      4.8660    -54.2200    -23.1086      0.1742      0.3628      0.3628      1.2094
   6939.0000   -999.2500      3.0970      1.3875      2.9673      0.0000   -999.2500      0.2165      0.2094   -999.2500      3.0970   -999.2500      6.1300    -22.4811    -52.5000      6.1300    -51.2660    -20.4374      0.1998      0.4163      0.4163      1.3875
   6939.5000   -999.2500      3.6350      1.6188      2.9994      0.0000   -999.2500      0.2525      0.2024   -999.2500      3.6350   -999.2500      6.0600    -17.6848    -52.5000      6.0600    -46.4540    -16.0771      0.2331      0.4856      0.4856      1.6188
   6940.0000   -999.2500      3.9840      1.7214      3.0136      0.0000   -999.2500      0.2685      0.1994   -999.2500      3.9840   -999.2500      5.6030    -15.1444    -52.5000      5.6030    -43.8980    -13.7677      0.2479      0.5164      0.5164      1.7214
   6940.5000   -999.2500      3.8060      1.7544      3.0182      0.0000   -999.2500      0.2737      0.1984   -999.2500      3.8060   -999.2500      5.1420    -14.3291    -52.5000      5.1420    -43.0670    -13.0265      0.2526      0.5263      0.5263      1.7544
   6941.0000   -999.2500      3.6020      1.6520      3.0041      0.0000   -999.2500      0.2577      0.2014   -999.2500      3.6020   -999.2500      4.7410    -16.8628    -52.5000      4.7410    -45.5850    -15.3298      0.2379      0.4956      0.4956      1.6520
   6941.5000   -999.2500      3.3990      1.6166      2.9992      0.0000   -999.2500      0.2522      0.2025   -999.2500      3.3990   -999.2500      4.2570    -17.7384    -52.5000      4.2570    -46.4450    -16.1259      0.2328      0.4850      0.4850      1.6166
   6942.0000   -999.2500      3.1410      1.6241      3.0002      0.0000   -999.2500      0.2534      0.2022   -999.2500      3.1410   -999.2500      4.0620    -17.5531    -52.5000      4.0620    -46.2440    -15.9574      0.2339      0.4872      0.4872      1.6241
   6942.5000   -999.2500      3.0330      1.6665      3.0061      0.0000   -999.2500      0.2600      0.2010   -999.2500      3.0330   -999.2500      3.9100    -16.5048    -52.5000      3.9100    -45.1800    -15.0044      0.2400      0.4999      0.4999      1.6665
   6943.0000   -999.2500      2.9240      1.6593      3.0052      0.0000   -999.2500      0.2588      0.2012   -999.2500      2.9240   -999.2500      3.8800    -16.6835    -52.5000      3.8800    -45.3430    -15.1668      0.2389      0.4978      0.4978      1.6593
   6943.5000   -999.2500      2.6860      1.6118      2.9986      0.0000   -999.2500      0.2514      0.2026   -999.2500      2.6860   -999.2500      3.9330    -17.8581    -52.5000      3.9330    -46.5020    -16.2347      0.2321      0.4835      0.4835      1.6118
   6944.0000   -999.2500      2.5770      1.5389      2.9886      0.0000   -999.2500      0.2401      0.2048   -999.2500      2.5770   -999.2500      3.9730    -19.6618    -52.5000      3.9730    -48.2900    -17.8744      0.2216      0.4617      0.4617      1.5389
   6944.5000   -999.2500      2.4890      1.5035      2.9837      0.0000   -999.2500      0.2345      0.2058   -999.2500      2.4890   -999.2500      3.9500    -20.5385    -52.5000      3.9500    -49.1510    -18.6713      0.2165      0.4510      0.4510      1.5035
   6945.0000   -999.2500      2.4200      1.4713      2.9792      0.0000   -999.2500      0.2295      0.2068   -999.2500      2.4200   -999.2500      3.8250    -21.0991    -52.5000      3.8250    -49.6960    -19.1810      0.2119      0.4414      0.4414      1.4713
   6945.5000   -999.2500      2.3510      1.4373      2.9746      0.0000   -999.2500      0.2242      0.2078   -999.2500      2.3510   -999.2500      3.7020    -21.6598    -52.5000      3.7020    -50.2410    -19.6907      0.2070      0.4312      0.4312      1.4373
   6946.0000   -999.2500      2.2820      1.5890      2.9956      0.0000   -999.2500      0.2479      0.2032   -999.2500      2.2820   -999.2500      3.6100    -18.4225    -52.5000      3.6100    -46.9880    -16.7477      0.2288      0.4767      0.4767      1.5890
   6946.5000   -999.2500      2.2830      1.6528      3.0045      0.0000   -999.2500      0.2578      0.2013   -999.2500      2.2830   -999.2500      3.5900    -16.8441    -52.5000      3.5900    -45.3940    -15.3129      0.2380      0.4958      0.4958      1.6528
   6947.0000   -999.2500      2.2840      1.7407      3.0166      0.0000   -999.2500      0.2715      0.1987   -999.2500      2.2840   -999.2500      3.5870    -14.6688    -52.5000      3.5870    -43.2030    -13.3353      0.2507      0.5222      0.5222      1.7407
   6947.5000   -999.2500      2.3040      1.7911      3.0237      0.0000   -999.2500      0.2794      0.1971   -999.2500      2.3040   -999.2500      3.5870    -13.4215    -52.5000      3.5870    -41.9400    -12.2013      0.2579      0.5373      0.5373      1.7911
   6948.0000   -999.2500      2.3650      1.7865      3.0230      0.0000   -999.2500      0.2787      0.1973   -999.2500      2.3650   -999.2500      3.5970    -13.5342    -52.5000      3.5970    -42.0370    -12.3038      0.2573      0.5359      0.5359      1.7865
   6948.5000   -999.2500      2.4350      1.7792      3.0221      0.0000   -999.2500      0.2776      0.1975   -999.2500      2.4350   -999.2500      3.4880    -13.7138    -52.5000      3.4880    -42.2010    -12.4671      0.2562      0.5338      0.5338      1.7792
   6949.0000   -999.2500      2.4810      1.7600      3.0194      0.0000   -999.2500      0.2746      0.1981   -999.2500      2.4810   -999.2500      3.3720    -14.1905    -52.5000      3.3720    -42.6620    -12.9004      0.2534      0.5280      0.5280      1.7600
   6949.5000   -999.2500      2.5260      1.7353      3.0160      0.0000   -999.2500      0.2707      0.1988   -999.2500      2.5260   -999.2500      3.2230    -14.8012    -52.5000      3.2230    -43.2570    -13.4556      0.2499      0.5206      0.5206      1.7353
   6950.0000   -999.2500      2.6940      1.7187      3.0138      0.0000   -999.2500      0.2681      0.1993   -999.2500      2.6940   -999.2500      3.0580    -15.2128    -52.5000      3.0580    -43.6530    -13.8298      0.2475      0.5156      0.5156      1.7187
   6950.5000   -999.2500      2.8620      1.7985      3.0248      0.0000   -999.2500      0.2806      0.1969   -999.2500      2.8620   -999.2500      2.8610    -13.2375    -52.5000      2.8610    -41.6620    -12.0341      0.2590      0.5395      0.5395      1.7985
   6951.0000   -999.2500      3.2960      1.9560      3.0467      0.0000   -999.2500      0.3051      0.1921   -999.2500      3.2960   -999.2500      2.8600     -9.3392    -52.5000      2.8600    -37.7480     -8.4902      0.2817      0.5868      0.5868      1.9560
   6951.5000   -999.2500      3.5210      2.0163      3.0551      0.0000   -999.2500      0.3145      0.1903   -999.2500      3.5210   -999.2500      2.8580     -7.8458    -52.5000      2.8580    -36.2390     -7.1326      0.2904      0.6049      0.6049      2.0163
