~V
VERS. 2.00: Ver 2.00
WRAP.   NO:        
~W
 STRT.FT 1000:
 STOP.FT 8280:
 STEP.FT 0.5:
 NULL. -999.250000:
 COMP. Conoco:Company
 WELL. KCL M-1:Well
 FLD. :Field
 LOC. S27 T11N R22W:Location
 STAT. CA:State
 SRVC. :Service Company
 SON. :Service Order #
 DATE. :Log Date
 UWI. 3712400:Unique Well ID
~C
 DEPT.FT :
 18'.OHMM :
 9'.OHMM :
 LTHE. :
 MM. :
 PHES. :
 PHMX. :
 PHTS. :
 PHZC. :
 RD.OHMM :
 RM.OHMM :
 ROS. :
 RS.OHMM :
 SBL.MV :
 SCLN. :
 SN.OHMM :
 SP.MV :
 SPN. :
 VCDS. :
 VCLY. :
 VCWS. :
 VSHS. :
~P
~A
# ...
   8083.5000     11.7950     20.8150      0.3746      2.2374      0.1671   -999.2500      0.2256      0.2207     11.7950     20.8150   -999.2500   -999.2500    -75.1610    -93.2940   -999.2500    -81.1610    -68.3282      0.0539      0.1124      0.1124      0.3746
   8084.0000     11.6360     20.8850      0.3651      2.2284      0.1687   -999.2500      0.2257      0.2210     11.6360     20.8850   -999.2500   -999.2500    -75.8580    -93.2947   -999.2500    -81.8580    -68.9618      0.0526      0.1095      0.1095      0.3651
   8084.5000     11.5120     20.9560      0.3570      2.2206      0.1702   -999.2500      0.2258      0.2212     11.5120     20.9560   -999.2500   -999.2500    -76.4560    -93.2953   -999.2500    -82.4560    -69.5055      0.0514      0.1071      0.1071      0.3570
   8085.0000     11.3890     21.0310      0.3493      2.2132      0.1715   -999.2500      0.2260      0.2214     11.3890     21.0310   -999.2500   -999.2500    -77.0210    -93.2959   -999.2500    -83.0210    -70.0191      0.0503      0.1048      0.1048      0.3493
   8085.5000     11.1510     21.1060      0.3470      2.2110      0.1719   -999.2500      0.2260      0.2215     11.1510     21.1060   -999.2500   -999.2500    -77.1880    -93.2965   -999.2500    -83.1880    -70.1709      0.0500      0.1041      0.1041      0.3470
   8086.0000     11.1210     20.9080      0.3547      2.2185      0.1705   -999.2500      0.2259      0.2213     11.1210     20.9080   -999.2500   -999.2500    -76.6240    -93.2972   -999.2500    -82.6240    -69.6582      0.0511      0.1064      0.1064      0.3547
   8086.5000     11.1670     20.7090      0.3647      2.2280      0.1688   -999.2500      0.2257      0.2210     11.1670     20.7090   -999.2500   -999.2500    -75.8950    -93.2978   -999.2500    -81.8950    -68.9955      0.0525      0.1094      0.1094      0.3647
   8087.0000     11.2120     19.8140      0.3769      2.2398      0.1667   -999.2500      0.2255      0.2206     11.2120     19.8140   -999.2500   -999.2500    -75.0000    -93.2984   -999.2500    -81.0000    -68.1818      0.0543      0.1131      0.1131      0.3769
   8087.5000     11.3820     19.1680      0.4095      2.2711      0.1610   -999.2500      0.2249      0.2196     11.3820     19.1680   -999.2500   -999.2500    -72.6110    -93.2990   -999.2500    -78.6110    -66.0100      0.0590      0.1228      0.1228      0.4095
   8088.0000     11.5220     18.1630      0.4240      2.2850      0.1585   -999.2500      0.2246      0.2191     11.5220     18.1630   -999.2500   -999.2500    -71.5500    -93.2997   -999.2500    -77.5500    -65.0455      0.0611      0.1272      0.1272      0.4240
   8088.5000     11.7220     17.6760      0.4337      2.2944      0.1568   -999.2500      0.2245      0.2188     11.7220     17.6760   -999.2500   -999.2500    -70.8370    -93.3003   -999.2500    -76.8370    -64.3973      0.0625      0.1301      0.1301      0.4337
   8089.0000     11.8330     17.1890      0.4434      2.3038      0.1551   -999.2500      0.2243      0.2185     11.8330     17.1890   -999.2500   -999.2500    -70.1250    -93.3009   -999.2500    -76.1250    -63.7500      0.0639      0.1330      0.1330      0.4434
   8089.5000     11.8630     16.5820      0.4561      2.3160      0.1529   -999.2500      0.2241      0.2182     11.8630     16.5820   -999.2500   -999.2500    -69.1950    -93.3015   -999.2500    -75.1950    -62.9045      0.0657      0.1368      0.1368      0.4561
   8090.0000     11.8090     15.1990      0.4479      2.3082      0.1543   -999.2500      0.2242      0.2184     11.8090     15.1990   -999.2500   -999.2500    -69.7940    -93.3022   -999.2500    -75.7940    -63.4491      0.0645      0.1344      0.1344      0.4479
   8090.5000     11.7550     14.3830      0.4335      2.2943      0.1568   -999.2500      0.2244      0.2188     11.7550     14.3830   -999.2500   -999.2500    -70.8560    -93.3028   -999.2500    -76.8560    -64.4146      0.0624      0.1300      0.1300      0.4335
   8091.0000     11.5860     13.6570      0.4276      2.2887      0.1578   -999.2500      0.2245      0.2190     11.5860     13.6570   -999.2500   -999.2500    -71.2880    -93.3034   -999.2500    -77.2880    -64.8073      0.0616      0.1283      0.1283      0.4276
   8091.5000     11.5170     13.2700      0.4212      2.2826      0.1589   -999.2500      0.2246      0.2192     11.5170     13.2700   -999.2500   -999.2500    -71.7530    -93.3040   -999.2500    -77.7530    -65.2300      0.0607      0.1264      0.1264      0.4212
   8092.0000     11.4130     12.9820      0.4163      2.2778      0.1598   -999.2500      0.2247      0.2193     11.4130     12.9820   -999.2500   -999.2500    -72.1190    -93.3047   -999.2500    -78.1190    -65.5627      0.0599      0.1249      0.1249      0.4163
   8092.5000     11.3090     12.7230      0.4215      2.2829      0.1589   -999.2500      0.2246      0.2191     11.3090     12.7230   -999.2500   -999.2500    -71.7380    -93.3053   -999.2500    -77.7380    -65.2164      0.0607      0.1264      0.1264      0.4215
   8093.0000     11.1510     12.3860      0.4267      2.2879      0.1580   -999.2500      0.2245      0.2190     11.1510     12.3860   -999.2500   -999.2500    -71.3580    -93.3059   -999.2500    -77.3580    -64.8709      0.0614      0.1280      0.1280      0.4267
   8093.5000     11.0120     12.1670      0.4375      2.2983      0.1561   -999.2500      0.2243      0.2186     11.0120     12.1670   -999.2500   -999.2500    -70.5620    -93.3065   -999.2500    -76.5620    -64.1473      0.0630      0.1313      0.1313      0.4375
   8094.0000     10.8940     11.9990      0.4484      2.3088      0.1542   -999.2500      0.2241      0.2183     10.8940     11.9990   -999.2500   -999.2500    -69.7660    -93.3072   -999.2500    -75.7660    -63.4236      0.0646      0.1345      0.1345      0.4484
   8094.5000     10.7950     11.8300      0.4678      2.3275      0.1508   -999.2500      0.2238      0.2177     10.7950     11.8300   -999.2500   -999.2500    -68.3390    -93.3078   -999.2500    -74.3390    -62.1264      0.0674      0.1404      0.1404      0.4678
   8095.0000     10.7260     11.6020      0.4755      2.3349      0.1495   -999.2500      0.2236      0.2175     10.7260     11.6020   -999.2500   -999.2500    -67.7760    -93.3084   -999.2500    -73.7760    -61.6145      0.0685      0.1427      0.1427      0.4755
   8095.5000     10.6820     11.4130      0.4923      2.3510      0.1466   -999.2500      0.2234      0.2170     10.6820     11.4130   -999.2500   -999.2500    -66.5480    -93.3091   -999.2500    -72.5480    -60.4982      0.0709      0.1477      0.1477      0.4923
   8096.0000     10.6370     11.2950      0.4982      2.3567      0.1455   -999.2500      0.2232      0.2168     10.6370     11.2950   -999.2500   -999.2500    -66.1180    -93.3097   -999.2500    -72.1180    -60.1073      0.0717      0.1494      0.1494      0.4982
   8096.5000     10.5790     11.1760      0.5112      2.3693      0.1433   -999.2500      0.2230      0.2164     10.5790     11.1760   -999.2500   -999.2500    -65.6540    -93.3103   -999.2500    -71.6540    -59.6855      0.0736      0.1534      0.1534      0.5112
   8097.0000     10.5490     11.1070      0.4823      2.3415      0.1483   -999.2500      0.2235      0.2172     10.5490     11.1070   -999.2500   -999.2500    -67.2800    -93.3109   -999.2500    -73.2800    -61.1636      0.0695      0.1447      0.1447      0.4823
   8097.5000     10.5200     11.0380      0.4760      2.3355      0.1493   -999.2500      0.2236      0.2174     10.5200     11.0380   -999.2500   -999.2500    -67.7450    -93.3116   -999.2500    -73.7450    -61.5864      0.0685      0.1428      0.1428      0.4760
   8098.0000     10.4910     11.0430      0.4687      2.3285      0.1506   -999.2500      0.2237      0.2176     10.4910     11.0430   -999.2500   -999.2500    -68.2770    -93.3122   -999.2500    -74.2770    -62.0700      0.0675      0.1406      0.1406      0.4687
   8098.5000     10.4720     11.0490      0.4633      2.3234      0.1515   -999.2500      0.2238      0.2178     10.4720     11.0490   -999.2500   -999.2500    -68.6760    -93.3128   -999.2500    -74.6760    -62.4327      0.0667      0.1390      0.1390      0.4633
