~V
VERS. 2.00: Ver 2.00
WRAP.   NO:        
~W
 STRT.FT 1000:
 STOP.FT 8280:
 STEP.FT 0.5:
 NULL. -999.250000:
 COMP. Conoco:Company
 WELL. KCL M-1:Well
 FLD. :Field
 LOC. S27 T11N R22W:Location
 STAT. CA:State
 SRVC. :Service Company
 SON. :Service Order #
 DATE. :Log Date
 UWI. 3712400:Unique Well ID
~C
 DEPT.FT :
 18'.OHMM :
 9'.OHMM :
 LTHE. :
 MM. :
 PHES. :
 PHMX. :
 PHTS. :
 PHZC. :
 RD.OHMM :
 RM.OHMM :
 ROS. :
 RS.OHMM :
 SBL.MV :
 SCLN. :
 SN.OHMM :
 SP.MV :
 SPN. :
 VCDS. :
 VCLY. :
 VCWS. :
 VSHS. :
~P
~A
# ...
   6564.5000   -999.2500      7.5350      1.8161      3.0067      0.0000   -999.2500      0.2833      0.2028   -999.2500      7.5350   -999.2500      9.8310    -12.8006    -52.5000      9.8310    -53.3220    -11.6369      0.2615      0.5448      0.5448      1.8161
   6565.0000   -999.2500      8.1910      1.8075      3.0055      0.0000   -999.2500      0.2820      0.2030   -999.2500      8.1910   -999.2500      9.8380    -13.0133    -52.5000      9.8380    -53.5190    -11.8303      0.2603      0.5423      0.5423      1.8075
   6565.5000   -999.2500      9.3560      1.8083      3.0057      0.0000   -999.2500      0.2821      0.2030   -999.2500      9.3560   -999.2500      9.8380    -12.9940    -52.5000      9.8380    -53.4840    -11.8127      0.2604      0.5425      0.5425      1.8083
   6566.0000   -999.2500     10.4000      1.8064      3.0054      0.0000   -999.2500      0.2818      0.2030   -999.2500     10.4000   -999.2500      9.8380    -13.0416    -52.5000      9.8380    -53.5160    -11.8560      0.2601      0.5419      0.5419      1.8064
   6566.5000   -999.2500     11.3760      1.8179      3.0070      0.0000   -999.2500      0.2836      0.2027   -999.2500     11.3760   -999.2500      9.8340    -12.7573    -52.5000      9.8340    -53.2160    -11.5976      0.2618      0.5454      0.5454      1.8179
   6567.0000   -999.2500     13.4950      1.8468      3.0111      0.0000   -999.2500      0.2881      0.2018   -999.2500     13.4950   -999.2500      9.8310    -12.0420    -52.5000      9.8310    -52.4850    -10.9473      0.2659      0.5540      0.5540      1.8468
   6567.5000   -999.2500     16.5690      1.9079      3.0196      0.0000   -999.2500      0.2976      0.2000   -999.2500     16.5690   -999.2500      9.8310    -10.5297    -52.5000      9.8310    -50.9570     -9.5724      0.2747      0.5724      0.5724      1.9079
   6568.0000   -999.2500     17.2360      1.9569      3.0264      0.0000   -999.2500      0.3053      0.1985   -999.2500     17.2360   -999.2500      9.8310     -9.3173    -52.5000      9.8310    -49.7290     -8.4703      0.2818      0.5871      0.5871      1.9569
   6568.5000   -999.2500     16.8080      2.0019      3.0326      0.0000   -999.2500      0.3123      0.1971   -999.2500     16.8080   -999.2500      9.8310     -8.2040    -52.5000      9.8310    -48.6000     -7.4582      0.2883      0.6006      0.6006      2.0019
   6569.0000   -999.2500     15.7240      2.0281      3.0363      0.0000   -999.2500      0.3164      0.1963   -999.2500     15.7240   -999.2500      9.8310     -7.5547    -52.5000      9.8310    -47.9350     -6.8679      0.2920      0.6084      0.6084      2.0281
   6569.5000   -999.2500     13.9530      2.0289      3.0364      0.0000   -999.2500      0.3165      0.1963   -999.2500     13.9530   -999.2500      6.1430     -7.5343    -52.5000      6.1430    -47.8990     -6.8494      0.2922      0.6087      0.6087      2.0289
   6570.0000   -999.2500     12.8490      2.0257      3.0360      0.0000   -999.2500      0.3160      0.1964   -999.2500     12.8490   -999.2500      4.6510     -7.6150    -52.5000      4.6510    -47.9640     -6.9227      0.2917      0.6077      0.6077      2.0257
   6570.5000   -999.2500     12.4610      2.0251      3.0359      0.0000   -999.2500      0.3159      0.1964   -999.2500     12.4610   -999.2500      4.3390     -7.6297    -52.5000      4.3390    -47.9630     -6.9361      0.2916      0.6075      0.6075      2.0251
   6571.0000   -999.2500     12.7000      2.0353      3.0374      0.0000   -999.2500      0.3175      0.1961   -999.2500     12.7000   -999.2500      3.3180     -7.3773    -52.5000      3.3180    -47.6950     -6.7067      0.2931      0.6106      0.6106      2.0353
   6571.5000   -999.2500     12.9390      2.0655      3.0416      0.0000   -999.2500      0.3222      0.1952   -999.2500     12.9390   -999.2500      2.9700     -6.6290    -52.5000      2.9700    -46.9310     -6.0264      0.2974      0.6196      0.6196      2.0655
   6572.0000   -999.2500     13.2470      2.1199      3.0492      0.0000   -999.2500      0.3307      0.1935   -999.2500     13.2470   -999.2500      2.8740     -5.2837    -52.5000      2.8740    -45.5700     -4.8033      0.3053      0.6360      0.6360      2.1199
   6572.5000   -999.2500     13.6250      2.1568      3.0543      0.0000   -999.2500      0.3365      0.1924   -999.2500     13.6250   -999.2500      2.8090     -4.3683    -52.5000      2.8090    -44.6390     -3.9712      0.3106      0.6471      0.6471      2.1568
   6573.0000   -999.2500     13.5060      2.1777      3.0572      0.0000   -999.2500      0.3397      0.1918   -999.2500     13.5060   -999.2500      2.7440     -3.8520    -52.5000      2.7440    -44.1070     -3.5018      0.3136      0.6533      0.6533      2.1777
   6573.5000   -999.2500     12.2820      2.1945      3.0596      0.0000   -999.2500      0.3423      0.1913   -999.2500     12.2820   -999.2500      2.6320     -3.4357    -52.5000      2.6320    -43.6750     -3.1233      0.3160      0.6584      0.6584      2.1945
   6574.0000   -999.2500      5.3280      2.1926      3.0593      0.0000   -999.2500      0.3421      0.1913   -999.2500      5.3280   -999.2500      2.5490     -3.4824    -52.5000      2.5490    -43.7060     -3.1658      0.3157      0.6578      0.6578      2.1926
   6574.5000   -999.2500      5.0790      2.1840      3.0582      0.0000   -999.2500      0.3407      0.1916   -999.2500      5.0790   -999.2500      2.4690     -3.6950    -52.5000      2.4690    -43.9030     -3.3591      0.3145      0.6552      0.6552      2.1840
   6575.0000   -999.2500      4.7510      2.1634      3.0553      0.0000   -999.2500      0.3375      0.1922   -999.2500      4.7510   -999.2500      2.4030     -4.2067    -52.5000      2.4030    -44.3990     -3.8243      0.3115      0.6490      0.6490      2.1634
   6575.5000   -999.2500      4.5820      2.1460      3.0530      0.0000   -999.2500      0.3348      0.1927   -999.2500      4.5820   -999.2500      2.3700     -4.6354    -52.5000      2.3700    -44.8120     -4.2140      0.3090      0.6438      0.6438      2.1460
   6576.0000   -999.2500      4.6320      2.1287      3.0506      0.0000   -999.2500      0.3321      0.1932   -999.2500      4.6320   -999.2500      2.3610     -5.0650    -52.5000      2.3610    -45.2260     -4.6046      0.3065      0.6386      0.6386      2.1287
   6576.5000   -999.2500      4.9300      2.0772      3.0435      0.0000   -999.2500      0.3240      0.1947   -999.2500      4.9300   -999.2500      2.3530     -6.3387    -52.5000      2.3530    -46.4840     -5.7625      0.2991      0.6232      0.6232      2.0772
   6577.0000   -999.2500      5.3680      1.9963      3.0323      0.0000   -999.2500      0.3114      0.1972   -999.2500      5.3680   -999.2500      2.3830     -8.3424    -52.5000      2.3830    -48.4720     -7.5840      0.2875      0.5989      0.5989      1.9963
   6577.5000   -999.2500      5.7960      1.9354      3.0239      0.0000   -999.2500      0.3019      0.1990   -999.2500      5.7960   -999.2500      2.4130     -9.8480    -52.5000      2.4130    -49.9620     -8.9528      0.2787      0.5806      0.5806      1.9354
   6578.0000   -999.2500      6.1640      1.9322      3.0235      0.0000   -999.2500      0.3014      0.1991   -999.2500      6.1640   -999.2500      2.3830     -9.9287    -52.5000      2.3830    -50.0270     -9.0261      0.2782      0.5797      0.5797      1.9322
   6578.5000   -999.2500      6.4330      1.9597      3.0273      0.0000   -999.2500      0.3057      0.1982   -999.2500      6.4330   -999.2500      2.3400     -9.2464    -52.5000      2.3400    -49.3290     -8.4058      0.2822      0.5879      0.5879      1.9597
   6579.0000   -999.2500      6.5820      2.0047      3.0336      0.0000   -999.2500      0.3127      0.1969   -999.2500      6.5820   -999.2500      2.3900     -8.1330    -52.5000      2.3900    -48.2000     -7.3937      0.2887      0.6014      0.6014      2.0047
   6579.5000   -999.2500      6.5920      2.0229      3.0361      0.0000   -999.2500      0.3156      0.1963   -999.2500      6.5920   -999.2500      2.4860     -7.6827    -52.5000      2.4860    -47.7340     -6.9843      0.2913      0.6069      0.6069      2.0229
