~V
VERS. 2.00: Ver 2.00
WRAP.   NO:        
~W
 STRT.FT 1000:
 STOP.FT 8280:
 STEP.FT 0.5:
 NULL. -999.250000:
 COMP. Conoco:Company
 WELL. KCL M-1:Well
 FLD. :Field
 LOC. S27 T11N R22W:Location
 STAT. CA:State
 SRVC. :Service Company
 SON. :Service Order #
 DATE. :Log Date
 UWI. 3712400:Unique Well ID
~C
 DEPT.FT :
 18'.OHMM :
 9'.OHMM :
 LTHE. :
 MM. :
 PHES. :
 PHMX. :
 PHTS. :
 PHZC. :
 RD.OHMM :
 RM.OHMM :
 ROS. :
 RS.OHMM :
 SBL.MV :
 SCLN. :
 SN.OHMM :
 SP.MV :
 SPN. :
 VCDS. :
 VCLY. :
 VCWS. :
 VSHS. :
~P
~A
# ...
   5805.0000   -999.2500      1.8990      2.1121      3.0072      0.0000   -999.2500      0.3295      0.2066   -999.2500      1.8990   -999.2500      1.6710     -5.4750    -52.5000      1.6710    -46.6910     -4.9773      0.3041      0.6336      0.6336      2.1121
   5805.5000   -999.2500      1.8990      2.0976      3.0052      0.0000   -999.2500      0.3272      0.2070   -999.2500      1.8990   -999.2500      1.6710     -5.8347    -52.5000      1.6710    -47.0560     -5.3042      0.3021      0.6293      0.6293      2.0976
   5806.0000   -999.2500      1.8980      2.0951      3.0049      0.0000   -999.2500      0.3268      0.2070   -999.2500      1.8980   -999.2500      1.6710     -5.8953    -52.5000      1.6710    -47.1220     -5.3594      0.3017      0.6285      0.6285      2.0951
   5806.5000   -999.2500      1.8980      2.0712      3.0016      0.0000   -999.2500      0.3231      0.2078   -999.2500      1.8980   -999.2500      1.6710     -6.4870    -52.5000      1.6710    -47.7190     -5.8973      0.2983      0.6214      0.6214      2.0712
   5807.0000   -999.2500      1.8910      2.0366      2.9968      0.0000   -999.2500      0.3177      0.2088   -999.2500      1.8910   -999.2500      1.6710     -7.3447    -52.5000      1.6710    -48.5820     -6.6770      0.2933      0.6110      0.6110      2.0366
   5807.5000   -999.2500      1.8850      2.0194      2.9945      0.0000   -999.2500      0.3150      0.2093   -999.2500      1.8850   -999.2500      1.6710     -7.7703    -52.5000      1.6710    -49.0130     -7.0639      0.2908      0.6058      0.6058      2.0194
   5808.0000   -999.2500      1.8780      2.0411      2.9975      0.0000   -999.2500      0.3184      0.2086   -999.2500      1.8780   -999.2500      1.6680     -7.2340    -52.5000      1.6680    -48.4820     -6.5764      0.2939      0.6123      0.6123      2.0411
   5808.5000   -999.2500      1.8750      2.0546      2.9994      0.0000   -999.2500      0.3205      0.2082   -999.2500      1.8750   -999.2500      1.6640     -6.8977    -52.5000      1.6640    -48.1510     -6.2706      0.2959      0.6164      0.6164      2.0546
   5809.0000   -999.2500      1.8720      2.0589      3.0000      0.0000   -999.2500      0.3212      0.2081   -999.2500      1.8720   -999.2500      1.6640     -6.7923    -52.5000      1.6640    -48.0510     -6.1748      0.2965      0.6177      0.6177      2.0589
   5809.5000   -999.2500      1.8700      2.0457      2.9982      0.0000   -999.2500      0.3191      0.2085   -999.2500      1.8700   -999.2500      1.6640     -7.1190    -52.5000      1.6640    -48.3830     -6.4718      0.2946      0.6137      0.6137      2.0457
   5810.0000   -999.2500      1.8670      2.0084      2.9931      0.0000   -999.2500      0.3133      0.2096   -999.2500      1.8670   -999.2500      1.6640     -8.0427    -52.5000      1.6640    -49.3120     -7.3115      0.2892      0.6025      0.6025      2.0084
   5810.5000   -999.2500      1.8670      1.9443      2.9842      0.0000   -999.2500      0.3033      0.2115   -999.2500      1.8670   -999.2500      1.6640     -9.6293    -52.5000      1.6640    -50.9040     -8.7539      0.2800      0.5833      0.5833      1.9443
   5811.0000   -999.2500      1.8670      1.9284      2.9821      0.0000   -999.2500      0.3008      0.2120   -999.2500      1.8670   -999.2500      1.6640    -10.0220    -52.5000      1.6640    -51.3020     -9.1109      0.2777      0.5785      0.5785      1.9284
   5811.5000   -999.2500      1.8660      1.9407      2.9838      0.0000   -999.2500      0.3027      0.2116   -999.2500      1.8660   -999.2500      1.6640     -9.7177    -52.5000      1.6640    -51.0030     -8.8342      0.2795      0.5822      0.5822      1.9407
   5812.0000   -999.2500      1.8660      1.9355      2.9831      0.0000   -999.2500      0.3019      0.2117   -999.2500      1.8660   -999.2500      1.6700     -9.8453    -52.5000      1.6700    -51.1360     -8.9503      0.2787      0.5807      0.5807      1.9355
   5812.5000   -999.2500      1.8660      1.9076      2.9793      0.0000   -999.2500      0.2976      0.2126   -999.2500      1.8660   -999.2500      1.6700    -10.5370    -52.5000      1.6700    -51.8330     -9.5791      0.2747      0.5723      0.5723      1.9076
   5813.0000   -999.2500      1.8660      1.8756      2.9749      0.0000   -999.2500      0.2926      0.2135   -999.2500      1.8660   -999.2500      1.6700    -11.3277    -52.5000      1.6700    -52.6290    -10.2979      0.2701      0.5627      0.5627      1.8756
   5813.5000   -999.2500      1.8660      1.9094      2.9796      0.0000   -999.2500      0.2979      0.2125   -999.2500      1.8660   -999.2500      1.6700    -10.4933    -52.5000      1.6700    -51.8000     -9.5394      0.2749      0.5728      0.5728      1.9094
   5814.0000   -999.2500      1.8700      1.9351      2.9831      0.0000   -999.2500      0.3019      0.2117   -999.2500      1.8700   -999.2500      1.6770     -9.8570    -52.5000      1.6770    -51.1690     -8.9609      0.2787      0.5805      0.5805      1.9351
   5814.5000   -999.2500      1.8750      1.9782      2.9891      0.0000   -999.2500      0.3086      0.2104   -999.2500      1.8750   -999.2500      1.6770     -8.7907    -52.5000      1.6770    -50.1080     -7.9915      0.2849      0.5934      0.5934      1.9782
   5815.0000   -999.2500      1.8800      2.0012      2.9923      0.0000   -999.2500      0.3122      0.2097   -999.2500      1.8800   -999.2500      1.6770     -8.2213    -52.5000      1.6770    -49.5440     -7.4739      0.2882      0.6003      0.6003      2.0012
   5815.5000   -999.2500      1.8850      2.0135      2.9941      0.0000   -999.2500      0.3141      0.2093   -999.2500      1.8850   -999.2500      1.6830     -7.9170    -52.5000      1.6830    -49.2450     -7.1973      0.2899      0.6040      0.6040      2.0135
   5816.0000   -999.2500      1.8840      2.0163      2.9945      0.0000   -999.2500      0.3145      0.2092   -999.2500      1.8840   -999.2500      1.6830     -7.8457    -52.5000      1.6830    -49.1790     -7.1324      0.2904      0.6049      0.6049      2.0163
   5816.5000   -999.2500      1.8840      2.0192      2.9949      0.0000   -999.2500      0.3150      0.2091   -999.2500      1.8840   -999.2500      1.6830     -7.7743    -52.5000      1.6830    -49.1130     -7.0676      0.2908      0.6058      0.6058      2.0192
   5817.0000   -999.2500      1.8870      2.0194      2.9950      0.0000   -999.2500      0.3150      0.2091   -999.2500      1.8870   -999.2500      1.6830     -7.7690    -52.5000      1.6830    -49.1130     -7.0627      0.2908      0.6058      0.6058      2.0194
   5817.5000   -999.2500      1.8890      2.0143      2.9943      0.0000   -999.2500      0.3142      0.2093   -999.2500      1.8890   -999.2500      1.6830     -7.8957    -52.5000      1.6830    -49.2450     -7.1779      0.2901      0.6043      0.6043      2.0143
   5818.0000   -999.2500      1.8910      2.0092      2.9936      0.0000   -999.2500      0.3134      0.2094   -999.2500      1.8910   -999.2500      1.6830     -8.0233    -52.5000      1.6830    -49.3780     -7.2939      0.2893      0.6027      0.6027      2.0092
   5818.5000   -999.2500      1.8930      2.0000      2.9924      0.0000   -999.2500      0.3120      0.2097   -999.2500      1.8930   -999.2500      1.6830     -8.2500    -52.5000      1.6830    -49.6100     -7.5000      0.2880      0.6000      0.6000      2.0000
   5819.0000   -999.2500      1.8930      2.0002      2.9924      0.0000   -999.2500      0.3120      0.2097   -999.2500      1.8930   -999.2500      1.6830     -8.2447    -52.5000      1.6830    -49.6100     -7.4952      0.2880      0.6001      0.6001      2.0002
   5819.5000   -999.2500      1.8930      2.0058      2.9932      0.0000   -999.2500      0.3129      0.2095   -999.2500      1.8930   -999.2500      1.6830     -8.1073    -52.5000      1.6830    -49.4780     -7.3703      0.2888      0.6017      0.6017      2.0058
   5820.0000   -999.2500      1.8930      2.0127      2.9942      0.0000   -999.2500      0.3140      0.2093   -999.2500      1.8930   -999.2500      1.6790     -7.9360    -52.5000      1.6790    -49.3120     -7.2145      0.2898      0.6038      0.6038      2.0127
