~V
VERS. 2.00: Ver 2.00
WRAP.   NO:        
~W
 STRT.FT 1000:
 STOP.FT 8280:
 STEP.FT 0.5:
 NULL. -999.250000:
 COMP. Conoco:Company
 WELL. KCL M-1:Well
 FLD. :Field
 LOC. S27 T11N R22W:Location
 STAT. CA:State
 SRVC. :Service Company
 SON. :Service Order #
 DATE. :Log Date
 UWI. 3712400:Unique Well ID
~C
 DEPT.FT :
 18'.OHMM :
 9'.OHMM :
 LTHE. :
 MM. :
 PHES. :
 PHMX. :
 PHTS. :
 PHZC. :
 RD.OHMM :
 RM.OHMM :
 ROS. :
 RS.OHMM :
 SBL.MV :
 SCLN. :
 SN.OHMM :
 SP.MV :
 SPN. :
 VCDS. :
 VCLY. :
 VCWS. :
 VSHS. :
~P
~A
# ...
   5991.0000   -999.2500      2.5540      1.6697      2.9558      0.0000   -999.2500      0.2605      0.2167   -999.2500      2.5540   -999.2500      2.0820    -16.4261    -52.5000      2.0820    -56.8690    -14.9328      0.2404      0.5009      0.5009      1.6697
   5991.5000   -999.2500      2.5600      1.6640      2.9551      0.0000   -999.2500      0.2596      0.2169   -999.2500      2.5600   -999.2500      2.0870    -16.5660    -52.5000      2.0870    -57.0020    -15.0600      0.2396      0.4992      0.4992      1.6640
   5992.0000   -999.2500      2.5660      1.6570      2.9541      0.0000   -999.2500      0.2585      0.2171   -999.2500      2.5660   -999.2500      2.0890    -16.7389    -52.5000      2.0890    -57.1680    -15.2172      0.2386      0.4971      0.4971      1.6570
   5992.5000   -999.2500      2.5720      1.6500      2.9532      0.0000   -999.2500      0.2574      0.2173   -999.2500      2.5720   -999.2500      2.0920    -16.9129    -52.5000      2.0920    -57.3350    -15.3753      0.2376      0.4950      0.4950      1.6500
   5993.0000   -999.2500      2.5780      1.6363      2.9513      0.0000   -999.2500      0.2553      0.2177   -999.2500      2.5780   -999.2500      2.0960    -17.2518    -52.5000      2.0960    -57.6670    -15.6834      0.2356      0.4909      0.4909      1.6363
   5993.5000   -999.2500      2.5840      1.6012      2.9465      0.0000   -999.2500      0.2498      0.2187   -999.2500      2.5840   -999.2500      2.0990    -18.1207    -52.5000      2.0990    -58.5290    -16.4734      0.2306      0.4804      0.4804      1.6012
   5994.0000   -999.2500      2.5900      1.5674      2.9418      0.0000   -999.2500      0.2445      0.2197   -999.2500      2.5900   -999.2500      2.1010    -18.9576    -52.5000      2.1010    -59.3590    -17.2342      0.2257      0.4702      0.4702      1.5674
   5994.5000   -999.2500      2.5960      1.5202      2.9353      0.0000   -999.2500      0.2371      0.2212   -999.2500      2.5960   -999.2500      2.1030    -20.1255    -52.5000      2.1030    -60.5200    -18.2959      0.2189      0.4561      0.4561      1.5202
   5995.0000   -999.2500      2.6020      1.4795      2.9297      0.0000   -999.2500      0.2308      0.2224   -999.2500      2.6020   -999.2500      2.0980    -20.9625    -52.5000      2.0980    -61.3500    -19.0568      0.2131      0.4439      0.4439      1.4795
   5995.5000   -999.2500      2.6080      1.4932      2.9316      0.0000   -999.2500      0.2329      0.2219   -999.2500      2.6080   -999.2500      2.0980    -20.7374    -52.5000      2.0980    -61.1180    -18.8522      0.2150      0.4480      0.4480      1.4932
   5996.0000   -999.2500      2.6140      1.5233      2.9358      0.0000   -999.2500      0.2376      0.2210   -999.2500      2.6140   -999.2500      2.0990    -20.0483    -52.5000      2.0990    -60.4220    -18.2257      0.2194      0.4570      0.4570      1.5233
   5996.5000   -999.2500      2.6200      1.5411      2.9383      0.0000   -999.2500      0.2404      0.2205   -999.2500      2.6200   -999.2500      2.0970    -19.6072    -52.5000      2.0970    -59.9740    -17.8247      0.2219      0.4623      0.4623      1.5411
   5997.0000   -999.2500      2.6260      1.5589      2.9408      0.0000   -999.2500      0.2432      0.2199   -999.2500      2.6260   -999.2500      2.0960    -19.1671    -52.5000      2.0960    -59.5270    -17.4247      0.2245      0.4677      0.4677      1.5589
   5997.5000   -999.2500      2.6320      1.6149      2.9486      0.0000   -999.2500      0.2519      0.2183   -999.2500      2.6320   -999.2500      2.0950    -17.7811    -52.5000      2.0950    -58.1340    -16.1646      0.2325      0.4845      0.4845      1.6149
   5998.0000   -999.2500      2.6380      1.6294      2.9506      0.0000   -999.2500      0.2542      0.2178   -999.2500      2.6380   -999.2500      2.0930    -17.4230    -52.5000      2.0930    -57.7690    -15.8391      0.2346      0.4888      0.4888      1.6294
   5998.5000   -999.2500      2.6440      1.6425      2.9525      0.0000   -999.2500      0.2562      0.2174   -999.2500      2.6440   -999.2500      2.0920    -17.0989    -52.5000      2.0920    -57.4380    -15.5445      0.2365      0.4927      0.4927      1.6425
   5999.0000   -999.2500      2.6500      1.6556      2.9543      0.0000   -999.2500      0.2583      0.2170   -999.2500      2.6500   -999.2500      2.0910    -16.7748    -52.5000      2.0910    -57.1070    -15.2498      0.2384      0.4967      0.4967      1.6556
   5999.5000   -999.2500   -999.2500      1.6647      2.9556      0.0000   -999.2500      0.2597      0.2167   -999.2500   -999.2500   -999.2500      2.0930    -16.5497    -52.5000      2.0930    -56.8750    -15.0452      0.2397      0.4994      0.4994      1.6647
   6000.0000   -999.2500      2.6390      1.6484      2.9534      0.0000   -999.2500      0.2571      0.2172   -999.2500      2.6390   -999.2500      2.0950    -16.9527    -52.5000      2.0950    -57.2710    -15.4115      0.2374      0.4945      0.4945      1.6484
   6000.5000   -999.2500      2.6280      1.6521      2.9539      0.0000   -999.2500      0.2577      0.2171   -999.2500      2.6280   -999.2500      2.0930    -16.8606    -52.5000      2.0930    -57.1720    -15.3278      0.2379      0.4956      0.4956      1.6521
   6001.0000   -999.2500      2.6170      1.6410      2.9524      0.0000   -999.2500      0.2560      0.2174   -999.2500      2.6170   -999.2500      2.0910    -17.1345    -52.5000      2.0910    -57.4390    -15.5768      0.2363      0.4923      0.4923      1.6410
   6001.5000   -999.2500      2.6110      1.5871      2.9450      0.0000   -999.2500      0.2476      0.2190   -999.2500      2.6110   -999.2500      2.0890    -18.4704    -52.5000      2.0890    -58.7680    -16.7913      0.2285      0.4761      0.4761      1.5871
   6002.0000   -999.2500      2.5840      1.5089      2.9342      0.0000   -999.2500      0.2354      0.2214   -999.2500      2.5840   -999.2500      2.0870    -20.4043    -52.5000      2.0870    -60.6950    -18.5494      0.2173      0.4527      0.4527      1.5089
   6002.5000   -999.2500      2.5780      1.5093      2.9342      0.0000   -999.2500      0.2354      0.2213   -999.2500      2.5780   -999.2500      2.0840    -20.3953    -52.5000      2.0840    -60.6790    -18.5411      0.2173      0.4528      0.4528      1.5093
   6003.0000   -999.2500      2.5720      1.5096      2.9343      0.0000   -999.2500      0.2355      0.2213   -999.2500      2.5720   -999.2500      2.0820    -20.3862    -52.5000      2.0820    -60.6630    -18.5329      0.2174      0.4529      0.4529      1.5096
   6003.5000   -999.2500      2.5660      1.5563      2.9408      0.0000   -999.2500      0.2428      0.2199   -999.2500      2.5660   -999.2500      2.0800    -19.2321    -52.5000      2.0800    -59.5020    -17.4837      0.2241      0.4669      0.4669      1.5563
   6004.0000   -999.2500      2.5590      1.6190      2.9495      0.0000   -999.2500      0.2526      0.2180   -999.2500      2.5590   -999.2500      2.0780    -17.6800    -52.5000      2.0780    -57.9430    -16.0728      0.2331      0.4857      0.4857      1.6190
   6004.5000   -999.2500      2.5530      1.6080      2.9480      0.0000   -999.2500      0.2508      0.2184   -999.2500      2.5530   -999.2500      2.0760    -17.9529    -52.5000      2.0760    -58.2090    -16.3209      0.2315      0.4824      0.4824      1.6080
   6005.0000   -999.2500      2.5470      1.5794      2.9441      0.0000   -999.2500      0.2464      0.2192   -999.2500      2.5470   -999.2500      2.0740    -18.6589    -52.5000      2.0740    -58.9080    -16.9626      0.2274      0.4738      0.4738      1.5794
   6005.5000   -999.2500      2.5410      1.5691      2.9427      0.0000   -999.2500      0.2448      0.2195   -999.2500      2.5410   -999.2500      2.0720    -18.9158    -52.5000      2.0720    -59.1580    -17.1962      0.2259      0.4707      0.4707      1.5691
   6006.0000   -999.2500      2.5390      1.5587      2.9413      0.0000   -999.2500      0.2432      0.2198   -999.2500      2.5390   -999.2500      2.0700    -19.1727    -52.5000      2.0700    -59.4080    -17.4297      0.2244      0.4676      0.4676      1.5587
