~V
VERS. 2.00: Ver 2.00
WRAP.   NO:        
~W
 STRT.FT 1000:
 STOP.FT 8280:
 STEP.FT 0.5:
 NULL. -999.250000:
 COMP. Conoco:Company
 WELL. KCL M-1:Well
 FLD. :Field
 LOC. S27 T11N R22W:Location
 STAT. CA:State
 SRVC. :Service Company
 SON. :Service Order #
 DATE. :Log Date
 UWI. 3712400:Unique Well ID
~C
 DEPT.FT :
 18'.OHMM :
 9'.OHMM :
 LTHE. :
 MM. :
 PHES. :
 PHMX. :
 PHTS. :
 PHZC. :
 RD.OHMM :
 RM.OHMM :
 ROS. :
 RS.OHMM :
 SBL.MV :
 SCLN. :
 SN.OHMM :
 SP.MV :
 SPN. :
 VCDS. :
 VCLY. :
 VCWS. :
 VSHS. :
~P
~A
# ...
   6177.0000   -999.2500      3.2570      1.2174      2.9031      0.0000   -999.2500      0.1899      0.2272   -999.2500      3.2570   -999.2500      7.9680    -25.2885    -52.5000      7.9680    -63.9870    -22.9895      0.1753      0.3652      0.3652      1.2174
   6177.5000   -999.2500      3.3470      1.3062      2.9155      0.0000   -999.2500      0.2038      0.2245   -999.2500      3.3470   -999.2500      7.8320    -23.8227    -52.5000      7.8320    -62.5580    -21.6570      0.1881      0.3919      0.3919      1.3062
   6178.0000   -999.2500      3.4560      1.4433      2.9345      0.0000   -999.2500      0.2252      0.2204   -999.2500      3.4560   -999.2500      7.6230    -21.5599    -52.5000      7.6230    -60.3320    -19.5999      0.2078      0.4330      0.4330      1.4433
   6178.5000   -999.2500      3.6260      1.5577      2.9503      0.0000   -999.2500      0.2430      0.2170   -999.2500      3.6260   -999.2500      7.4340    -19.1972    -52.5000      7.4340    -58.0060    -17.4520      0.2243      0.4673      0.4673      1.5577
   6179.0000   -999.2500      3.7550      1.6866      2.9682      0.0000   -999.2500      0.2631      0.2131   -999.2500      3.7550   -999.2500      7.2050    -16.0054    -52.5000      7.2050    -54.8510    -14.5504      0.2429      0.5060      0.5060      1.6866
   6179.5000   -999.2500      3.8550      1.8022      2.9842      0.0000   -999.2500      0.2811      0.2096   -999.2500      3.8550   -999.2500      6.7430    -13.1446    -52.5000      6.7430    -52.0270    -11.9497      0.2595      0.5407      0.5407      1.8022
   6180.0000   -999.2500      3.9740      1.8735      2.9941      0.0000   -999.2500      0.2923      0.2075   -999.2500      3.9740   -999.2500      6.4870    -11.3799    -52.5000      6.4870    -50.2990    -10.3453      0.2698      0.5621      0.5621      1.8735
   6180.5000   -999.2500      3.9440      1.8831      2.9955      0.0000   -999.2500      0.2938      0.2072   -999.2500      3.9440   -999.2500      5.1730    -11.1421    -52.5000      5.1730    -50.0980    -10.1292      0.2712      0.5649      0.5649      1.8831
   6181.0000   -999.2500      3.7400      1.8834      2.9956      0.0000   -999.2500      0.2938      0.2071   -999.2500      3.7400   -999.2500      4.8370    -11.1364    -52.5000      4.8370    -50.1290    -10.1240      0.2712      0.5650      0.5650      1.8834
   6181.5000   -999.2500      3.5360      1.8675      2.9934      0.0000   -999.2500      0.2913      0.2076   -999.2500      3.5360   -999.2500      4.7810    -11.5296    -52.5000      4.7810    -50.5590    -10.4814      0.2689      0.5602      0.5602      1.8675
   6182.0000   -999.2500      3.0980      1.8006      2.9842      0.0000   -999.2500      0.2809      0.2096   -999.2500      3.0980   -999.2500      4.7610    -13.1848    -52.5000      4.7610    -52.2510    -11.9862      0.2593      0.5402      0.5402      1.8006
   6182.5000   -999.2500      2.8590      1.7673      2.9796      0.0000   -999.2500      0.2757      0.2106   -999.2500      2.8590   -999.2500      4.7410    -14.0101    -52.5000      4.7410    -53.1130    -12.7364      0.2545      0.5302      0.5302      1.7673
   6183.0000   -999.2500      2.6000      1.7246      2.9737      0.0000   -999.2500      0.2690      0.2119   -999.2500      2.6000   -999.2500      4.6780    -15.0673    -52.5000      4.6780    -54.2070    -13.6975      0.2483      0.5174      0.5174      1.7246
   6183.5000   -999.2500      2.5200      1.6711      2.9663      0.0000   -999.2500      0.2607      0.2135   -999.2500      2.5200   -999.2500      4.6780    -16.3895    -52.5000      4.6780    -55.5660    -14.8996      0.2406      0.5013      0.5013      1.6711
   6184.0000   -999.2500      2.4800      1.5989      2.9563      0.0000   -999.2500      0.2494      0.2156   -999.2500      2.4800   -999.2500      4.7280    -18.1768    -52.5000      4.7280    -57.3900    -16.5243      0.2302      0.4797      0.4797      1.5989
   6184.5000   -999.2500      2.5000      1.5414      2.9484      0.0000   -999.2500      0.2405      0.2173   -999.2500      2.5000   -999.2500      5.0460    -19.6000    -52.5000      5.0460    -58.8500    -17.8182      0.2220      0.4624      0.4624      1.5414
   6185.0000   -999.2500      2.6990      1.4498      2.9357      0.0000   -999.2500      0.2262      0.2201   -999.2500      2.6990   -999.2500      5.1960    -21.4532    -52.5000      5.1960    -60.7400    -19.5029      0.2088      0.4349      0.4349      1.4498
   6185.5000   -999.2500      2.9980      1.3374      2.9202      0.0000   -999.2500      0.2086      0.2235   -999.2500      2.9980   -999.2500      5.2160    -23.3075    -52.5000      5.2160    -62.6310    -21.1886      0.1926      0.4012      0.4012      1.3374
   6186.0000   -999.2500      3.5760      1.2472      2.9077      0.0000   -999.2500      0.1946      0.2262   -999.2500      3.5760   -999.2500      5.1560    -24.7967    -52.5000      5.1560    -64.1570    -22.5425      0.1796      0.3742      0.3742      1.2472
   6186.5000   -999.2500      3.9940      1.2475      2.9078      0.0000   -999.2500      0.1946      0.2261   -999.2500      3.9940   -999.2500      4.8440    -24.7909    -52.5000      4.8440    -64.1880    -22.5372      0.1796      0.3743      0.3743      1.2475
   6187.0000   -999.2500      4.6410      1.3625      2.9238      0.0000   -999.2500      0.2126      0.2227   -999.2500      4.6410   -999.2500      4.5090    -22.8932    -52.5000      4.5090    -62.3270    -20.8120      0.1962      0.4088      0.4088      1.3625
   6187.5000   -999.2500      5.2790      1.4876      2.9411      0.0000   -999.2500      0.2321      0.2189   -999.2500      5.2790   -999.2500      4.2100    -20.8294    -52.5000      4.2100    -60.3000    -18.9358      0.2142      0.4463      0.4463      1.4876
   6188.0000   -999.2500      5.4280      1.5939      2.9558      0.0000   -999.2500      0.2486      0.2157   -999.2500      5.4280   -999.2500      3.7220    -18.3016    -52.5000      3.7220    -57.8090    -16.6379      0.2295      0.4782      0.4782      1.5939
   6188.5000   -999.2500      5.2190      1.6545      2.9643      0.0000   -999.2500      0.2581      0.2139   -999.2500      5.2190   -999.2500      3.4100    -16.8019    -52.5000      3.4100    -56.3460    -15.2744      0.2382      0.4963      0.4963      1.6545
   6189.0000   -999.2500      4.7010      1.6600      2.9651      0.0000   -999.2500      0.2590      0.2137   -999.2500      4.7010   -999.2500      3.2140    -16.6641    -52.5000      3.2140    -56.2450    -15.1492      0.2390      0.4980      0.4980      1.6600
   6189.5000   -999.2500      3.7350      1.6656      2.9659      0.0000   -999.2500      0.2598      0.2135   -999.2500      3.7350   -999.2500      3.0380    -16.5264    -52.5000      3.0380    -56.1440    -15.0240      0.2398      0.4997      0.4997      1.6656
   6190.0000   -999.2500      3.2670      1.6095      2.9581      0.0000   -999.2500      0.2511      0.2152   -999.2500      3.2670   -999.2500      2.8820    -17.9156    -52.5000      2.8820    -57.5700    -16.2869      0.2318      0.4828      0.4828      1.6095
   6190.5000   -999.2500      3.0080      1.5185      2.9455      0.0000   -999.2500      0.2369      0.2179   -999.2500      3.0080   -999.2500      2.6490    -20.1678    -52.5000      2.6490    -59.8590    -18.3344      0.2187      0.4555      0.4555      1.5185
   6191.0000   -999.2500      2.8190      1.4556      2.9369      0.0000   -999.2500      0.2271      0.2198   -999.2500      2.8190   -999.2500      2.5530    -21.3581    -52.5000      2.5530    -61.0860    -19.4164      0.2096      0.4367      0.4367      1.4556
   6191.5000   -999.2500      2.6390      1.2708      2.9113      0.0000   -999.2500      0.1982      0.2254   -999.2500      2.6390   -999.2500      2.4900    -24.4073    -52.5000      2.4900    -64.1720    -22.1884      0.1830      0.3812      0.3812      1.2708
   6192.0000   -999.2500      2.5700      1.0000      2.8697      0.0000   -999.2500      0.2441      0.2293   -999.2500      2.5700   -999.2500      2.4500    -26.5925    -52.5000      2.4500    -66.3940    -24.1750      0.1639      0.3415      0.3415      1.0000
