~V
VERS. 2.00: Ver 2.00
WRAP.   NO:        
~W
 STRT.FT 1000:
 STOP.FT 8280:
 STEP.FT 0.5:
 NULL. -999.250000:
 COMP. Conoco:Company
 WELL. KCL M-1:Well
 FLD. :Field
 LOC. S27 T11N R22W:Location
 STAT. CA:State
 SRVC. :Service Company
 SON. :Service Order #
 DATE. :Log Date
 UWI. 3712400:Unique Well ID
~C
 DEPT.FT :
 18'.OHMM :
 9'.OHMM :
 LTHE. :
 MM. :
 PHES. :
 PHMX. :
 PHTS. :
 PHZC. :
 RD.OHMM :
 RM.OHMM :
 ROS. :
 RS.OHMM :
 SBL.MV :
 SCLN. :
 SN.OHMM :
 SP.MV :
 SPN. :
 VCDS. :
 VCLY. :
 VCWS. :
 VSHS. :
~P
~A
# ...
   7696.0000      3.7900      3.2730      1.9582      3.0867      0.0000   -999.2500      0.2050      0.1797      3.7900      3.2730   -999.2500      3.6080     -9.2855    -52.5000      3.6080    -23.1530     -8.4414      0.2820      0.5874      0.4870      1.9582
   7696.5000      3.7600      3.2580      1.9790      3.0896      0.0000   -999.2500      0.2047      0.1790      3.7600      3.2580   -999.2500      3.5500     -8.7694    -52.5000      3.5500    -22.6180     -7.9722      0.2850      0.5937      0.4896      1.9790
   7697.0000      3.7010      3.2430      1.9891      3.0910      0.0000   -999.2500      0.2045      0.1787      3.7010      3.2430   -999.2500      3.4920     -8.5203    -52.5000      3.4920    -22.3500     -7.7458      0.2864      0.5967      0.4909      1.9891
   7697.5000      3.6110      3.2480      1.9992      3.0925      0.0000   -999.2500      0.2043      0.1784      3.6110      3.2480   -999.2500      3.3790     -8.2703    -52.5000      3.3790    -22.0810     -7.5184      0.2879      0.5998      0.4922      1.9992
   7698.0000      3.5620      3.2530      2.0106      3.0941      0.0000   -999.2500      0.2041      0.1780      3.5620      3.2530   -999.2500      3.3230     -7.9872    -52.5000      3.3230    -21.7790     -7.2611      0.2895      0.6032      0.4936      2.0106
   7698.5000      3.5120      3.2780      2.0221      3.0957      0.0000   -999.2500      0.2039      0.1777      3.5120      3.2780   -999.2500      3.2170     -7.7041    -52.5000      3.2170    -21.4770     -7.0038      0.2912      0.6066      0.4951      2.0221
   7699.0000      3.4720      3.3030      2.0402      3.0982      0.0000   -999.2500      0.2036      0.1771      3.4720      3.3030   -999.2500      3.1370     -7.2541    -52.5000      3.1370    -21.0080     -6.5946      0.2938      0.6121      0.4974      2.0402
   7699.5000      3.4420      3.3530      2.0550      3.1003      0.0000   -999.2500      0.2033      0.1767      3.4420      3.3530   -999.2500      3.0280     -6.8890    -52.5000      3.0280    -20.6240     -6.2627      0.2959      0.6165      0.4992      2.0550
   7700.0000      3.4330      3.4030      2.0697      3.1024      0.0000   -999.2500      0.2031      0.1762      3.4330      3.4030   -999.2500      2.9580     -6.5239    -52.5000      2.9580    -20.2400     -5.9308      0.2980      0.6209      0.5011      2.0697
   7700.5000      3.4240      3.4540      2.1052      3.1073      0.0000   -999.2500      0.2024      0.1752      3.4240      3.4540   -999.2500      2.9120     -5.6458    -52.5000      2.9120    -19.3430     -5.1326      0.3032      0.6316      0.5056      2.1052
   7701.0000      3.4300      3.5350      2.1112      3.1082      0.0000   -999.2500      0.2023      0.1750      3.4300      3.5350   -999.2500      2.8780     -5.4988    -52.5000      2.8780    -19.1770     -4.9989      0.3040      0.6333      0.5063      2.1112
   7701.5000      3.4360      3.6160      2.1204      3.1095      0.0000   -999.2500      0.2022      0.1747      3.4360      3.6160   -999.2500      2.8440     -5.2697    -52.5000      2.8440    -18.9290     -4.7906      0.3053      0.6361      0.5075      2.1204
   7702.0000      3.4430      3.7070      2.1297      3.1108      0.0000   -999.2500      0.2020      0.1744      3.4430      3.7070   -999.2500      2.8140     -5.0396    -52.5000      2.8140    -18.6800     -4.5815      0.3067      0.6389      0.5087      2.1297
   7702.5000      3.4490      3.7480      2.1384      3.1120      0.0000   -999.2500      0.2018      0.1741      3.4490      3.7480   -999.2500      2.8940     -4.8256    -52.5000      2.8940    -18.4470     -4.3869      0.3079      0.6415      0.5098      2.1384
   7703.0000      3.4510      3.7790      2.1389      3.1121      0.0000   -999.2500      0.2018      0.1741      3.4510      3.7790   -999.2500      2.9350     -4.8125    -52.5000      2.9350    -18.4150     -4.3750      0.3080      0.6417      0.5098      2.1389
   7703.5000      3.4520      3.8100      2.1395      3.1122      0.0000   -999.2500      0.2018      0.1741      3.4520      3.8100   -999.2500      2.9580     -4.7974    -52.5000      2.9580    -18.3810     -4.3613      0.3081      0.6418      0.5099      2.1395
   7704.0000      3.4540      3.7720      2.1387      3.1121      0.0000   -999.2500      0.2018      0.1741      3.4540      3.7720   -999.2500      2.9420     -4.8173    -52.5000      2.9420    -18.3820     -4.3794      0.3080      0.6416      0.5098      2.1387
   7704.5000      3.4550      3.7290      2.1379      3.1121      0.0000   -999.2500      0.2018      0.1741      3.4550      3.7290   -999.2500      2.9030     -4.8363    -52.5000      2.9030    -18.3820     -4.3966      0.3079      0.6414      0.5097      2.1379
   7705.0000      3.4460      3.6850      2.1371      3.1120      0.0000   -999.2500      0.2018      0.1741      3.4460      3.6850   -999.2500      2.8800     -4.8562    -52.5000      2.8800    -18.3830     -4.4147      0.3077      0.6411      0.5096      2.1371
   7705.5000      3.4480      3.6470      2.1391      3.1123      0.0000   -999.2500      0.2018      0.1741      3.4480      3.6470   -999.2500      2.8570     -4.8071    -52.5000      2.8570    -18.3150     -4.3701      0.3080      0.6417      0.5098      2.1391
   7706.0000      3.4490      3.5990      2.1410      3.1126      0.0000   -999.2500      0.2017      0.1740      3.4490      3.5990   -999.2500      2.8480     -4.7600    -52.5000      2.8480    -18.2490     -4.3273      0.3083      0.6423      0.5100      2.1410
   7706.5000      3.4460      3.5500      2.1429      3.1129      0.0000   -999.2500      0.2017      0.1739      3.4460      3.5500   -999.2500      2.8680     -4.7130    -52.5000      2.8680    -18.1830     -4.2845      0.3086      0.6429      0.5103      2.1429
   7707.0000      3.4420      3.5220      2.1449      3.1131      0.0000   -999.2500      0.2017      0.1739      3.4420      3.5220   -999.2500      2.8880     -4.6649    -52.5000      2.8880    -18.1160     -4.2408      0.3089      0.6435      0.5105      2.1449
   7707.5000      3.4440      3.4930      2.1468      3.1134      0.0000   -999.2500      0.2016      0.1738      3.4440      3.4930   -999.2500      2.7900     -4.6168    -52.5000      2.7900    -18.0490     -4.1971      0.3091      0.6440      0.5108      2.1468
   7708.0000      3.4450      3.4350      2.1460      3.1134      0.0000   -999.2500      0.2016      0.1738      3.4450      3.4350   -999.2500      2.7700     -4.6368    -52.5000      2.7700    -18.0500     -4.2152      0.3090      0.6438      0.5106      2.1460
   7708.5000      3.4460      3.3770      2.1453      3.1133      0.0000   -999.2500      0.2016      0.1738      3.4460      3.3770   -999.2500      2.7670     -4.6547    -52.5000      2.7670    -18.0490     -4.2315      0.3089      0.6436      0.5105      2.1453
   7709.0000      3.4480      3.3280      2.1431      3.1130      0.0000   -999.2500      0.2017      0.1739      3.4480      3.3280   -999.2500      2.7780     -4.7076    -52.5000      2.7780    -18.0830     -4.2796      0.3086      0.6429      0.5103      2.1431
   7709.5000      3.4490      3.2800      2.1410      3.1127      0.0000   -999.2500      0.2017      0.1739      3.4490      3.2800   -999.2500      2.7910     -4.7605    -52.5000      2.7910    -18.1170     -4.3278      0.3083      0.6423      0.5100      2.1410
   7710.0000      3.3910      3.2170      2.1403      3.1127      0.0000   -999.2500      0.2017      0.1740      3.3910      3.2170   -999.2500      2.8020     -4.7785    -52.5000      2.8020    -18.1160     -4.3441      0.3082      0.6421      0.5099      2.1403
   7710.5000      3.3470      3.1530      2.1382      3.1124      0.0000   -999.2500      0.2017      0.1740      3.3470      3.1530   -999.2500      2.8020     -4.8304    -52.5000      2.8020    -18.1490     -4.3913      0.3079      0.6414      0.5096      2.1382
   7711.0000      3.3040      3.0950      2.1354      3.1120      0.0000   -999.2500      0.2018      0.1741      3.3040      3.0950   -999.2500      2.8040     -4.8993    -52.5000      2.8040    -18.1990     -4.4539      0.3075      0.6406      0.5092      2.1354
