~V
VERS. 2.00: Ver 2.00
WRAP.   NO:        
~W
 STRT.FT 1000:
 STOP.FT 8280:
 STEP.FT 0.5:
 NULL. -999.250000:
 COMP. Conoco:Company
 WELL. KCL M-1:Well
 FLD. :Field
 LOC. S27 T11N R22W:Location
 STAT. CA:State
 SRVC. :Service Company
 SON. :Service Order #
 DATE. :Log Date
 UWI. 3712400:Unique Well ID
~C
 DEPT.FT :
 18'.OHMM :
 9'.OHMM :
 LTHE. :
 MM. :
 PHES. :
 PHMX. :
 PHTS. :
 PHZC. :
 RD.OHMM :
 RM.OHMM :
 ROS. :
 RS.OHMM :
 SBL.MV :
 SCLN. :
 SN.OHMM :
 SP.MV :
 SPN. :
 VCDS. :
 VCLY. :
 VCWS. :
 VSHS. :
~P
~A
# ...
   7510.0000   -999.2500      3.3770      1.7239      3.0444      0.0000   -999.2500      0.2689      0.1898   -999.2500      3.3770   -999.2500      2.8970    -15.0832    -52.5000      2.8970    -35.2100    -13.7120      0.2482      0.5172      0.5172      1.7239
   7510.5000   -999.2500      3.3420      1.7495      3.0479      0.0000   -999.2500      0.2729      0.1890   -999.2500      3.3420   -999.2500      2.8580    -14.4508    -52.5000      2.8580    -34.5750    -13.1371      0.2519      0.5248      0.5248      1.7495
   7511.0000   -999.2500      3.3060      1.8474      3.0615      0.0000   -999.2500      0.2882      0.1861   -999.2500      3.3060   -999.2500      2.8530    -12.0275    -52.5000      2.8530    -32.1490    -10.9341      0.2660      0.5542      0.5542      1.8474
   7511.5000   -999.2500      3.2460      1.8970      3.0684      0.0000   -999.2500      0.2959      0.1846   -999.2500      3.2460   -999.2500      2.8280    -10.7991    -52.5000      2.8280    -30.9180     -9.8174      0.2732      0.5691      0.5691      1.8970
   7512.0000   -999.2500      3.1870      1.9426      3.0747      0.0000   -999.2500      0.3031      0.1832   -999.2500      3.1870   -999.2500      2.8030     -9.6698    -52.5000      2.8030    -29.7860     -8.7907      0.2797      0.5828      0.5828      1.9426
   7512.5000   -999.2500      3.1320      1.9601      3.0772      0.0000   -999.2500      0.3058      0.1827   -999.2500      3.1320   -999.2500      2.7620     -9.2364    -52.5000      2.7620    -29.3500     -8.3967      0.2823      0.5880      0.5880      1.9601
   7513.0000   -999.2500      3.0970      1.9548      3.0765      0.0000   -999.2500      0.3050      0.1828   -999.2500      3.0970   -999.2500      2.7500     -9.3680    -52.5000      2.7500    -29.4790     -8.5164      0.2815      0.5864      0.5864      1.9548
   7513.5000   -999.2500      3.0610      1.9495      3.0758      0.0000   -999.2500      0.3041      0.1830   -999.2500      3.0610   -999.2500      2.7350     -9.4987    -52.5000      2.7350    -29.6070     -8.6352      0.2807      0.5849      0.5849      1.9495
   7514.0000   -999.2500      3.0360      1.9483      3.0756      0.0000   -999.2500      0.3039      0.1830   -999.2500      3.0360   -999.2500      2.7200     -9.5303    -52.5000      2.7200    -29.6360     -8.6639      0.2806      0.5845      0.5845      1.9483
   7514.5000   -999.2500      3.0110      1.9457      3.0753      0.0000   -999.2500      0.3035      0.1831   -999.2500      3.0110   -999.2500      2.7130     -9.5950    -52.5000      2.7130    -29.6980     -8.7227      0.2802      0.5837      0.5837      1.9457
   7515.0000   -999.2500      2.9920      1.9538      3.0765      0.0000   -999.2500      0.3048      0.1828   -999.2500      2.9920   -999.2500      2.7060     -9.3936    -52.5000      2.7060    -29.4940     -8.5396      0.2813      0.5861      0.5861      1.9538
   7515.5000   -999.2500      2.9740      1.9565      3.0769      0.0000   -999.2500      0.3052      0.1827   -999.2500      2.9740   -999.2500      2.7020     -9.3262    -52.5000      2.7020    -29.4240     -8.4784      0.2817      0.5870      0.5870      1.9565
   7516.0000   -999.2500      2.9550      1.9633      3.0778      0.0000   -999.2500      0.3063      0.1825   -999.2500      2.9550   -999.2500      2.7000     -9.1589    -52.5000      2.7000    -29.2540     -8.3263      0.2827      0.5890      0.5890      1.9633
   7516.5000   -999.2500      2.9300      1.9714      3.0790      0.0000   -999.2500      0.3075      0.1822   -999.2500      2.9300   -999.2500      2.6980     -8.9575    -52.5000      2.6980    -29.0500     -8.1432      0.2839      0.5914      0.5914      1.9714
   7517.0000   -999.2500      2.9250      1.9741      3.0794      0.0000   -999.2500      0.3080      0.1822   -999.2500      2.9250   -999.2500      2.6930     -8.8902    -52.5000      2.6930    -28.9800     -8.0820      0.2843      0.5922      0.5922      1.9741
   7517.5000   -999.2500      2.9190      1.9836      3.0807      0.0000   -999.2500      0.3094      0.1819   -999.2500      2.9190   -999.2500      2.6880     -8.6568    -52.5000      2.6880    -28.7440     -7.8698      0.2856      0.5951      0.5951      1.9836
   7518.0000   -999.2500      2.9140      2.0172      3.0854      0.0000   -999.2500      0.3147      0.1809   -999.2500      2.9140   -999.2500      2.6830     -7.8255    -52.5000      2.6830    -27.9100     -7.1141      0.2905      0.6051      0.6051      2.0172
   7518.5000   -999.2500      2.9090      2.0360      3.0880      0.0000   -999.2500      0.3176      0.1803   -999.2500      2.9090   -999.2500      2.6580     -7.3601    -52.5000      2.6580    -27.4420     -6.6910      0.2932      0.6108      0.6108      2.0360
   7519.0000   -999.2500      2.9000      2.0669      3.0923      0.0000   -999.2500      0.3224      0.1793   -999.2500      2.9000   -999.2500      2.6410     -6.5947    -52.5000      2.6410    -26.6740     -5.9952      0.2976      0.6201      0.6201      2.0669
   7519.5000   -999.2500      2.8920      2.0636      3.0919      0.0000   -999.2500      0.3219      0.1794   -999.2500      2.8920   -999.2500      2.6240     -6.6764    -52.5000      2.6240    -26.7530     -6.0694      0.2972      0.6191      0.6191      2.0636
   7520.0000   -999.2500      2.8830      2.0603      3.0915      0.0000   -999.2500      0.3214      0.1795   -999.2500      2.8830   -999.2500      2.5900     -6.7580    -52.5000      2.5900    -26.8320     -6.1437      0.2967      0.6181      0.6181      2.0603
   7520.5000   -999.2500      2.8780      2.0456      3.0895      0.0000   -999.2500      0.3191      0.1800   -999.2500      2.8780   -999.2500      2.5680     -7.1207    -52.5000      2.5680    -27.1920     -6.4733      0.2946      0.6137      0.6137      2.0456
   7521.0000   -999.2500      2.8730      2.0309      3.0875      0.0000   -999.2500      0.3168      0.1804   -999.2500      2.8730   -999.2500      2.5500     -7.4843    -52.5000      2.5500    -27.5530     -6.8039      0.2925      0.6093      0.6093      2.0309
   7521.5000   -999.2500      2.8680      2.0163      3.0855      0.0000   -999.2500      0.3145      0.1808   -999.2500      2.8680   -999.2500      2.5310     -7.8470    -52.5000      2.5310    -27.9130     -7.1336      0.2903      0.6049      0.6049      2.0163
   7522.0000   -999.2500      2.8620      2.0110      3.0847      0.0000   -999.2500      0.3137      0.1810   -999.2500      2.8620   -999.2500      2.5230     -7.9786    -52.5000      2.5230    -28.0420     -7.2533      0.2896      0.6033      0.6033      2.0110
   7522.5000   -999.2500      2.8540      2.0044      3.0839      0.0000   -999.2500      0.3127      0.1812   -999.2500      2.8540   -999.2500      2.5340     -8.1422    -52.5000      2.5340    -28.2030     -7.4020      0.2886      0.6013      0.6013      2.0044
   7523.0000   -999.2500      2.8450      2.0031      3.0837      0.0000   -999.2500      0.3125      0.1812   -999.2500      2.8450   -999.2500      2.5760     -8.1739    -52.5000      2.5760    -28.2320     -7.4308      0.2884      0.6009      0.6009      2.0031
   7523.5000   -999.2500      2.8360      2.0031      3.0837      0.0000   -999.2500      0.3125      0.1812   -999.2500      2.8360   -999.2500      2.5870     -8.1725    -52.5000      2.5870    -28.2280     -7.4296      0.2885      0.6009      0.6009      2.0031
   7524.0000   -999.2500      2.8310      2.0032      3.0838      0.0000   -999.2500      0.3125      0.1812   -999.2500      2.8310   -999.2500      2.5690     -8.1712    -52.5000      2.5690    -28.2240     -7.4283      0.2885      0.6010      0.6010      2.0032
   7524.5000   -999.2500      2.8060      2.0033      3.0838      0.0000   -999.2500      0.3125      0.1812   -999.2500      2.8060   -999.2500      2.5610     -8.1688    -52.5000      2.5610    -28.2190     -7.4262      0.2885      0.6010      0.6010      2.0033
   7525.0000   -999.2500      2.8010      2.0087      3.0846      0.0000   -999.2500      0.3134      0.1810   -999.2500      2.8010   -999.2500      2.5550     -8.0334    -52.5000      2.5550    -28.0810     -7.3031      0.2893      0.6026      0.6026      2.0087
