~V
VERS. 2.00: Ver 2.00
WRAP.   NO:        
~W
 STRT.FT 1000:
 STOP.FT 8280:
 STEP.FT 0.5:
 NULL. -999.250000:
 COMP. Conoco:Company
 WELL. KCL M-1:Well
 FLD. :Field
 LOC. S27 T11N R22W:Location
 STAT. CA:State
 SRVC. :Service Company
 SON. :Service Order #
 DATE. :Log Date
 UWI. 3712400:Unique Well ID
~C
 DEPT.FT :
 18'.OHMM :
 9'.OHMM :
 LTHE. :
 MM. :
 PHES. :
 PHMX. :
 PHTS. :
 PHZC. :
 RD.OHMM :
 RM.OHMM :
 ROS. :
 RS.OHMM :
 SBL.MV :
 SCLN. :
 SN.OHMM :
 SP.MV :
 SPN. :
 VCDS. :
 VCLY. :
 VCWS. :
 VSHS. :
~P
~A
# ...
   5417.5000   -999.2500      2.3080      1.6326      2.9201      0.0000   -999.2500      0.2547      0.2274   -999.2500      2.3080   -999.2500      1.8310    -17.3433    -52.5000      1.8310    -54.4260    -15.7667      0.2351      0.4898      0.4898      1.6326
   5418.0000   -999.2500      2.2530      1.6650      2.9246      0.0000   -999.2500      0.2597      0.2264   -999.2500      2.2530   -999.2500      1.7870    -16.5410    -52.5000      1.7870    -53.6290    -15.0373      0.2398      0.4995      0.4995      1.6650
   5418.5000   -999.2500      2.1980      1.6947      2.9288      0.0000   -999.2500      0.2644      0.2255   -999.2500      2.1980   -999.2500      1.7240    -15.8057    -52.5000      1.7240    -52.8990    -14.3688      0.2440      0.5084      0.5084      1.6947
   5419.0000   -999.2500      2.1480      1.7138      2.9314      0.0000   -999.2500      0.2673      0.2249   -999.2500      2.1480   -999.2500      1.6610    -15.3343    -52.5000      1.6610    -52.4330    -13.9403      0.2468      0.5141      0.5141      1.7138
   5419.5000   -999.2500      2.0980      1.7314      2.9339      0.0000   -999.2500      0.2701      0.2244   -999.2500      2.0980   -999.2500      1.5880    -14.8970    -52.5000      1.5880    -52.0010    -13.5427      0.2493      0.5194      0.5194      1.7314
   5420.0000   -999.2500      2.0880      1.7491      2.9364      0.0000   -999.2500      0.2729      0.2239   -999.2500      2.0880   -999.2500      1.5420    -14.4597    -52.5000      1.5420    -51.5690    -13.1452      0.2519      0.5247      0.5247      1.7491
   5420.5000   -999.2500      2.0970      1.7896      2.9420      0.0000   -999.2500      0.2792      0.2226   -999.2500      2.0970   -999.2500      1.5150    -13.4583    -52.5000      1.5150    -50.5730    -12.2348      0.2577      0.5369      0.5369      1.7896
   5421.0000   -999.2500      2.1170      1.7958      2.9429      0.0000   -999.2500      0.2802      0.2224   -999.2500      2.1170   -999.2500      1.4930    -13.3030    -52.5000      1.4930    -50.4230    -12.0936      0.2586      0.5388      0.5388      1.7958
   5421.5000   -999.2500      2.1360      1.8022      2.9438      0.0000   -999.2500      0.2811      0.2222   -999.2500      2.1360   -999.2500      1.4720    -13.1467    -52.5000      1.4720    -50.2720    -11.9515      0.2595      0.5406      0.5406      1.8022
   5422.0000   -999.2500      2.1760      1.7970      2.9431      0.0000   -999.2500      0.2803      0.2224   -999.2500      2.1760   -999.2500      1.4450    -13.2733    -52.5000      1.4450    -50.4040    -12.0667      0.2588      0.5391      0.5391      1.7970
   5422.5000   -999.2500      2.2150      1.7986      2.9434      0.0000   -999.2500      0.2806      0.2223   -999.2500      2.2150   -999.2500      1.4350    -13.2340    -52.5000      1.4350    -50.3700    -12.0309      0.2590      0.5396      0.5396      1.7986
   5423.0000   -999.2500      2.2350      1.8083      2.9447      0.0000   -999.2500      0.2821      0.2220   -999.2500      2.2350   -999.2500      1.4350    -12.9957    -52.5000      1.4350    -50.1370    -11.8142      0.2604      0.5425      0.5425      1.8083
   5423.5000   -999.2500      2.2350      1.8139      2.9455      0.0000   -999.2500      0.2830      0.2219   -999.2500      2.2350   -999.2500      1.4340    -12.8563    -52.5000      1.4340    -50.0030    -11.6876      0.2612      0.5442      0.5442      1.8139
   5424.0000   -999.2500      2.2340      1.8195      2.9463      0.0000   -999.2500      0.2838      0.2217   -999.2500      2.2340   -999.2500      1.4320    -12.7170    -52.5000      1.4320    -49.8690    -11.5609      0.2620      0.5459      0.5459      1.8195
   5424.5000   -999.2500      2.2340      1.8238      2.9470      0.0000   -999.2500      0.2845      0.2215   -999.2500      2.2340   -999.2500      1.4310    -12.6117    -52.5000      1.4310    -49.7690    -11.4652      0.2626      0.5471      0.5471      1.8238
   5425.0000   -999.2500      2.2090      1.8240      2.9470      0.0000   -999.2500      0.2845      0.2215   -999.2500      2.2090   -999.2500      1.4310    -12.6053    -52.5000      1.4310    -49.7680    -11.4594      0.2627      0.5472      0.5472      1.8240
   5425.5000   -999.2500      2.1840      1.8203      2.9465      0.0000   -999.2500      0.2840      0.2216   -999.2500      2.1840   -999.2500      1.4310    -12.6980    -52.5000      1.4310    -49.8660    -11.5436      0.2621      0.5461      0.5461      1.8203
   5426.0000   -999.2500      2.1730      1.8178      2.9462      0.0000   -999.2500      0.2836      0.2217   -999.2500      2.1730   -999.2500      1.4380    -12.7587    -52.5000      1.4380    -49.9320    -11.5988      0.2618      0.5453      0.5453      1.8178
   5426.5000   -999.2500      2.1730      1.8154      2.9459      0.0000   -999.2500      0.2832      0.2218   -999.2500      2.1730   -999.2500      1.4440    -12.8183    -52.5000      1.4440    -49.9970    -11.6530      0.2614      0.5446      0.5446      1.8154
   5427.0000   -999.2500      2.1730      1.8157      2.9460      0.0000   -999.2500      0.2832      0.2217   -999.2500      2.1730   -999.2500      1.4470    -12.8120    -52.5000      1.4470    -49.9960    -11.6473      0.2615      0.5447      0.5447      1.8157
   5427.5000   -999.2500      2.1730      1.8152      2.9459      0.0000   -999.2500      0.2832      0.2218   -999.2500      2.1730   -999.2500      1.4510    -12.8227    -52.5000      1.4510    -50.0120    -11.6570      0.2614      0.5446      0.5446      1.8152
   5428.0000   -999.2500      2.1720      1.8149      2.9459      0.0000   -999.2500      0.2831      0.2218   -999.2500      2.1720   -999.2500      1.4500    -12.8323    -52.5000      1.4500    -50.0270    -11.6658      0.2613      0.5445      0.5445      1.8149
   5428.5000   -999.2500      2.1720      1.8057      2.9447      0.0000   -999.2500      0.2817      0.2220   -999.2500      2.1720   -999.2500      1.4500    -13.0580    -52.5000      1.4500    -50.2580    -11.8709      0.2600      0.5417      0.5417      1.8057
   5429.0000   -999.2500      2.1520      1.8013      2.9441      0.0000   -999.2500      0.2810      0.2221   -999.2500      2.1520   -999.2500      1.4500    -13.1677    -52.5000      1.4500    -50.3730    -11.9706      0.2594      0.5404      0.5404      1.8013
   5429.5000   -999.2500      2.1420      1.7969      2.9435      0.0000   -999.2500      0.2803      0.2223   -999.2500      2.1420   -999.2500      1.4470    -13.2773    -52.5000      1.4470    -50.4880    -12.0703      0.2588      0.5391      0.5391      1.7969
   5430.0000   -999.2500      2.1310      1.8038      2.9445      0.0000   -999.2500      0.2814      0.2221   -999.2500      2.1310   -999.2500      1.4430    -13.1060    -52.5000      1.4430    -50.3220    -11.9145      0.2597      0.5411      0.5411      1.8038
   5430.5000   -999.2500      2.0610      1.8148      2.9460      0.0000   -999.2500      0.2831      0.2217   -999.2500      2.0610   -999.2500      1.4420    -12.8337    -52.5000      1.4420    -50.0550    -11.6670      0.2613      0.5444      0.5444      1.8148
   5431.0000   -999.2500      2.0310      1.8231      2.9472      0.0000   -999.2500      0.2844      0.2215   -999.2500      2.0310   -999.2500      1.4400    -12.6283    -52.5000      1.4400    -49.8550    -11.4803      0.2625      0.5469      0.5469      1.8231
   5431.5000   -999.2500      2.0010      1.8220      2.9471      0.0000   -999.2500      0.2842      0.2215   -999.2500      2.0010   -999.2500      1.4370    -12.6560    -52.5000      1.4370    -49.8880    -11.5055      0.2624      0.5466      0.5466      1.8220
   5432.0000   -999.2500      1.9410      1.8075      2.9451      0.0000   -999.2500      0.2820      0.2219   -999.2500      1.9410   -999.2500      1.4360    -13.0147    -52.5000      1.4360    -50.2520    -11.8315      0.2603      0.5422      0.5422      1.8075
   5432.5000   -999.2500      1.8910      1.7903      2.9428      0.0000   -999.2500      0.2793      0.2224   -999.2500      1.8910   -999.2500      1.4360    -13.4393    -52.5000      1.4360    -50.6820    -12.2176      0.2578      0.5371      0.5371      1.7903
