~V
VERS. 2.00: Ver 2.00
WRAP.   NO:        
~W
 STRT.FT 1000:
 STOP.FT 8280:
 STEP.FT 0.5:
 NULL. -999.250000:
 COMP. Conoco:Company
 WELL. KCL M-1:Well
 FLD. :Field
 LOC. S27 T11N R22W:Location
 STAT. CA:State
 SRVC. :Service Company
 SON. :Service Order #
 DATE. :Log Date
 UWI. 3712400:Unique Well ID
~C
 DEPT.FT :
 18'.OHMM :
 9'.OHMM :
 LTHE. :
 MM. :
 PHES. :
 PHMX. :
 PHTS. :
 PHZC. :
 RD.OHMM :
 RM.OHMM :
 ROS. :
 RS.OHMM :
 SBL.MV :
 SCLN. :
 SN.OHMM :
 SP.MV :
 SPN. :
 VCDS. :
 VCLY. :
 VCWS. :
 VSHS. :
~P
~A
# ...
   5603.5000   -999.2500      2.0760      2.1746      3.0051      0.0000   -999.2500      0.3392      0.2080   -999.2500      2.0760   -999.2500      1.8780     -3.9283    -52.5000      1.8780    -42.9950     -3.5712      0.3131      0.6524      0.6524      2.1746
   5604.0000   -999.2500      2.0810      2.1548      3.0024      0.0000   -999.2500      0.3362      0.2086   -999.2500      2.0810   -999.2500      1.8810     -4.4180    -52.5000      1.8810    -43.4900     -4.0164      0.3103      0.6464      0.6464      2.1548
   5604.5000   -999.2500      2.0810      2.1430      3.0008      0.0000   -999.2500      0.3343      0.2090   -999.2500      2.0810   -999.2500      1.8850     -4.7097    -52.5000      1.8850    -43.7870     -4.2815      0.3086      0.6429      0.6429      2.1430
   5605.0000   -999.2500      2.0810      2.1473      3.0014      0.0000   -999.2500      0.3350      0.2088   -999.2500      2.0810   -999.2500      1.8880     -4.6033    -52.5000      1.8880    -43.6860     -4.1848      0.3092      0.6442      0.6442      2.1473
   5605.5000   -999.2500      2.0810      2.1584      3.0029      0.0000   -999.2500      0.3367      0.2085   -999.2500      2.0810   -999.2500      1.8950     -4.3300    -52.5000      1.8950    -43.4180     -3.9364      0.3108      0.6475      0.6475      2.1584
   5606.0000   -999.2500      2.0810      2.1694      3.0045      0.0000   -999.2500      0.3384      0.2082   -999.2500      2.0810   -999.2500      1.9010     -4.0577    -52.5000      1.9010    -43.1510     -3.6888      0.3124      0.6508      0.6508      2.1694
   5606.5000   -999.2500      2.0810      2.1657      3.0040      0.0000   -999.2500      0.3378      0.2083   -999.2500      2.0810   -999.2500      1.9080     -4.1493    -52.5000      1.9080    -43.2480     -3.7721      0.3119      0.6497      0.6497      2.1657
   5607.0000   -999.2500      2.0810      2.1619      3.0035      0.0000   -999.2500      0.3373      0.2084   -999.2500      2.0810   -999.2500      1.9210     -4.2420    -52.5000      1.9210    -43.3460     -3.8564      0.3113      0.6486      0.6486      2.1619
   5607.5000   -999.2500      2.0760      2.1529      3.0023      0.0000   -999.2500      0.3358      0.2086   -999.2500      2.0760   -999.2500      1.9280     -4.4667    -52.5000      1.9280    -43.5760     -4.0606      0.3100      0.6459      0.6459      2.1529
   5608.0000   -999.2500      2.0720      2.1478      3.0016      0.0000   -999.2500      0.3351      0.2088   -999.2500      2.0720   -999.2500      1.9350     -4.5923    -52.5000      1.9350    -43.7070     -4.1748      0.3093      0.6443      0.6443      2.1478
   5608.5000   -999.2500      2.0720      2.1736      3.0052      0.0000   -999.2500      0.3391      0.2080   -999.2500      2.0720   -999.2500      1.9410     -3.9540    -52.5000      1.9410    -43.0740     -3.5945      0.3130      0.6521      0.6521      2.1736
   5609.0000   -999.2500      2.0720      2.1805      3.0062      0.0000   -999.2500      0.3402      0.2078   -999.2500      2.0720   -999.2500      1.9500     -3.7817    -52.5000      1.9500    -42.9070     -3.4379      0.3140      0.6542      0.6542      2.1805
   5609.5000   -999.2500      2.0720      2.1862      3.0070      0.0000   -999.2500      0.3410      0.2076   -999.2500      2.0720   -999.2500      1.9580     -3.6413    -52.5000      1.9580    -42.7720     -3.3103      0.3148      0.6559      0.6559      2.1862
   5610.0000   -999.2500      2.0720      2.1811      3.0063      0.0000   -999.2500      0.3403      0.2077   -999.2500      2.0720   -999.2500      1.9680     -3.7670    -52.5000      1.9680    -42.9030     -3.4245      0.3141      0.6543      0.6543      2.1811
   5610.5000   -999.2500      2.0720      2.1734      3.0053      0.0000   -999.2500      0.3390      0.2080   -999.2500      2.0720   -999.2500      1.9780     -3.9587    -52.5000      1.9780    -43.1000     -3.5988      0.3130      0.6520      0.6520      2.1734
   5611.0000   -999.2500      2.0720      2.1656      3.0042      0.0000   -999.2500      0.3378      0.2082   -999.2500      2.0720   -999.2500      1.9940     -4.1503    -52.5000      1.9940    -43.2970     -3.7730      0.3119      0.6497      0.6497      2.1656
   5611.5000   -999.2500      2.0720      2.1110      2.9967      0.0000   -999.2500      0.3293      0.2098   -999.2500      2.0720   -999.2500      2.0140     -5.5030    -52.5000      2.0140    -44.6550     -5.0027      0.3040      0.6333      0.6333      2.1110
   5612.0000   -999.2500      2.0720      2.0657      2.9905      0.0000   -999.2500      0.3223      0.2112   -999.2500      2.0720   -999.2500      2.0310     -6.6237    -52.5000      2.0310    -45.7810     -6.0215      0.2975      0.6197      0.6197      2.0657
   5612.5000   -999.2500      2.0720      2.0406      2.9870      0.0000   -999.2500      0.3183      0.2119   -999.2500      2.0720   -999.2500      2.0580     -7.2463    -52.5000      2.0580    -46.4090     -6.5876      0.2938      0.6122      0.6122      2.0406
   5613.0000   -999.2500      2.0730      2.0140      2.9834      0.0000   -999.2500      0.3142      0.2127   -999.2500      2.0730   -999.2500      2.0970     -7.9030    -52.5000      2.0970    -47.0710     -7.1845      0.2900      0.6042      0.6042      2.0140
   5613.5000   -999.2500      2.0730      2.0009      2.9816      0.0000   -999.2500      0.3121      0.2131   -999.2500      2.0730   -999.2500      2.1270     -8.2267    -52.5000      2.1270    -47.4000     -7.4788      0.2881      0.6003      0.6003      2.0009
   5614.0000   -999.2500      2.0730      1.9892      2.9800      0.0000   -999.2500      0.3103      0.2134   -999.2500      2.0730   -999.2500      2.1570     -8.5183    -52.5000      2.1570    -47.6970     -7.7439      0.2864      0.5967      0.5967      1.9892
   5614.5000   -999.2500      2.0780      1.9827      2.9791      0.0000   -999.2500      0.3093      0.2136   -999.2500      2.0780   -999.2500      2.2150     -8.6770    -52.5000      2.2150    -47.8610     -7.8882      0.2855      0.5948      0.5948      1.9827
   5615.0000   -999.2500      2.0830      1.9763      2.9782      0.0000   -999.2500      0.3083      0.2138   -999.2500      2.0830   -999.2500      2.2730     -8.8357    -52.5000      2.2730    -48.0250     -8.0324      0.2846      0.5929      0.5929      1.9763
   5615.5000   -999.2500      2.1130      1.9538      2.9752      0.0000   -999.2500      0.3048      0.2145   -999.2500      2.1130   -999.2500      2.3050     -9.3923    -52.5000      2.3050    -48.5870     -8.5385      0.2814      0.5862      0.5862      1.9538
   5616.0000   -999.2500      2.1380      1.9408      2.9734      0.0000   -999.2500      0.3028      0.2148   -999.2500      2.1380   -999.2500      2.3360     -9.7160    -52.5000      2.3360    -48.9160     -8.8327      0.2795      0.5822      0.5822      1.9408
   5616.5000   -999.2500      2.1630      1.9303      2.9719      0.0000   -999.2500      0.3011      0.2151   -999.2500      2.1630   -999.2500      2.3930     -9.9747    -52.5000      2.3930    -49.1800     -9.0679      0.2780      0.5791      0.5791      1.9303
   5617.0000   -999.2500      2.2130      1.9199      2.9705      0.0000   -999.2500      0.2995      0.2155   -999.2500      2.2130   -999.2500      2.4330    -10.2323    -52.5000      2.4330    -49.4430     -9.3021      0.2765      0.5760      0.5760      1.9199
   5617.5000   -999.2500      2.2530      1.8961      2.9673      0.0000   -999.2500      0.2958      0.2162   -999.2500      2.2530   -999.2500      2.4730    -10.8220    -52.5000      2.4730    -50.0380     -9.8382      0.2730      0.5688      0.5688      1.8961
   5618.0000   -999.2500      2.2930      1.8843      2.9657      0.0000   -999.2500      0.2940      0.2165   -999.2500      2.2930   -999.2500      2.5120    -11.1137    -52.5000      2.5120    -50.3350    -10.1033      0.2713      0.5653      0.5653      1.8843
   5618.5000   -999.2500      2.3570      1.8511      2.9611      0.0000   -999.2500      0.2888      0.2175   -999.2500      2.3570   -999.2500      2.5560    -11.9353    -52.5000      2.5560    -51.1620    -10.8503      0.2666      0.5553      0.5553      1.8511
