~V
VERS. 2.00: Ver 2.00
WRAP.   NO:        
~W
 STRT.FT 1000:
 STOP.FT 8280:
 STEP.FT 0.5:
 NULL. -999.250000:
 COMP. Conoco:Company
 WELL. KCL M-1:Well
 FLD. :Field
 LOC. S27 T11N R22W:Location
 STAT. CA:State
 SRVC. :Service Company
 SON. :Service Order #
 DATE. :Log Date
 UWI. 3712400:Unique Well ID
~C
 DEPT.FT :
 18'.OHMM :
 9'.OHMM :
 LTHE. :
 MM. :
 PHES. :
 PHMX. :
 PHTS. :
 PHZC. :
 RD.OHMM :
 RM.OHMM :
 ROS. :
 RS.OHMM :
 SBL.MV :
 SCLN. :
 SN.OHMM :
 SP.MV :
 SPN. :
 VCDS. :
 VCLY. :
 VCWS. :
 VSHS. :
~P
~A
# ...
   6363.0000   -999.2500      2.4100      1.8406      2.9993      0.0000   -999.2500      0.2871      0.2054   -999.2500      2.4100   -999.2500      2.0430    -12.1947    -52.5000      2.0430    -58.6080    -11.0861      0.2650      0.5522      0.5522      1.8406
   6363.5000   -999.2500      2.3970      1.8361      2.9987      0.0000   -999.2500      0.2864      0.2055   -999.2500      2.3970   -999.2500      2.0340    -12.3070    -52.5000      2.0340    -58.7070    -11.1882      0.2644      0.5508      0.5508      1.8361
   6364.0000   -999.2500      2.3850      1.8281      2.9977      0.0000   -999.2500      0.2852      0.2058   -999.2500      2.3850   -999.2500      2.0260    -12.5033    -52.5000      2.0260    -58.8900    -11.3667      0.2633      0.5484      0.5484      1.8281
   6364.5000   -999.2500      2.3720      1.8202      2.9966      0.0000   -999.2500      0.2840      0.2060   -999.2500      2.3720   -999.2500      2.0170    -12.6997    -52.5000      2.0170    -59.0730    -11.5452      0.2621      0.5461      0.5461      1.8202
   6365.0000   -999.2500      2.3470      1.8008      2.9939      0.0000   -999.2500      0.2809      0.2066   -999.2500      2.3470   -999.2500      2.0080    -13.1790    -52.5000      2.0080    -59.5390    -11.9809      0.2593      0.5403      0.5403      1.8008
   6365.5000   -999.2500      2.3210      1.7721      2.9900      0.0000   -999.2500      0.2765      0.2074   -999.2500      2.3210   -999.2500      1.9990    -13.8893    -52.5000      1.9990    -60.2360    -12.6267      0.2552      0.5316      0.5316      1.7721
   6366.0000   -999.2500      2.2960      1.7515      2.9872      0.0000   -999.2500      0.2732      0.2080   -999.2500      2.2960   -999.2500      1.9890    -14.4007    -52.5000      1.9890    -60.7340    -13.0915      0.2522      0.5254      0.5254      1.7515
   6366.5000   -999.2500      2.2710      1.7335      2.9847      0.0000   -999.2500      0.2704      0.2086   -999.2500      2.2710   -999.2500      1.9790    -14.8460    -52.5000      1.9790    -61.1660    -13.4964      0.2496      0.5200      0.5200      1.7335
   6367.0000   -999.2500      2.2310      1.7463      2.9865      0.0000   -999.2500      0.2724      0.2082   -999.2500      2.2310   -999.2500      1.9700    -14.5283    -52.5000      1.9700    -60.8350    -13.2076      0.2515      0.5239      0.5239      1.7463
   6367.5000   -999.2500      2.2140      1.7538      2.9876      0.0000   -999.2500      0.2736      0.2079   -999.2500      2.2140   -999.2500      1.9620    -14.3427    -52.5000      1.9620    -60.6360    -13.0388      0.2526      0.5261      0.5261      1.7538
   6368.0000   -999.2500      2.1970      1.7674      2.9895      0.0000   -999.2500      0.2757      0.2075   -999.2500      2.1970   -999.2500      1.9540    -14.0080    -52.5000      1.9540    -60.2880    -12.7345      0.2545      0.5302      0.5302      1.7674
   6368.5000   -999.2500      2.1800      1.7809      2.9914      0.0000   -999.2500      0.2778      0.2071   -999.2500      2.1800   -999.2500      1.9450    -13.6723    -52.5000      1.9450    -59.9390    -12.4294      0.2565      0.5343      0.5343      1.7809
   6369.0000   -999.2500      2.1650      1.8152      2.9961      0.0000   -999.2500      0.2832      0.2061   -999.2500      2.1650   -999.2500      1.9430    -12.8227    -52.5000      1.9430    -59.0760    -11.6570      0.2614      0.5446      0.5446      1.8152
   6369.5000   -999.2500      2.1500      1.8295      2.9981      0.0000   -999.2500      0.2854      0.2056   -999.2500      2.1500   -999.2500      1.9420    -12.4710    -52.5000      1.9420    -58.7110    -11.3373      0.2634      0.5488      0.5488      1.8295
   6370.0000   -999.2500      2.1340      1.8436      3.0001      0.0000   -999.2500      0.2876      0.2052   -999.2500      2.1340   -999.2500      1.9370    -12.1203    -52.5000      1.9370    -58.3470    -11.0185      0.2655      0.5531      0.5531      1.8436
   6370.5000   -999.2500      2.1190      1.8552      3.0018      0.0000   -999.2500      0.2894      0.2048   -999.2500      2.1190   -999.2500      1.9330    -11.8347    -52.5000      1.9330    -58.0480    -10.7588      0.2671      0.5565      0.5565      1.8552
   6371.0000   -999.2500      2.1040      1.8667      3.0034      0.0000   -999.2500      0.2912      0.2045   -999.2500      2.1040   -999.2500      1.9280    -11.5500    -52.5000      1.9280    -57.7500    -10.5000      0.2688      0.5600      0.5600      1.8667
   6371.5000   -999.2500      2.0890      1.8816      3.0055      0.0000   -999.2500      0.2935      0.2040   -999.2500      2.0890   -999.2500      1.9230    -11.1813    -52.5000      1.9230    -57.3680    -10.1649      0.2709      0.5645      0.5645      1.8816
   6372.0000   -999.2500      2.0780      1.8964      3.0075      0.0000   -999.2500      0.2958      0.2036   -999.2500      2.0780   -999.2500      1.9180    -10.8137    -52.5000      1.9180    -56.9870     -9.8306      0.2731      0.5689      0.5689      1.8964
   6372.5000   -999.2500      2.0780      1.9093      3.0094      0.0000   -999.2500      0.2978      0.2032   -999.2500      2.0780   -999.2500      1.9150    -10.4950    -52.5000      1.9150    -56.6550     -9.5409      0.2749      0.5728      0.5728      1.9093
   6373.0000   -999.2500      2.0780      1.9222      3.0112      0.0000   -999.2500      0.2999      0.2028   -999.2500      2.0780   -999.2500      1.9110    -10.1763    -52.5000      1.9110    -56.3230     -9.2512      0.2768      0.5767      0.5767      1.9222
   6373.5000   -999.2500      2.0780      1.9364      3.0132      0.0000   -999.2500      0.3021      0.2024   -999.2500      2.0780   -999.2500      1.9070     -9.8247    -52.5000      1.9070    -55.9580     -8.9315      0.2788      0.5809      0.5809      1.9364
   6374.0000   -999.2500      2.0720      1.9459      3.0145      0.0000   -999.2500      0.3036      0.2021   -999.2500      2.0720   -999.2500      1.9020     -9.5900    -52.5000      1.9020    -55.7100     -8.7182      0.2802      0.5838      0.5838      1.9459
   6374.5000   -999.2500      2.0670      1.9554      3.0158      0.0000   -999.2500      0.3050      0.2018   -999.2500      2.0670   -999.2500      1.8980     -9.3543    -52.5000      1.8980    -55.4610     -8.5039      0.2816      0.5866      0.5866      1.9554
   6375.0000   -999.2500      2.0620      1.9736      3.0184      0.0000   -999.2500      0.3079      0.2012   -999.2500      2.0620   -999.2500      1.8940     -8.9037    -52.5000      1.8940    -54.9970     -8.0942      0.2842      0.5921      0.5921      1.9736
   6375.5000   -999.2500      2.0560      1.9838      3.0198      0.0000   -999.2500      0.3095      0.2009   -999.2500      2.0560   -999.2500      1.8910     -8.6510    -52.5000      1.8910    -54.7310     -7.8645      0.2857      0.5951      0.5951      1.9838
   6376.0000   -999.2500      2.0560      1.9940      3.0213      0.0000   -999.2500      0.3111      0.2006   -999.2500      2.0560   -999.2500      1.8870     -8.3993    -52.5000      1.8870    -54.4660     -7.6358      0.2871      0.5982      0.5982      1.9940
   6376.5000   -999.2500      2.0560      2.0001      3.0222      0.0000   -999.2500      0.3120      0.2004   -999.2500      2.0560   -999.2500      1.8850     -8.2467    -52.5000      1.8850    -54.3000     -7.4970      0.2880      0.6000      0.6000      2.0001
   6377.0000   -999.2500      2.0560      2.0063      3.0230      0.0000   -999.2500      0.3130      0.2002   -999.2500      2.0560   -999.2500      1.8840     -8.0950    -52.5000      1.8840    -54.1350     -7.3591      0.2889      0.6019      0.6019      2.0063
   6377.5000   -999.2500      2.0490      2.0178      3.0246      0.0000   -999.2500      0.3148      0.1998   -999.2500      2.0490   -999.2500      1.8800     -7.8093    -52.5000      1.8800    -53.8360     -7.0994      0.2906      0.6053      0.6053      2.0178
   6378.0000   -999.2500      2.0420      2.0226      3.0253      0.0000   -999.2500      0.3155      0.1997   -999.2500      2.0420   -999.2500      1.8770     -7.6907    -52.5000      1.8770    -53.7040     -6.9915      0.2913      0.6068      0.6068      2.0226
