~V
VERS. 2.00: Ver 2.00
WRAP.   NO:        
~W
 STRT.FT 1000:
 STOP.FT 8280:
 STEP.FT 0.5:
 NULL. -999.250000:
 COMP. Conoco:Company
 WELL. KCL M-1:Well
 FLD. :Field
 LOC. S27 T11N R22W:Location
 STAT. CA:State
 SRVC. :Service Company
 SON. :Service Order #
 DATE. :Log Date
 UWI. 3712400:Unique Well ID
~C
 DEPT.FT :
 18'.OHMM :
 9'.OHMM :
 LTHE. :
 MM. :
 PHES. :
 PHMX. :
 PHTS. :
 PHZC. :
 RD.OHMM :
 RM.OHMM :
 ROS. :
 RS.OHMM :
 SBL.MV :
 SCLN. :
 SN.OHMM :
 SP.MV :
 SPN. :
 VCDS. :
 VCLY. :
 VCWS. :
 VSHS. :
~P
~A
# ...
   8269.5000   -999.2500   -999.2500      1.0000      3.1548      0.0000      0.1325      0.2089      0.2686   -999.2500   -999.2500      8.4788   -999.2500     -6.4240    -93.5000   -999.2500    -12.4240     -5.8400      0.2344      0.4688      0.4688      1.0000
   8270.0000   -999.2500   -999.2500      1.0000      3.1547      0.0000      0.1325      0.2090      0.2687   -999.2500   -999.2500      8.4754   -999.2500     -6.4860    -93.5000   -999.2500    -12.4860     -5.8964      0.2342      0.4685      0.4685      1.0000
   8270.5000   -999.2500   -999.2500      1.0000      3.1551      0.0000      0.1324      0.2088      0.2684   -999.2500   -999.2500      8.4916   -999.2500     -6.2830    -93.5000   -999.2500    -12.2830     -5.7118      0.2347      0.4695      0.4695      1.0000
   8271.0000   -999.2500   -999.2500      1.0000      3.1555      0.0000      0.1324      0.2086      0.2682   -999.2500   -999.2500      8.5055   -999.2500     -6.1130    -93.5000   -999.2500    -12.1130     -5.5573      0.2351      0.4703      0.4703      1.0000
   8271.5000   -999.2500   -999.2500      1.0000      3.1556      0.0000      0.1324      0.2086      0.2681   -999.2500   -999.2500      8.5094   -999.2500     -6.0760    -93.5000   -999.2500    -12.0760     -5.5236      0.2352      0.4705      0.4705      1.0000
   8272.0000   -999.2500   -999.2500      1.0000      3.1555      0.0000      0.1324      0.2086      0.2681   -999.2500   -999.2500      8.5072   -999.2500     -6.1220    -93.5000   -999.2500    -12.1220     -5.5655      0.2351      0.4702      0.4702      1.0000
   8272.5000   -999.2500   -999.2500      1.0000      3.1554      0.0000      0.1324      0.2086      0.2682   -999.2500   -999.2500      8.5050   -999.2500     -6.1680    -93.5000   -999.2500    -12.1680     -5.6073      0.2350      0.4700      0.4700      1.0000
   8273.0000   -999.2500   -999.2500      1.0000      3.1552      0.0000      0.1324      0.2087      0.2683   -999.2500   -999.2500      8.5003   -999.2500     -6.2470    -93.5000   -999.2500    -12.2470     -5.6791      0.2348      0.4696      0.4696      1.0000
   8273.5000   -999.2500   -999.2500      1.0000      3.1550      0.0000      0.1324      0.2087      0.2684   -999.2500   -999.2500      8.4956   -999.2500     -6.3260    -93.5000   -999.2500    -12.3260     -5.7509      0.2346      0.4692      0.4692      1.0000
   8274.0000   -999.2500   -999.2500      1.0000      3.1549      0.0000      0.1324      0.2088      0.2684   -999.2500   -999.2500      8.4922   -999.2500     -6.3880    -93.5000   -999.2500    -12.3880     -5.8073      0.2345      0.4689      0.4689      1.0000
   8274.5000   -999.2500   -999.2500      1.0000      3.1692      0.0000      0.1309      0.2035      0.2600   -999.2500   -999.2500      8.9944   -999.2500     -6.4500 1000000015047466220000000000000.0000   -999.2500    -12.4500     -5.8636      0.2500      0.5000      0.5000      1.0000
   8275.0000   -999.2500   -999.2500      1.0000      3.1692      0.0000      0.1309      0.2035      0.2600   -999.2500   -999.2500      8.9957   -999.2500     -6.4110 1000000015047466220000000000000.0000   -999.2500    -12.4110     -5.8282      0.2500      0.5000      0.5000      1.0000
   8275.5000   -999.2500   -999.2500      1.0000      3.1692      0.0000      0.1309      0.2035      0.2600   -999.2500   -999.2500      8.9970   -999.2500     -6.3410 1000000015047466220000000000000.0000   -999.2500    -12.3410     -5.7645      0.2500      0.5000      0.5000      1.0000
   8276.0000   -999.2500   -999.2500      1.0000      3.1692      0.0000      0.1309      0.2034      0.2600   -999.2500   -999.2500      8.9983   -999.2500     -6.1720 1000000015047466220000000000000.0000   -999.2500    -12.1720     -5.6109      0.2500      0.5000      0.5000      1.0000
   8276.5000   -999.2500   -999.2500      1.0000      3.1692      0.0000      0.1309      0.2034      0.2600   -999.2500   -999.2500      8.9996   -999.2500     -6.0020 1000000015047466220000000000000.0000   -999.2500    -12.0020     -5.4564      0.2500      0.5000      0.5000      1.0000
   8277.0000   -999.2500   -999.2500      1.0000      3.1692      0.0000      0.1309      0.2034      0.2600   -999.2500   -999.2500      9.0009   -999.2500     -5.4990 1000000015047466220000000000000.0000   -999.2500    -11.4990     -4.9991      0.2500      0.5000      0.5000      1.0000
   8277.5000   -999.2500   -999.2500      1.0000      3.1692      0.0000      0.1309      0.2034      0.2600   -999.2500   -999.2500      9.0022   -999.2500     -5.2460 1000000015047466220000000000000.0000   -999.2500    -11.2460     -4.7691      0.2500      0.5000      0.5000      1.0000
   8278.0000   -999.2500   -999.2500      1.0000      3.1692      0.0000      0.1309      0.2034      0.2599   -999.2500   -999.2500      9.0035   -999.2500     -4.9940 1000000015047466220000000000000.0000   -999.2500    -10.9940     -4.5400      0.2500      0.5000      0.5000      1.0000
   8278.5000   -999.2500   -999.2500      1.0000      3.1692      0.0000      0.1309      0.2034      0.2599   -999.2500   -999.2500      9.0048   -999.2500     -4.5240 1000000015047466220000000000000.0000   -999.2500    -10.5240     -4.1127      0.2500      0.5000      0.5000      1.0000
   8279.0000   -999.2500   -999.2500      1.0000      3.1692      0.0000      0.1309      0.2034      0.2599   -999.2500   -999.2500      9.0061   -999.2500     -4.2540 1000000015047466220000000000000.0000   -999.2500    -10.2540     -3.8673      0.2500      0.5000      0.5000      1.0000
   8279.5000   -999.2500   -999.2500      1.0000      3.1692      0.0000      0.1309      0.2033      0.2599   -999.2500   -999.2500      9.0074   -999.2500     -4.1840 1000000015047466220000000000000.0000   -999.2500    -10.1840     -3.8036      0.2500      0.5000      0.5000      1.0000
   8280.0000   -999.2500   -999.2500      1.0000      3.1692      0.0000      0.1309      0.2033      0.2599   -999.2500   -999.2500      9.0087   -999.2500     -4.1140 1000000015047466220000000000000.0000   -999.2500    -10.1140     -3.7400      0.2500      0.5000      0.5000      1.0000
