~V
VERS. 2.00: Ver 2.00
WRAP.   NO:        
~W
 STRT.FT 1000:
 STOP.FT 8280:
 STEP.FT 0.5:
 NULL. -999.250000:
 COMP. Conoco:Company
 WELL. KCL M-1:Well
 FLD. :Field
 LOC. S27 T11N R22W:Location
 STAT. CA:State
 SRVC. :Service Company
 SON. :Service Order #
 DATE. :Log Date
 UWI. 3712400:Unique Well ID
~C
 DEPT.FT :
 18'.OHMM :
 9'.OHMM :
 LTHE. :
 MM. :
 PHES. :
 PHMX. :
 PHTS. :
 PHZC. :
 RD.OHMM :
 RM.OHMM :
 ROS. :
 RS.OHMM :
 SBL.MV :
 SCLN. :
 SN.OHMM :
 SP.MV :
 SPN. :
 VCDS. :
 VCLY. :
 VCWS. :
 VSHS. :
~P
~A
# ...
   7122.5000   -999.2500      2.3050      2.1046      3.0764      0.0000   -999.2500      0.3283      0.1848   -999.2500      2.3050   -999.2500      2.0100     -5.6618    -52.5000      2.0100    -28.6960     -5.1471      0.3031      0.6314      0.6314      2.1046
   7123.0000   -999.2500      2.3060      2.0979      3.0755      0.0000   -999.2500      0.3273      0.1850   -999.2500      2.3060   -999.2500      2.0100     -5.8265    -52.5000      2.0100    -28.8450     -5.2968      0.3021      0.6294      0.6294      2.0979
   7123.5000   -999.2500      2.3070      2.0974      3.0755      0.0000   -999.2500      0.3272      0.1850   -999.2500      2.3070   -999.2500      2.0240     -5.8402    -52.5000      2.0240    -28.8430     -5.3092      0.3020      0.6292      0.6292      2.0974
   7124.0000   -999.2500      2.3080      2.1035      3.0763      0.0000   -999.2500      0.3281      0.1848   -999.2500      2.3080   -999.2500      2.0640     -5.6888    -52.5000      2.0640    -28.6760     -5.1717      0.3029      0.6310      0.6310      2.1035
   7124.5000   -999.2500      2.3090      2.1109      3.0774      0.0000   -999.2500      0.3293      0.1846   -999.2500      2.3090   -999.2500      2.1040     -5.5055    -52.5000      2.1040    -28.4770     -5.0050      0.3040      0.6333      0.6333      2.1109
   7125.0000   -999.2500      2.3100      2.1183      3.0784      0.0000   -999.2500      0.3305      0.1844   -999.2500      2.3100   -999.2500      2.1380     -5.3212    -52.5000      2.1380    -28.2770     -4.8374      0.3050      0.6355      0.6355      2.1183
   7125.5000   -999.2500      2.3120      2.1299      3.0801      0.0000   -999.2500      0.3323      0.1840   -999.2500      2.3120   -999.2500      2.1450     -5.0358    -52.5000      2.1450    -27.9760     -4.5780      0.3067      0.6390      0.6390      2.1299
   7126.0000   -999.2500      2.3130      2.1373      3.0811      0.0000   -999.2500      0.3334      0.1838   -999.2500      2.3130   -999.2500      2.1350     -4.8515    -52.5000      2.1350    -27.7760     -4.4105      0.3078      0.6412      0.6412      2.1373
   7126.5000   -999.2500      2.3140      2.1421      3.0818      0.0000   -999.2500      0.3342      0.1836   -999.2500      2.3140   -999.2500      2.1130     -4.7342    -52.5000      2.1130    -27.6430     -4.3038      0.3085      0.6426      0.6426      2.1421
   7127.0000   -999.2500      2.3100      2.1468      3.0825      0.0000   -999.2500      0.3349      0.1835   -999.2500      2.3100   -999.2500      2.0960     -4.6158    -52.5000      2.0960    -27.5090     -4.1962      0.3091      0.6441      0.6441      2.1468
   7127.5000   -999.2500      2.3060      2.1637      3.0849      0.0000   -999.2500      0.3375      0.1830   -999.2500      2.3060   -999.2500      2.0830     -4.1985    -52.5000      2.0830    -27.0760     -3.8168      0.3116      0.6491      0.6491      2.1637
   7128.0000   -999.2500      2.2930      2.1558      3.0838      0.0000   -999.2500      0.3363      0.1832   -999.2500      2.2930   -999.2500      2.0640     -4.3952    -52.5000      2.0640    -27.2570     -3.9956      0.3104      0.6467      0.6467      2.1558
   7128.5000   -999.2500      2.2790      2.1478      3.0827      0.0000   -999.2500      0.3351      0.1834   -999.2500      2.2790   -999.2500      2.0450     -4.5928    -52.5000      2.0450    -27.4390     -4.1753      0.3093      0.6443      0.6443      2.1478
   7129.0000   -999.2500      2.2650      2.1431      3.0821      0.0000   -999.2500      0.3343      0.1836   -999.2500      2.2650   -999.2500      2.0250     -4.7075    -52.5000      2.0250    -27.5380     -4.2796      0.3086      0.6429      0.6429      2.1431
   7129.5000   -999.2500      2.2520      2.1385      3.0815      0.0000   -999.2500      0.3336      0.1837   -999.2500      2.2520   -999.2500      2.0020     -4.8222    -52.5000      2.0020    -27.6370     -4.3838      0.3079      0.6415      0.6415      2.1385
   7130.0000   -999.2500      2.2430      2.1406      3.0818      0.0000   -999.2500      0.3339      0.1836   -999.2500      2.2430   -999.2500      1.9760     -4.7699    -52.5000      1.9760    -27.5690     -4.3362      0.3082      0.6422      0.6422      2.1406
   7130.5000   -999.2500      2.2340      2.1460      3.0826      0.0000   -999.2500      0.3348      0.1834   -999.2500      2.2340   -999.2500      1.9500     -4.6355    -52.5000      1.9500    -27.4190     -4.2141      0.3090      0.6438      0.6438      2.1460
   7131.0000   -999.2500      2.2250      2.1515      3.0833      0.0000   -999.2500      0.3356      0.1833   -999.2500      2.2250   -999.2500      1.9240     -4.5012    -52.5000      1.9240    -27.2690     -4.0920      0.3098      0.6454      0.6454      2.1515
   7131.5000   -999.2500      2.2170      2.1563      3.0840      0.0000   -999.2500      0.3364      0.1831   -999.2500      2.2170   -999.2500      1.8610     -4.3819    -52.5000      1.8610    -27.1340     -3.9835      0.3105      0.6469      0.6469      2.1563
   7132.0000   -999.2500      2.2080      2.1557      3.0840      0.0000   -999.2500      0.3363      0.1831   -999.2500      2.2080   -999.2500      1.8430     -4.3965    -52.5000      1.8430    -27.1330     -3.9968      0.3104      0.6467      0.6467      2.1557
   7132.5000   -999.2500      2.1960      2.1524      3.0836      0.0000   -999.2500      0.3358      0.1832   -999.2500      2.1960   -999.2500      1.8250     -4.4782    -52.5000      1.8250    -27.1990     -4.0711      0.3099      0.6457      0.6457      2.1524
   7133.0000   -999.2500      2.1840      2.1518      3.0835      0.0000   -999.2500      0.3357      0.1832   -999.2500      2.1840   -999.2500      1.8140     -4.4929    -52.5000      1.8140    -27.1980     -4.0844      0.3099      0.6455      0.6455      2.1518
   7133.5000   -999.2500      2.1710      2.1539      3.0838      0.0000   -999.2500      0.3360      0.1832   -999.2500      2.1710   -999.2500      1.8030     -4.4405    -52.5000      1.8030    -27.1300     -4.0369      0.3102      0.6462      0.6462      2.1539
   7134.0000   -999.2500      2.1630      2.1573      3.0843      0.0000   -999.2500      0.3365      0.1830   -999.2500      2.1630   -999.2500      1.7910     -4.3562    -52.5000      1.7910    -27.0300     -3.9602      0.3107      0.6472      0.6472      2.1573
   7134.5000   -999.2500      2.1540      2.1601      3.0847      0.0000   -999.2500      0.3370      0.1830   -999.2500      2.1540   -999.2500      1.7800     -4.2879    -52.5000      1.7800    -26.9460     -3.8981      0.3111      0.6480      0.6480      2.1601
   7135.0000   -999.2500      2.1430      2.1628      3.0851      0.0000   -999.2500      0.3374      0.1829   -999.2500      2.1430   -999.2500      1.7540     -4.2195    -52.5000      1.7540    -26.8620     -3.8360      0.3114      0.6489      0.6489      2.1628
   7135.5000   -999.2500      2.1310      2.1676      3.0858      0.0000   -999.2500      0.3381      0.1827   -999.2500      2.1310   -999.2500      1.7380     -4.1012    -52.5000      1.7380    -26.7280     -3.7284      0.3121      0.6503      0.6503      2.1676
   7136.0000   -999.2500      2.1200      2.1724      3.0865      0.0000   -999.2500      0.3389      0.1826   -999.2500      2.1200   -999.2500      1.7280     -3.9829    -52.5000      1.7280    -26.5940     -3.6208      0.3128      0.6517      0.6517      2.1724
   7136.5000   -999.2500      2.1090      2.1771      3.0872      0.0000   -999.2500      0.3396      0.1824   -999.2500      2.1090   -999.2500      1.7120     -3.8656    -52.5000      1.7120    -26.4610     -3.5141      0.3135      0.6531      0.6531      2.1771
   7137.0000   -999.2500      2.0970      2.1819      3.0879      0.0000   -999.2500      0.3404      0.1823   -999.2500      2.0970   -999.2500      1.7060     -3.7472    -52.5000      1.7060    -26.3270     -3.4066      0.3142      0.6546      0.6546      2.1819
   7137.5000   -999.2500      2.0850      2.1787      3.0875      0.0000   -999.2500      0.3399      0.1823   -999.2500      2.0850   -999.2500      1.7000     -3.8279    -52.5000      1.7000    -26.3920     -3.4799      0.3137      0.6536      0.6536      2.1787
