~V
VERS. 2.00: Ver 2.00
WRAP.   NO:        
~W
 STRT.FT 570:
 STOP.FT 2019:
 STEP.FT 0.5:
 NULL. -999.250000:
 COMP. UNOCAL:Company
 WELL. McKittrick Front 418:Well
 FLD. Cymric:Field
 LOC. S6 T30S R22E:Location
 STAT. CA:State
 SRVC. :Service Company
 SON. :Service Order #
 DATE. :Log Date
 UWI. 0402989925:Unique Well ID
~C
 DEPT.FT :
 BS.IN :
 BVWE.DEC :
 BVWT.DEC :
 CALI.IN :
 CALS.IN :
 CGR.GAPI :
 CGRS.GAPI :
 CILD.MM/M :
 DROS.G/C3 :
 DWRO. :
 ILD.OHMM :
 ILM.OHMM :
 KWCI.MD :
 KWCL.MD :
 KWCS.MD :
 MCRV. :
 NPHS.DEC :
 OWCI.PCT :
 OWCL.PCT :
 OWCS.PCT :
 PHIE.DEC :
 PHIT.DEC :
 POTA. :
 POTS. :
 PWCI.PCT :
 PWCL.PCT :
 PWCS.PCT :
 RHOB.G/C3 :
 RMAT. :
 ROBS.G/C3 :
 RWCI.G/C3 :
 RWCL.G/C3 :
 RWCS.G/C3 :
 SFLA.OHMM :
 SFLU.OHMM :
 SGR.GAPI :
 SGRS.GAPI :
 SP.MV :
 SWE.DEC :
 SWT.DEC :
 SWTU.DEC :
 THRS.PPM :
 TIME.MS :
 URNS.PPM :
 VCL.DEC :
 VCLD.DEC :
 VCLW.DEC :
 VSHL.DEC :
 WWCI.PCT :
 WWCL.PCT :
 WWCS.PCT :
~P
~A
# ...
    830.0000      9.8750      0.1871      0.4705     10.6364     10.6482     52.4611     52.7632    642.3357     -0.0065      1.8122      1.5568      1.5379   -999.2500   -999.2500   -999.2500      2.7371      0.5745   -999.2500   -999.2500   -999.2500      0.1871      0.4705      0.0183      0.0182   -999.2500   -999.2500   -999.2500      1.9358      2.5386      1.9385   -999.2500   -999.2500   -999.2500      1.3669      1.3258     62.6902     62.9049    -44.0000      1.0000      1.0000      1.0627      7.0622   1035.5000      1.4558      0.4238      0.1404      0.4238      0.8129   -999.2500   -999.2500   -999.2500
    830.5000      9.8750      0.1794      0.4740     10.6724     10.6724     52.7886     53.7650    641.5598     -0.0071      1.8118      1.5587      1.5448   -999.2500   -999.2500   -999.2500      2.7773      0.5855   -999.2500   -999.2500   -999.2500      0.1794      0.4740      0.0183      0.0184   -999.2500   -999.2500   -999.2500      1.9439      2.5419      1.9489   -999.2500   -999.2500   -999.2500      1.3869      1.3670     63.2490     64.2438    -44.1875      1.0000      1.0000      1.0611      7.2790   1036.0000      1.5042      0.4405      0.1460      0.4405      0.8206   -999.2500   -999.2500   -999.2500
    831.0000      9.8750      0.1853      0.4605     10.6724     10.6838     52.7585     52.1735    636.9326     -0.0061      1.8822      1.5700      1.5537   -999.2500   -999.2500   -999.2500      2.7078      0.5691   -999.2500   -999.2500   -999.2500      0.1853      0.4605      0.0182      0.0176   -999.2500   -999.2500   -999.2500      1.9593      2.5459      1.9618   -999.2500   -999.2500   -999.2500      1.4054      1.3833     62.8416     61.9266    -44.6875      1.0000      1.0000      1.0762      7.1367   1050.0000      1.4000      0.4116      0.1363      0.4116      0.8147   -999.2500   -999.2500   -999.2500
    831.5000      9.8750      0.1543      0.4386     10.7083     10.6858     53.9203     52.8971    630.0824     -0.0066      2.1502      1.5871      1.5664   -999.2500   -999.2500   -999.2500      2.7405      0.5335   -999.2500   -999.2500   -999.2500      0.1543      0.4386      0.0184      0.0179   -999.2500   -999.2500   -999.2500      1.9672      2.5471      1.9657   -999.2500   -999.2500   -999.2500      1.4296      1.3885     64.4602     63.0160    -44.4375      1.0000      1.0000      1.1341      7.2459   1036.0000      1.4525      0.4252      0.1408      0.4252      0.8457   -999.2500   -999.2500   -999.2500
    832.0000      9.8750      0.1723      0.4427     10.6364     10.6364     51.9532     51.6547    620.8119     -0.0077      2.0510      1.6108      1.5866   -999.2500   -999.2500   -999.2500      2.6905      0.5372   -999.2500   -999.2500   -999.2500      0.1723      0.4427      0.0176      0.0173   -999.2500   -999.2500   -999.2500      1.9623      2.5451      1.9591   -999.2500   -999.2500   -999.2500      1.4360      1.4101     61.6070     61.3510    -44.3750      1.0000      1.0000      1.1071      7.1325   1017.5000      1.3919      0.4044      0.1340      0.4044      0.8088   -999.2500   -999.2500   -999.2500
    832.5000      9.8750      0.1794      0.4436     10.6364     10.6691     52.9908     51.3516    610.9297     -0.0083      2.0182      1.6368      1.6037   -999.2500   -999.2500   -999.2500      2.6683      0.5346   -999.2500   -999.2500   -999.2500      0.1794      0.4436      0.0179      0.0172   -999.2500   -999.2500   -999.2500      1.9518      2.5423      1.9503   -999.2500   -999.2500   -999.2500      1.4603      1.4156     63.1558     60.6089    -44.5000      1.0000      1.0000      1.0929      7.1133   1036.5000      1.3289      0.3951      0.1309      0.3951      0.7902   -999.2500   -999.2500   -999.2500
    833.0000      9.8750      0.2007      0.4599     10.7443     10.7336     51.5563     51.1503    602.2384     -0.0060      1.8381      1.6605      1.6212   -999.2500   -999.2500   -999.2500      2.6503      0.5598   -999.2500   -999.2500   -999.2500      0.2007      0.4599      0.0173      0.0170   -999.2500   -999.2500   -999.2500      1.9469      2.5408      1.9454   -999.2500   -999.2500   -999.2500      1.4757      1.4313     61.2181     60.0098    -45.2500      1.0000      1.0000      1.0430      7.1374   1034.5000      1.2718      0.3876      0.1284      0.3876      0.7752   -999.2500   -999.2500   -999.2500
    833.5000      9.8750      0.1948      0.4567     10.7083     10.7083     51.3416     51.3182    595.2585     -0.0052      1.8766      1.6799      1.6360   -999.2500   -999.2500   -999.2500      2.6600      0.5529   -999.2500   -999.2500   -999.2500      0.1948      0.4567      0.0171      0.0169   -999.2500   -999.2500   -999.2500      1.9418      2.5398      1.9422   -999.2500   -999.2500   -999.2500      1.4997      1.4485     60.5789     60.3320    -45.1250      1.0000      1.0000      1.0467      7.2210   1018.0000      1.2939      0.3917      0.1298      0.3917      0.7833   -999.2500   -999.2500   -999.2500
    834.0000      9.8750      0.1928      0.4649     10.7083     10.7187     51.1454     51.9309    591.5378     -0.0037      1.8292      1.6905      1.6527   -999.2500   -999.2500   -999.2500      2.6964      0.5681   -999.2500   -999.2500   -999.2500      0.1928      0.4649      0.0170      0.0171   -999.2500   -999.2500   -999.2500      1.9433      2.5407      1.9450   -999.2500   -999.2500   -999.2500      1.4869      1.5142     59.9951     61.5452    -45.2500      1.0000      1.0000      1.0326      7.3084   1035.0000      1.3801      0.4068      0.1348      0.4068      0.8072   -999.2500   -999.2500   -999.2500
    834.5000      9.8750      0.2104      0.4587     10.7443     10.7138     51.3189     49.7363    589.3518      0.0006      1.8150      1.6968      1.6679   -999.2500   -999.2500   -999.2500      2.6113      0.5608   -999.2500   -999.2500   -999.2500      0.2104      0.4587      0.0169      0.0164   -999.2500   -999.2500   -999.2500      1.9494      2.5426      1.9513   -999.2500   -999.2500   -999.2500      1.4926      1.5012     60.3332     58.7085    -45.4375      1.0000      1.0000      1.0287      6.9846   1025.0000      1.2879      0.3714      0.1230      0.3714      0.7427   -999.2500   -999.2500   -999.2500
    835.0000      9.8750      0.1911      0.4445     10.6364     10.6664     51.9365     50.2184    587.5439      0.0049      1.9697      1.7020      1.6698   -999.2500   -999.2500   -999.2500      2.6295      0.5382   -999.2500   -999.2500   -999.2500      0.1911      0.4445      0.0171      0.0166   -999.2500   -999.2500   -999.2500      1.9562      2.5437      1.9547   -999.2500   -999.2500   -999.2500      1.4720      1.5029     61.5561     59.3154    -45.7500      1.0000      1.0000      1.0630      7.0149    939.0000      1.3058      0.3789      0.1255      0.3789      0.7579   -999.2500   -999.2500   -999.2500
    835.5000      9.8750      0.1527      0.4296     10.7443     10.7246     49.6962     52.8839    587.0669      0.0041      2.2272      1.7034      1.6670   -999.2500   -999.2500   -999.2500      2.7138      0.5089   -999.2500   -999.2500   -999.2500      0.1527      0.4296      0.0164      0.0176   -999.2500   -999.2500   -999.2500      1.9506      2.5411      1.9463   -999.2500   -999.2500   -999.2500      1.4678      1.5039     58.6566     62.1255    -45.5625      1.0000      1.0000      1.1189      7.3533    840.0000      1.3266      0.4141      0.1372      0.4141      0.8281   -999.2500   -999.2500   -999.2500
    836.0000      9.8750      0.1653      0.4293     10.6724     10.6531     50.2328     52.0048    587.4684      0.0049      2.1774      1.7022      1.6632   -999.2500   -999.2500   -999.2500      2.6676      0.5022   -999.2500   -999.2500   -999.2500      0.1653      0.4293      0.0166      0.0173   -999.2500   -999.2500   -999.2500      1.9349      2.5367      1.9322   -999.2500   -999.2500   -999.2500      1.4313      1.5542     59.3336     60.5854    -45.0000      1.0000      1.0000      1.1104      7.2163    815.2500      1.2317      0.3948      0.1309      0.3948      0.7896   -999.2500   -999.2500   -999.2500
