~V
VERS. 2.00: Ver 2.00
WRAP.   NO:        
~W
 STRT.FT 570:
 STOP.FT 2019:
 STEP.FT 0.5:
 NULL. -999.250000:
 COMP. UNOCAL:Company
 WELL. McKittrick Front 418:Well
 FLD. Cymric:Field
 LOC. S6 T30S R22E:Location
 STAT. CA:State
 SRVC. :Service Company
 SON. :Service Order #
 DATE. :Log Date
 UWI. 0402989925:Unique Well ID
~C
 DEPT.FT :
 BS.IN :
 BVWE.DEC :
 BVWT.DEC :
 CALI.IN :
 CALS.IN :
 CGR.GAPI :
 CGRS.GAPI :
 CILD.MM/M :
 DROS.G/C3 :
 DWRO. :
 ILD.OHMM :
 ILM.OHMM :
 KWCI.MD :
 KWCL.MD :
 KWCS.MD :
 MCRV. :
 NPHS.DEC :
 OWCI.PCT :
 OWCL.PCT :
 OWCS.PCT :
 PHIE.DEC :
 PHIT.DEC :
 POTA. :
 POTS. :
 PWCI.PCT :
 PWCL.PCT :
 PWCS.PCT :
 RHOB.G/C3 :
 RMAT. :
 ROBS.G/C3 :
 RWCI.G/C3 :
 RWCL.G/C3 :
 RWCS.G/C3 :
 SFLA.OHMM :
 SFLU.OHMM :
 SGR.GAPI :
 SGRS.GAPI :
 SP.MV :
 SWE.DEC :
 SWT.DEC :
 SWTU.DEC :
 THRS.PPM :
 TIME.MS :
 URNS.PPM :
 VCL.DEC :
 VCLD.DEC :
 VCLW.DEC :
 VSHL.DEC :
 WWCI.PCT :
 WWCL.PCT :
 WWCS.PCT :
~P
~A
# ...
    654.5000      9.8750      0.0100      0.0100     10.3130     10.3130     47.9916   -999.2500     40.0055     -0.0222      3.8556   -999.2500   -999.2500   -999.2500   -999.2500   -999.2500      2.2000   -999.2500   -999.2500   -999.2500   -999.2500      0.3338      0.3338      0.0258      0.0255   -999.2500   -999.2500   -999.2500      2.0224      2.5648      2.0224   -999.2500   -999.2500   -999.2500   -999.2500   -999.2500     54.8000   -999.2500    -63.4375      0.0300      0.0300      0.0000      2.5849   1018.0000      0.9841      0.0000      0.0000      0.0000      0.0000   -999.2500   -999.2500   -999.2500
    655.0000      9.8750      0.0100      0.0100     10.2770     10.2770     51.7020   -999.2500     42.2299     -0.0195      3.9432   -999.2500   -999.2500   -999.2500   -999.2500   -999.2500      2.2000   -999.2500   -999.2500   -999.2500   -999.2500      0.3304      0.3304      0.0262      0.0262   -999.2500   -999.2500   -999.2500      2.0294      2.5669      2.0294   -999.2500   -999.2500   -999.2500     12.5958   -999.2500     60.8821   -999.2500    -64.1250      0.0303      0.0303      0.0000      2.8043   1018.0000      1.0366      0.0000      0.0000      0.0000      0.0000   -999.2500   -999.2500   -999.2500
    655.5000      9.8750      0.0100      0.1712     10.3130     10.3130     50.9734     47.9916     47.7204     -0.0247      2.5235     20.9554   -999.2500   -999.2500   -999.2500   -999.2500      2.4940   -999.2500   -999.2500   -999.2500   -999.2500      0.1972      0.3585      0.0258      0.0258   -999.2500   -999.2500   -999.2500      2.0043      2.5591      2.0043   -999.2500   -999.2500   -999.2500      9.5650   -999.2500     60.1355     54.8000    -64.8125      0.0507      0.4777      0.3143      2.6305   1028.5000      0.9773      0.3225      0.1612      0.3225      0.6450   -999.2500   -999.2500   -999.2500
    656.0000      9.8750      0.0100      0.2093     10.3130     10.3130     49.9888     51.7020     55.7326     -0.0302      2.0887     17.9428     14.8463   -999.2500   -999.2500   -999.2500      2.6765   -999.2500   -999.2500   -999.2500   -999.2500      0.1852      0.3845      0.0253      0.0262   -999.2500   -999.2500   -999.2500      1.9641      2.5466      1.9641   -999.2500   -999.2500   -999.2500      7.7417   -999.2500     58.9267     60.8821    -65.4375      0.0540      0.5443      0.3005      3.4848   1026.0000      1.3178      0.3985      0.1993      0.3985      0.7971   -999.2500   -999.2500   -999.2500
    656.5000      9.8750      0.0000      0.2478     10.2411     10.2411     50.5753     50.9734     63.8156     -0.0358      4.3297     15.6702     11.7566   -999.2500   -999.2500   -999.2500      2.6541      0.1860   -999.2500   -999.2500   -999.2500      0.0000      0.2478      0.0253      0.0258   -999.2500   -999.2500   -999.2500      1.9384      2.5386      1.9384   -999.2500   -999.2500   -999.2500      6.5750      9.4892     59.4798     60.1355    -65.9375      1.0000      1.0000      0.4713      3.4582   1051.5000      1.3152      0.3892      0.1290      0.3768      0.7784   -999.2500   -999.2500   -999.2500
    657.0000      9.8750      0.0100      0.2601     10.3489     10.3489     54.8676     49.9888     72.8326     -0.0377      2.6673     13.7301      9.9409   -999.2500   -999.2500   -999.2500      2.6178      0.3027   -999.2500   -999.2500   -999.2500      0.0759      0.3260      0.0263      0.0253   -999.2500   -999.2500   -999.2500      1.9391      2.5388      1.9391   -999.2500   -999.2500   -999.2500      5.8416      6.8285     66.6073     58.9267    -66.2500      0.1317      0.7978      0.3868      3.3839   1020.0000      1.2830      0.3741      0.1240      0.3741      0.7482   -999.2500   -999.2500   -999.2500
    657.5000      9.8750      0.0100      0.2648     10.4208     10.4208     55.1381     50.5753     83.2123     -0.0340      2.0477     12.0175      8.8066   -999.2500   -999.2500   -999.2500      2.6344      0.3809   -999.2500   -999.2500   -999.2500      0.1195      0.3743      0.0262      0.0253   -999.2500   -999.2500   -999.2500      1.9608      2.5456      1.9608   -999.2500   -999.2500   -999.2500      5.3860      5.7930     67.0804     59.4798    -66.3125      0.0837      0.7075      0.3630      3.5288   1015.5000      1.2782      0.3810      0.1262      0.3810      0.7620   -999.2500   -999.2500   -999.2500
    658.0000      9.8750      0.0100      0.3208     10.4208     10.4208     56.5566     54.8676     93.6583     -0.0295      1.8804     10.6771      7.8701   -999.2500   -999.2500   -999.2500      2.8000      0.3907   -999.2500   -999.2500   -999.2500      0.0671      0.3779      0.0266      0.0263   -999.2500   -999.2500   -999.2500      1.9728      2.5493      1.9728   -999.2500   -999.2500   -999.2500      5.1059      5.4758     69.5108     66.6073    -66.4375      0.1491      0.8490      0.3601      4.2940    989.0000      1.6852      0.4647      0.1539      0.4647      0.9295   -999.2500   -999.2500   -999.2500
    658.5000      9.8750      0.0100      0.3237     10.4567     10.4567     54.9542     55.1381    106.1445     -0.0295      1.8591      9.4211      7.0376   -999.2500   -999.2500   -999.2500      2.8000      0.3968   -999.2500   -999.2500   -999.2500      0.0658      0.3795      0.0260      0.0262   -999.2500   -999.2500   -999.2500      1.9775      2.5508      1.9775   -999.2500   -999.2500   -999.2500      4.8017      5.3656     68.0677     67.0804    -66.3750      0.1521      0.8531      0.3865      4.4154   1033.0000      1.7143      0.4691      0.1553      0.4691      0.9342   -999.2500   -999.2500   -999.2500
    659.0000      9.8750      0.0100      0.3386     10.4567     10.4567     55.9875     56.5566    121.4044     -0.0252      2.0185      8.2369      6.3537   -999.2500   -999.2500   -999.2500      2.8000      0.3696   -999.2500   -999.2500   -999.2500      0.0307      0.3594      0.0262      0.0266   -999.2500   -999.2500   -999.2500      1.9777      2.5508      1.9777   -999.2500   -999.2500   -999.2500      4.5428      5.0997     70.0038     69.5108    -66.3750      0.3256      0.9424      0.4367      4.6423   1017.5000      1.8596      0.4913      0.1627      0.4913      0.9693   -999.2500   -999.2500   -999.2500
    659.5000      9.8750      0.0100      0.3298     10.5286     10.5286     56.2221     54.9542    133.6024     -0.0205      2.0669      7.4849      5.7846   -999.2500   -999.2500   -999.2500      2.8000      0.3719   -999.2500   -999.2500   -999.2500      0.0369      0.3567      0.0258      0.0260   -999.2500   -999.2500   -999.2500      1.9886      2.5542      1.9886   -999.2500   -999.2500   -999.2500      4.2318      4.7861     70.6935     68.0677    -66.2500      0.2713      0.9247      0.4715      4.4506   1003.5000      1.8824      0.4781      0.1583      0.4781      0.9562   -999.2500   -999.2500   -999.2500
    660.0000      9.8750      0.0100      0.3417     10.5646     10.5646     57.3145     55.9875    144.9773     -0.0161      1.7646      6.8976      5.3763   -999.2500   -999.2500   -999.2500      2.8000      0.4182   -999.2500   -999.2500   -999.2500      0.0543      0.3860      0.0257      0.0262   -999.2500   -999.2500   -999.2500      1.9939      2.5559      1.9939   -999.2500   -999.2500   -999.2500      4.0130      4.6126     72.3665     70.0038    -66.2500      0.1842      0.8852      0.4519      4.6517   1013.0000      2.0120      0.4959      0.1642      0.4959      0.9457   -999.2500   -999.2500   -999.2500
    660.5000      9.8750      0.0100      0.3460     10.6005     10.6005     59.1208     56.2221    159.2532     -0.0156      1.7567      6.2793      4.9485   -999.2500   -999.2500   -999.2500      2.8000      0.4219   -999.2500   -999.2500   -999.2500      0.0500      0.3859      0.0258      0.0258   -999.2500   -999.2500   -999.2500      1.9987      2.5574      1.9987   -999.2500   -999.2500   -999.2500      3.7255      4.6458     75.3791     70.6935    -66.0000      0.2001      0.8964      0.4768      4.8826   1041.5000      2.0773      0.5022      0.1662      0.5022      0.9500   -999.2500   -999.2500   -999.2500
