~V
VERS. 2.00: Ver 2.00
WRAP.   NO:        
~W
 STRT.FT 570:
 STOP.FT 2019:
 STEP.FT 0.5:
 NULL. -999.250000:
 COMP. UNOCAL:Company
 WELL. McKittrick Front 418:Well
 FLD. Cymric:Field
 LOC. S6 T30S R22E:Location
 STAT. CA:State
 SRVC. :Service Company
 SON. :Service Order #
 DATE. :Log Date
 UWI. 0402989925:Unique Well ID
~C
 DEPT.FT :
 BS.IN :
 BVWE.DEC :
 BVWT.DEC :
 CALI.IN :
 CALS.IN :
 CGR.GAPI :
 CGRS.GAPI :
 CILD.MM/M :
 DROS.G/C3 :
 DWRO. :
 ILD.OHMM :
 ILM.OHMM :
 KWCI.MD :
 KWCL.MD :
 KWCS.MD :
 MCRV. :
 NPHS.DEC :
 OWCI.PCT :
 OWCL.PCT :
 OWCS.PCT :
 PHIE.DEC :
 PHIT.DEC :
 POTA. :
 POTS. :
 PWCI.PCT :
 PWCL.PCT :
 PWCS.PCT :
 RHOB.G/C3 :
 RMAT. :
 ROBS.G/C3 :
 RWCI.G/C3 :
 RWCL.G/C3 :
 RWCS.G/C3 :
 SFLA.OHMM :
 SFLU.OHMM :
 SGR.GAPI :
 SGRS.GAPI :
 SP.MV :
 SWE.DEC :
 SWT.DEC :
 SWTU.DEC :
 THRS.PPM :
 TIME.MS :
 URNS.PPM :
 VCL.DEC :
 VCLD.DEC :
 VCLW.DEC :
 VSHL.DEC :
 WWCI.PCT :
 WWCL.PCT :
 WWCS.PCT :
~P
~A
# ...
   1096.5000      9.8750      0.4004      0.4808     10.7802     10.7988     35.4705     34.5030    719.5862     -0.0111      1.2411      1.3897      1.3942   -999.2500     28.0800     25.6159      2.2000      0.5438   -999.2500      0.0000      0.0000      0.4271      0.5075      0.0129      0.0124   -999.2500     50.9800     50.1502      1.7182      2.4716      1.7289   -999.2500      2.4420      2.4370      1.3781      1.2907     52.3438     51.0884    -46.3750      0.9374      0.9473      0.9473      4.4059    985.0000      2.3808      0.1205      0.0401      0.1205      0.2410   -999.2500     96.0600     96.2863
   1097.0000      9.8750      0.3808      0.4710     10.8161     10.7785     37.2602     36.3301    699.9084     -0.0126      1.3169      1.4288      1.4378   -999.2500     26.1200     23.6898      2.2000      0.5235   -999.2500      0.0000      0.0000      0.3997      0.4899      0.0135      0.0132   -999.2500     50.3200     49.5016      1.7389      2.4777      1.7443   -999.2500      2.4380      2.4330      1.4342      1.3091     55.0463     53.6418    -46.5625      0.9528      0.9615      0.9615      4.5951   1071.2500      2.4851      0.1351      0.0449      0.1351      0.2702   -999.2500     96.2400     96.4632
   1097.5000      9.8750      0.3722      0.4641     10.7443     10.7252     35.7683     36.5319    680.7108     -0.0155      1.2637      1.4691      1.4885   -999.2500     24.1600     22.5912      2.2000      0.5403   -999.2500      0.0000      0.0223      0.4072      0.4991      0.0129      0.0132   -999.2500     49.6600     49.0159      1.7492      2.4835      1.7611   -999.2500      2.4340      2.4306      1.4899      1.3326     53.1032     54.0977    -45.7500      0.9141      0.9299      0.9299      4.6458   1020.0000      2.5215      0.1377      0.0458      0.1377      0.2754   -999.2500     96.4200     96.6191
   1098.0000      9.8750      0.3625      0.4579     10.7083     10.7470     38.3293     37.0387    665.3745     -0.0169      1.2016      1.5029      1.5442     22.2000     22.2000     24.3180      2.2000      0.5613      0.0000      0.0000      0.1205      0.4148      0.5102      0.0137      0.0133     49.0000     49.0000     49.0861      1.7716      2.4898      1.7816      2.4300      2.4300      2.4334      1.5345      1.4124     56.9269     55.0000    -46.0625      0.8740      0.8975      0.8975      4.7536   1020.2500      2.5783      0.1429      0.0475      0.1429      0.2857     96.6000     96.6000     96.7033
   1098.5000      9.8750      0.3524      0.4519     10.7802     10.7410     36.8520     37.5848    651.5913     -0.0141      1.1446      1.5347      1.5933   -999.2500     23.9571     26.0448      2.2000      0.5819   -999.2500      0.1000      0.2188      0.4213      0.5209      0.0133      0.0135   -999.2500     49.0714     49.1563      1.7902      2.4959      1.8011   -999.2500      2.4329      2.4363      1.5397      1.5411     55.2467     56.0802    -45.3750      0.8363      0.8676      0.8676      4.8226   1053.5000      2.6550      0.1490      0.0495      0.1490      0.2981   -999.2500     96.6857     96.7876
   1099.0000      9.8750      0.3533      0.4509     10.7083     10.6884     36.3605     36.6004    646.9692     -0.0129      1.1843      1.5457      1.6153   -999.2500     25.7143     27.7716      2.2000      0.5728   -999.2500      0.2000      0.3171      0.4153      0.5129      0.0128      0.0131   -999.2500     49.1429     49.2265      1.8101      2.4972      1.8054   -999.2500      2.4357      2.4391      1.5263      1.6194     55.9032     55.5827    -44.5000      0.8506      0.8791      0.8791      4.7264   1002.5000      2.7249      0.1462      0.0485      0.1462      0.2924   -999.2500     96.7714     96.8718
   1099.5000      9.8750      0.3455      0.4495     10.6724     10.6724     37.7408     37.0778    649.6805     -0.0133      1.3519      1.5392      1.6055   -999.2500     27.4714     29.4984      2.2000      0.5221   -999.2500      0.3000      0.4154      0.3748      0.4788      0.0127      0.0128   -999.2500     49.2143     49.2967      1.8016      2.4938      1.7944   -999.2500      2.4386      2.4419      1.4956      1.6552     58.4913     57.2482    -44.4375      0.9218      0.9388      0.9388      4.9758   1013.5000      2.8954      0.1557      0.0517      0.1557      0.3114   -999.2500     96.8571     96.9560
   1100.0000      9.8750      0.3423      0.4503     10.6724     10.6724     37.0645     37.3840    656.1729     -0.0120      1.3495      1.5240      1.5684   -999.2500     29.2286     31.2252      2.2000      0.5137   -999.2500      0.4000      0.5136      0.3698      0.4778      0.0121      0.0124   -999.2500     49.2857     49.3669      1.7888      2.4875      1.7741   -999.2500      2.4414      2.4447      1.4530      1.6192     58.1332     58.3024    -44.1875      0.9256      0.9424      0.9424      5.2241   1010.0000      3.0028      0.1617      0.0537      0.1617      0.3235   -999.2500     96.9429     97.0403
   1100.5000      9.8750      0.3559      0.4559     10.6724     10.6517     34.6240     35.7578    664.9636     -0.0130      1.3116      1.5038      1.5212   -999.2500     30.9857     32.9520      2.2000      0.5158   -999.2500      0.5000      0.6119      0.3872      0.4872      0.0110      0.0115   -999.2500     49.3571     49.4371      1.7629      2.4757      1.7392   -999.2500      2.4443      2.4475      1.4089      1.5687     54.5677     56.2241    -44.0000      0.9192      0.9358      0.9358      5.1249   1005.0000      2.9379      0.1499      0.0498      0.1499      0.2997   -999.2500     97.0286     97.1245
   1101.0000      9.8750      0.3725      0.4627     10.6364     10.5945     33.0479     33.7677    674.9615     -0.0163      1.1708      1.4816      1.4853   -999.2500     32.7429     39.9848      2.2000      0.5475   -999.2500      0.6000      0.7051      0.4280      0.5182      0.0105      0.0107   -999.2500     49.4286     49.4288      1.7217      2.4627      1.7068   -999.2500      2.4471      2.4507      1.3895      1.4284     52.8949     53.6588    -44.2500      0.8702      0.8928      0.8928      4.8962   1034.2500      2.8553      0.1352      0.0450      0.1352      0.2704   -999.2500     97.1143     97.2136
   1101.5000      9.8750      0.3798      0.4661     10.5646     10.5858     32.4518     32.7194    680.5376     -0.0179      0.9481      1.4694      1.4731     34.5000     34.5000     92.9701      2.2000      0.6158      0.7000      0.7000      0.7542      0.4887      0.5749      0.0102      0.0103     49.5000     49.5000     48.7409      1.6962      2.4609      1.7022      2.4500      2.4500      2.4572      1.4068      1.3026     52.3883     52.6157    -45.1875      0.7772      0.8107      0.8107      4.7764   1035.5000      2.8561      0.1292      0.0430      0.1292      0.2585     97.2000     97.2000     97.3446
   1102.0000      9.8750      0.3655      0.4620     10.6005     10.6220     35.4743     34.1416    678.7758     -0.0184      0.9695      1.4732      1.4818   -999.2500     88.4167    145.9554      2.2000      0.6124   -999.2500      0.7500      0.8034      0.4688      0.5652      0.0115      0.0109   -999.2500     48.8000     48.0530      1.7064      2.4717      1.7292   -999.2500      2.4567      2.4638      1.4651      1.2978     57.5805     55.2910    -46.1250      0.7797      0.8173      0.8173      4.9281   1021.0000      3.0359      0.1445      0.0481      0.1445      0.2890   -999.2500     97.3333     97.4756
   1102.5000      9.8750      0.3404      0.4519     10.6364     10.6582     38.0940     36.9595    664.3717     -0.0202      1.1361      1.5052      1.5181   -999.2500    142.3333    198.9406      2.2000      0.5640   -999.2500      0.8000      0.8525      0.4068      0.5184      0.0124      0.0120   -999.2500     48.1000     47.3651      1.7446      2.4838      1.7621   -999.2500      2.4633      2.4703      1.6035      1.3664     60.4902     59.2301    -46.0625      0.8367      0.8718      0.8718      5.2585   1035.7500      3.1969      0.1670      0.0555      0.1670      0.3341   -999.2500     97.4667     97.6067
