~V
VERS. 2.00: Ver 2.00
WRAP.   NO:        
~W
 STRT.FT 570:
 STOP.FT 2019:
 STEP.FT 0.5:
 NULL. -999.250000:
 COMP. UNOCAL:Company
 WELL. McKittrick Front 418:Well
 FLD. Cymric:Field
 LOC. S6 T30S R22E:Location
 STAT. CA:State
 SRVC. :Service Company
 SON. :Service Order #
 DATE. :Log Date
 UWI. 0402989925:Unique Well ID
~C
 DEPT.FT :
 BS.IN :
 BVWE.DEC :
 BVWT.DEC :
 CALI.IN :
 CALS.IN :
 CGR.GAPI :
 CGRS.GAPI :
 CILD.MM/M :
 DROS.G/C3 :
 DWRO. :
 ILD.OHMM :
 ILM.OHMM :
 KWCI.MD :
 KWCL.MD :
 KWCS.MD :
 MCRV. :
 NPHS.DEC :
 OWCI.PCT :
 OWCL.PCT :
 OWCS.PCT :
 PHIE.DEC :
 PHIT.DEC :
 POTA. :
 POTS. :
 PWCI.PCT :
 PWCL.PCT :
 PWCS.PCT :
 RHOB.G/C3 :
 RMAT. :
 ROBS.G/C3 :
 RWCI.G/C3 :
 RWCL.G/C3 :
 RWCS.G/C3 :
 SFLA.OHMM :
 SFLU.OHMM :
 SGR.GAPI :
 SGRS.GAPI :
 SP.MV :
 SWE.DEC :
 SWT.DEC :
 SWTU.DEC :
 THRS.PPM :
 TIME.MS :
 URNS.PPM :
 VCL.DEC :
 VCLD.DEC :
 VCLW.DEC :
 VSHL.DEC :
 WWCI.PCT :
 WWCL.PCT :
 WWCS.PCT :
~P
~A
# ...
   1538.5000      9.8750      0.1128      0.2576     10.0255     10.0255     22.3557     22.9046    283.3356     -0.0184      0.7309      3.5294      3.5584     15.1000     15.1000     26.3609      2.1532      0.5647     56.8000     56.8000     58.5891      0.4510      0.5958      0.0062      0.0062     64.7000     64.7000     64.2790      1.4813      2.1554      1.4813      2.1100      2.1100      2.1258      4.0579      5.5726     62.9505     63.8437    -41.1250      0.2501      0.4323      0.4323      3.7596   1035.7500      5.8767      0.1934      0.0486      0.1934      0.3868     33.9000     33.9000     33.1107
   1539.0000      9.8750      0.1215      0.2624     10.0255     10.0255     21.5666     22.3557    292.9135     -0.0167      0.6528      3.4140      3.4337   -999.2500     25.8000     35.9344      2.1463      0.5942   -999.2500     58.5000     60.1101      0.4906      0.6316      0.0063      0.0062   -999.2500     64.3000     63.9212      1.4934      2.1658      1.4934   -999.2500      2.1250      2.1392      4.0339      4.9840     61.9890     62.9505    -41.9375      0.2476      0.4155      0.4155      3.6396   1004.5000      5.8273      0.1883      0.0473      0.1883      0.3766   -999.2500     33.1500     32.4396
   1539.5000      9.8750      0.1270      0.2638     10.0973     10.0973     25.8993     21.5666    295.5381     -0.0180      0.6701      3.3837      3.2993     36.5000     36.5000     25.6822      2.1389      0.5891     60.2000     60.2000     59.2740      0.4869      0.6237      0.0082      0.0063     63.9000     63.9000     62.0058      1.4945      2.1668      1.4945      2.1400      2.1400      2.1484      3.7601      4.5192     69.2416     61.9890    -41.1875      0.2608      0.4230      0.4230      3.3630   1020.5000      5.8025      0.1828      0.0459      0.1828      0.3656     32.4000     32.4000     33.6207
   1540.0000      9.8750      0.0718      0.2612     10.0255     10.0255     25.8007     25.8993    290.9783     -0.0182      0.7616      3.4367      3.2863   -999.2500     23.6500     14.1851      2.2338      0.5518   -999.2500     59.1000     58.2898      0.3893      0.5787      0.0081      0.0082   -999.2500     61.6500     59.9927      1.4960      2.1680      1.4960   -999.2500      2.1500      2.1574      4.0462      3.4532     69.3900     69.2416    -41.7500      0.1844      0.4514      0.4514      3.7913   1036.7500      6.2217      0.2530      0.0636      0.2530      0.5060   -999.2500     33.8500     34.9180
   1540.5000      9.8750      0.0679      0.2587     10.0255     10.0255     23.8926     25.8007    285.9955     -0.0220      0.7571      3.4966      3.3782     10.8000     10.8000     18.6279      2.2363      0.5501     58.0000     58.0000     56.4849      0.3895      0.5803      0.0075      0.0081     59.4000     59.4000     58.2953      1.4728      2.1481      1.4728      2.1600      2.1600      2.1505      4.0673      3.7563     66.4735     69.3900    -41.6250      0.1743      0.4458      0.4458      3.7778   1021.2500      6.2571      0.2549      0.0641      0.2549      0.5097     35.3000     35.3000     36.1838
   1541.0000      9.8750      0.0861      0.2496     10.0973     10.0973     19.4023     23.8926    268.2850     -0.0237      0.9292      3.7274      3.4166   -999.2500     23.2000     29.7223      2.1871      0.5083   -999.2500     55.6000     54.3376      0.3615      0.5251      0.0061      0.0075   -999.2500     57.6500     56.7295      1.4685      2.1444      1.4685   -999.2500      2.1450      2.1371      4.6036      3.5538     60.2129     66.4735    -41.8750      0.2381      0.4754      0.4754      3.4926   1002.5000      6.1124      0.2184      0.0549      0.2184      0.4368   -999.2500     36.7000     37.4364
   1541.5000      9.8750      0.1080      0.2373     10.1333     10.1333     23.6133     19.4023    244.5294     -0.0282      0.6682      4.0895      3.7154     35.6000     35.6000     31.7505      2.1252      0.5818     53.2000     53.2000     52.5269      0.4964      0.6256      0.0077      0.0061     55.9000     55.9000     56.1104      1.4727      2.1481      1.4727      2.1300      2.1300      2.1426      5.1282      3.5338     65.6833     60.2129    -42.7500      0.2176      0.3793      0.3793      2.8327   1035.7500      5.8583      0.1726      0.0434      0.1726      0.3453     38.1000     38.1000     39.1307
   1542.0000      9.8750      0.0715      0.2277     10.1333     10.1333     20.1601     23.6133    228.5040     -0.0317      0.5829      4.3763      4.4305   -999.2500     26.4500     23.5639      2.1737      0.6137   -999.2500     51.6000     51.0953      0.5100      0.6662      0.0072      0.0077   -999.2500     56.4000     56.5577      1.5248      2.1843      1.5248   -999.2500      2.1600      2.1695      5.6111      3.4256     59.5689     65.6833    -41.8125      0.1402      0.3418      0.3418      3.3418   1003.5000      6.0390      0.2085      0.0524      0.2085      0.4171   -999.2500     40.5500     41.3228
   1542.5000      9.8750      0.0995      0.2261     10.0973     10.0973     18.8791     20.1601    223.0100     -0.0340      2.9715      4.4841      5.4293     17.3000     17.3000     22.9526      2.1202      0.3257     50.0000     50.0000     50.1891      0.1575      0.2841      0.0062      0.0072     56.9000     56.9000     54.9457      1.6759      2.2283      1.6759      2.1900      2.1900      2.1868      5.4754      5.4393     48.7185     59.5689    -41.6250      0.6320      0.7959      0.7959      2.5930   1002.5000      5.6570      0.1690      0.0424      0.1690      0.3379     43.0000     43.0000     42.8844
   1543.0000      9.8750      0.0779      0.1581     10.0614     10.0614     17.3759     18.8791    225.0267     -0.0158      8.4645      4.4439      5.4113   -999.2500     44.2000     47.0204      2.0364      0.2249   -999.2500     50.9000     50.9944      0.0779      0.1581      0.0047      0.0062   -999.2500     47.6000     46.6249      1.9238      2.3004      1.9238   -999.2500      2.1750      2.1734      4.9079     11.9846     36.1284     48.7185    -40.8750      1.0000      1.0000      1.4487      2.6625   1021.2500      4.2834      0.1070      0.0268      0.1070      0.2139   -999.2500     42.4500     42.3923
   1543.5000      9.8750      0.2241      0.2504     10.0255     10.0255     19.8759     17.3759    232.9942     -0.0007      3.8276      4.2920      4.6386     71.1000     71.1000     71.0882      2.0000      0.3708     51.8000     51.8000     51.7996      0.2396      0.2658      0.0054      0.0047     38.3000     38.3000     38.3041      2.0789      2.3533      2.0789      2.1600      2.1600      2.1600      4.2078     16.3559     52.2051     36.1284    -40.9375      0.9354      0.9418      0.9418      2.8715   1020.0000      2.6919      0.0350      0.0088      0.0350      0.0700     41.9000     41.9000     41.9002
   1544.0000      9.8750      0.1393      0.2344     10.0614     10.0614     24.8629     19.8759    235.4320     -0.0143      0.8392      4.2475      4.0323   -999.2500     45.5500     46.5336      2.0634      0.5815   -999.2500     53.4000     53.3384      0.4655      0.5606      0.0081      0.0054   -999.2500     49.4500     49.0207      1.8167      2.2692      1.8167   -999.2500      2.1500      2.1504      3.6223      7.4404     64.1413     52.2051    -40.5625      0.2993      0.4181      0.4181      3.2782   1020.5000      4.6408      0.1269      0.0318      0.1269      0.2538   -999.2500     42.0500     42.0442
   1544.5000      9.8750      0.0878      0.2339     10.0973     10.0973     27.5197     24.8629    239.5411     -0.0215      0.5391      4.1746      3.7312     20.0000     20.0000     21.9672      2.1555      0.6469     55.0000     55.0000     54.8768      0.5484      0.6945      0.0093      0.0081     60.6000     60.6000     59.7415      1.5971      2.2053      1.5971      2.1400      2.1400      2.1408      3.2900      3.5755     67.8402     64.1413    -39.7500      0.1601      0.3368      0.3368      3.5111   1020.2500      5.6383      0.1951      0.0490      0.1951      0.3902     42.2000     42.2000     42.1885
