~V
VERS. 2.00: Ver 2.00
WRAP.   NO:        
~W
 STRT.FT 570:
 STOP.FT 2019:
 STEP.FT 0.5:
 NULL. -999.250000:
 COMP. UNOCAL:Company
 WELL. McKittrick Front 418:Well
 FLD. Cymric:Field
 LOC. S6 T30S R22E:Location
 STAT. CA:State
 SRVC. :Service Company
 SON. :Service Order #
 DATE. :Log Date
 UWI. 0402989925:Unique Well ID
~C
 DEPT.FT :
 BS.IN :
 BVWE.DEC :
 BVWT.DEC :
 CALI.IN :
 CALS.IN :
 CGR.GAPI :
 CGRS.GAPI :
 CILD.MM/M :
 DROS.G/C3 :
 DWRO. :
 ILD.OHMM :
 ILM.OHMM :
 KWCI.MD :
 KWCL.MD :
 KWCS.MD :
 MCRV. :
 NPHS.DEC :
 OWCI.PCT :
 OWCL.PCT :
 OWCS.PCT :
 PHIE.DEC :
 PHIT.DEC :
 POTA. :
 POTS. :
 PWCI.PCT :
 PWCL.PCT :
 PWCS.PCT :
 RHOB.G/C3 :
 RMAT. :
 ROBS.G/C3 :
 RWCI.G/C3 :
 RWCL.G/C3 :
 RWCS.G/C3 :
 SFLA.OHMM :
 SFLU.OHMM :
 SGR.GAPI :
 SGRS.GAPI :
 SP.MV :
 SWE.DEC :
 SWT.DEC :
 SWTU.DEC :
 THRS.PPM :
 TIME.MS :
 URNS.PPM :
 VCL.DEC :
 VCLD.DEC :
 VCLW.DEC :
 VSHL.DEC :
 WWCI.PCT :
 WWCL.PCT :
 WWCS.PCT :
~P
~A
# ...
   1187.5000      9.8750      0.2047      0.2926     10.9240     11.3125     28.5088     26.4948    259.1982     -0.0188      0.6407      3.8581      3.7560      7.1200      7.1200     10.6065      2.0505      0.7805     52.3000     52.3000     68.0424      0.6143      0.7021      0.0091      0.0086     66.7000     66.7000     70.0947      1.3181      2.1208      1.3012      2.1700      2.1700      2.1323      3.3267      3.7242     53.6711     50.5344    -53.3125      0.3333      0.4167      0.4167      3.7793   1035.2500      3.4508      0.1173      0.0295      0.1173      0.2347     47.4000     47.4000     31.4791
   1188.0000      9.8750      0.2012      0.3026     10.9958     11.3115     29.4136     28.5257    269.7501     -0.0204      0.6531      3.7071      3.5591   -999.2500      6.2500      9.1300      2.0750      0.7227   -999.2500     47.0500     72.5429      0.5972      0.6986      0.0093      0.0091   -999.2500     65.4000     71.9151      1.3376      2.1283      1.3116   -999.2500      2.1550      2.1121      3.1982      3.3833     55.6399     53.7080    -53.5000      0.3369      0.4332      0.4332      4.1463   1037.2500      3.6149      0.1355      0.0341      0.1355      0.2709   -999.2500     49.9500     27.2314
   1188.5000      9.8750      0.2020      0.3114     11.1396     10.9582     27.8488     29.3697    281.5289     -0.0207      0.6530      3.5520      3.4398      5.3800      5.3800      8.1350      2.0894      0.7386     41.8000     41.8000     63.5956      0.5909      0.7003      0.0085      0.0093     64.1000     64.1000     69.6467      1.3505      2.1289      1.3124      2.1400      2.1400      2.1373      3.1475      3.0867     53.5294     55.5806    -53.1250      0.3418      0.4447      0.4447      4.2909   1002.5000      3.7625      0.1462      0.0367      0.1462      0.2923     52.5000     52.5000     36.1590
   1189.0000      9.8750      0.2160      0.3175     10.9240     10.9201     30.7434     27.9573    298.0452     -0.0222      0.6564      3.3552      3.3784   -999.2500      6.5350      7.1944      2.0752      0.7463   -999.2500     48.0500     53.1280      0.5953      0.6968      0.0102      0.0086   -999.2500     66.2500     66.9160      1.3523      2.1325      1.3174   -999.2500      2.1500      2.1676      3.0298      3.0528     58.9928     53.7340    -53.3125      0.3628      0.4557      0.4557      4.1753   1047.7500      3.7002      0.1356      0.0341      0.1356      0.2712   -999.2500     48.6000     46.5760
   1189.5000      9.8750      0.2099      0.3327     10.7802     10.9919     26.5516     30.5472    314.8602     -0.0219      0.6806      3.1760      3.2326      7.6900      7.6900      6.3097      2.1136      0.6447     54.3000     54.3000     47.4104      0.5667      0.6895      0.0092      0.0102     68.4000     68.4000     65.4892      1.3454      2.1461      1.3366      2.1600      2.1600      2.1560      2.8763      3.2695     52.8694     58.7061    -53.5000      0.3704      0.4826      0.4826      4.2486   1041.2500      4.0421      0.1640      0.0412      0.1640      0.3281     44.7000     44.7000     49.7750
   1190.0000      9.8750      0.2342      0.3336     10.8521     11.1395     31.0696     26.8054    331.7631     -0.0216      0.6939      3.0142      3.0445   -999.2500      6.0200      5.4298      2.0714      0.6032   -999.2500     49.9000     42.1007      0.5784      0.6779      0.0109      0.0093   -999.2500     65.2000     64.1745      1.3424      2.1561      1.3505   -999.2500      2.1700      2.1409      2.7356      3.2822     59.6567     53.2507    -53.0625      0.4049      0.4922      0.4922      3.5704   1020.0000      3.7962      0.1329      0.0334      0.1329      0.2657   -999.2500     49.0500     52.3539
   1190.5000      9.8750      0.2226      0.3500     10.8880     10.9163     32.1304     31.1392    347.5115     -0.0208      0.6973      2.8776      2.9093      4.3500      4.3500      6.4820      2.1219      0.6947     45.5000     45.5000     47.7630      0.5551      0.6826      0.0112      0.0109     62.0000     62.0000     66.1513      1.3561      2.1571      1.3519      2.1800      2.1800      2.1495      2.6986      2.9634     61.6835     59.7895    -53.3125      0.4010      0.5128      0.5128      4.1016   1053.2500      4.1127      0.1702      0.0428      0.1702      0.3405     53.4000     53.4000     48.7791
   1191.0000      9.8750      0.2214      0.3572     10.7802     10.7879     32.4484     32.1542    357.1871     -0.0217      0.6878      2.7997      2.8004   -999.2500      6.2550      7.6501      2.1369      0.7309   -999.2500     47.4000     54.0840      0.5531      0.6888      0.0110      0.0112   -999.2500     63.3500     68.3257      1.3655      2.1522      1.3451   -999.2500      2.1750      2.1597      2.6290      2.8178     62.2208     61.7237    -53.0000      0.4004      0.5185      0.5185      4.2773   1003.5000      4.2446      0.1813      0.0456      0.1813      0.3626   -999.2500     51.4500     44.8348
   1191.5000      9.8750      0.2202      0.3589     10.8161     10.8579     34.1906     32.5952    358.9589     -0.0229      0.6872      2.7858      2.6743      8.1600      8.1600      6.0588      2.1423      0.7057     49.3000     49.3000     50.0021      0.5509      0.6897      0.0115      0.0110     64.7000     64.7000     65.2743      1.3720      2.1519      1.3447      2.1700      2.1700      2.1698      2.6241      2.6432     64.7131     62.4308    -52.9375      0.3996      0.5204      0.5204      4.4491   1002.2500      4.2828      0.1853      0.0466      0.1853      0.3706     49.5000     49.5000     48.9490
   1192.0000      9.8750      0.2122      0.3608     10.8880     10.8648     34.1393     34.1858    356.5847     -0.0217      0.7070      2.8044      2.6312   -999.2500      6.8550      4.3698      2.1602      0.6994   -999.2500     43.3000     45.5521      0.5341      0.6828      0.0114      0.0115   -999.2500     62.6500     62.0379      1.3842      2.1615      1.3582   -999.2500      2.1800      2.1799      2.7249      2.4170     65.0772     64.7472    -53.0000      0.3973      0.5285      0.5285      4.7022   1019.2500      4.3870      0.1986      0.0499      0.1986      0.3971   -999.2500     55.9000     53.3484
   1192.5000      9.8750      0.2089      0.3593     11.1037     10.7899     34.0515     34.1303    352.1842     -0.0192      0.7205      2.8394      2.7561      5.5500      5.5500      6.2541      2.1633      0.6679     37.3000     37.3000     47.3991      0.5268      0.6771      0.0114      0.0114     60.6000     60.6000     63.3493      1.4001      2.1680      1.3673      2.1900      2.1900      2.1750      2.9297      2.2161     64.9658     65.0657    -53.0000      0.3966      0.5306      0.5306      4.7085   1008.7500      4.4407      0.2008      0.0505      0.2008      0.4016     62.3000     62.3000     51.4510
   1193.0000      9.8750      0.2065      0.3559     11.2833     10.8394     34.0410     34.0503    345.6588     -0.0177      0.7335      2.8930      2.9418   -999.2500      7.4250      8.1458      2.1615      0.6876   -999.2500     49.5000     49.2348      0.5219      0.6713      0.0114      0.0114   -999.2500     64.5000     64.6777      1.3927      2.1742      1.3759   -999.2500      2.1650      2.1701      3.0958      2.4926     64.5074     64.9143    -52.8125      0.3956      0.5301      0.5301      4.7026   1012.7500      4.4304      0.1995      0.0501      0.1995      0.3990   -999.2500     50.1000     49.5695
   1193.5000      9.8750      0.2060      0.3509     10.6724     10.9695     30.6174     33.6243    338.3119     -0.0167      0.7545      2.9559      3.0614      9.3000      9.3000      6.7655      2.1534      0.7164     61.7000     61.7000     42.8883      0.5166      0.6616      0.0101      0.0112     68.4000     68.4000     62.5093      1.3642      2.1844      1.3902      2.1400      2.1400      2.1807      3.2663      3.1143     59.2675     63.8696    -52.6875      0.3988      0.5305      0.5305      4.6683   1033.7500      4.3416      0.1935      0.0486      0.1935      0.3871     37.9000     37.9000     56.3391
