~V
VERS. 2.00: Ver 2.00
WRAP.   NO:        
~W
 STRT.FT 570:
 STOP.FT 2019:
 STEP.FT 0.5:
 NULL. -999.250000:
 COMP. UNOCAL:Company
 WELL. McKittrick Front 418:Well
 FLD. Cymric:Field
 LOC. S6 T30S R22E:Location
 STAT. CA:State
 SRVC. :Service Company
 SON. :Service Order #
 DATE. :Log Date
 UWI. 0402989925:Unique Well ID
~C
 DEPT.FT :
 BS.IN :
 BVWE.DEC :
 BVWT.DEC :
 CALI.IN :
 CALS.IN :
 CGR.GAPI :
 CGRS.GAPI :
 CILD.MM/M :
 DROS.G/C3 :
 DWRO. :
 ILD.OHMM :
 ILM.OHMM :
 KWCI.MD :
 KWCL.MD :
 KWCS.MD :
 MCRV. :
 NPHS.DEC :
 OWCI.PCT :
 OWCL.PCT :
 OWCS.PCT :
 PHIE.DEC :
 PHIT.DEC :
 POTA. :
 POTS. :
 PWCI.PCT :
 PWCL.PCT :
 PWCS.PCT :
 RHOB.G/C3 :
 RMAT. :
 ROBS.G/C3 :
 RWCI.G/C3 :
 RWCL.G/C3 :
 RWCS.G/C3 :
 SFLA.OHMM :
 SFLU.OHMM :
 SGR.GAPI :
 SGRS.GAPI :
 SP.MV :
 SWE.DEC :
 SWT.DEC :
 SWTU.DEC :
 THRS.PPM :
 TIME.MS :
 URNS.PPM :
 VCL.DEC :
 VCLD.DEC :
 VCLW.DEC :
 VSHL.DEC :
 WWCI.PCT :
 WWCL.PCT :
 WWCS.PCT :
~P
~A
# ...
   1805.0000      9.8750      0.3088      0.4138      9.9536      9.9946     23.8890     21.9528   1078.3826     -0.0210      1.0953      0.9273      0.9753   -999.2500   -999.2500   -999.2500      2.0815      0.4701   -999.2500   -999.2500   -999.2500      0.3088      0.4138      0.0066      0.0062   -999.2500   -999.2500   -999.2500      1.6154      2.2143      1.6278   -999.2500   -999.2500   -999.2500      1.0256      0.9940     57.6146     54.5515    -39.4375      1.0000      1.0000      1.0869      3.5045   1021.5000      4.6795      0.1403      0.0352      0.1403      0.2806   -999.2500   -999.2500   -999.2500
   1805.5000      9.8750      0.3373      0.4263      9.9536      9.9536     21.7171     19.6163   1053.0815     -0.0217      1.0209      0.9496      0.9925   -999.2500   -999.2500   -999.2500      2.0524      0.4810   -999.2500   -999.2500   -999.2500      0.3373      0.4263      0.0062      0.0057   -999.2500   -999.2500   -999.2500      1.5990      2.2087      1.6086   -999.2500   -999.2500   -999.2500      0.9944      1.1175     54.1786     50.7843    -39.4375      1.0000      1.0000      1.0372      3.0701   1003.7500      4.4741      0.1188      0.0298      0.1188      0.2375   -999.2500   -999.2500   -999.2500
   1806.0000      9.8750      0.3478      0.4382      9.9536      9.9536     19.3399     20.2328   1033.4541     -0.0198      0.8369      0.9676      0.9857   -999.2500   -999.2500   -999.2500      2.0550      0.5224   -999.2500   -999.2500   -999.2500      0.3811      0.4714      0.0056      0.0063   -999.2500   -999.2500   -999.2500      1.5961      2.2056      1.5978   -999.2500   -999.2500   -999.2500      1.0223      0.9989     50.3377     51.1162    -40.0000      0.9127      0.9294      0.9294      2.9906   1031.0000      4.4332      0.1207      0.0303      0.1207      0.2413   -999.2500   -999.2500   -999.2500
   1806.5000      9.8750      0.3359      0.4371      9.9536      9.9536     20.3592     22.0241   1020.8248     -0.0176      0.7253      0.9796      0.9823   -999.2500   -999.2500   -999.2500      2.0745      0.5525   -999.2500   -999.2500   -999.2500      0.4068      0.5080      0.0064      0.0073   -999.2500   -999.2500   -999.2500      1.6003      2.2055      1.5976   -999.2500   -999.2500   -999.2500      1.0203      1.0447     51.2264     53.6508    -40.6250      0.8257      0.8604      0.8604      3.0693   1009.0000      4.5399      0.1351      0.0339      0.1351      0.2703   -999.2500   -999.2500   -999.2500
   1807.0000      9.8750      0.3303      0.4338     10.0614      9.9917     22.2768     22.4140   1004.0763     -0.0175      0.7048      0.9959      0.9910   -999.2500   -999.2500   -999.2500      2.0786      0.5590   -999.2500   -999.2500   -999.2500      0.4120      0.5155      0.0074      0.0077   -999.2500   -999.2500   -999.2500      1.6105      2.2073      1.6039   -999.2500   -999.2500   -999.2500      1.0915      0.9303     54.0188     54.1821    -41.5625      0.8016      0.8414      0.8414      3.0092   1003.5000      4.5602      0.1382      0.0347      0.1382      0.2764   -999.2500   -999.2500   -999.2500
   1807.5000      9.8750      0.3412      0.4240     10.0614     10.0614     22.4363     19.2259    974.1121     -0.0166      0.8374      1.0266      1.0098   -999.2500   -999.2500   -999.2500      2.0413      0.5210   -999.2500   -999.2500   -999.2500      0.3873      0.4701      0.0078      0.0068   -999.2500   -999.2500   -999.2500      1.6214      2.2103      1.6142   -999.2500   -999.2500   -999.2500      1.1390      0.9810     54.2086     49.3491    -40.8125      0.8810      0.9020      0.9020      2.5139   1020.2500      4.3241      0.1106      0.0278      0.1106      0.2211   -999.2500   -999.2500   -999.2500
   1808.0000      9.8750      0.3308      0.4191     10.0614     10.0614     18.6714     20.0647    948.3773     -0.0158      0.8910      1.0544      1.0450   -999.2500   -999.2500   -999.2500      2.0513      0.5092   -999.2500   -999.2500   -999.2500      0.3680      0.4563      0.0066      0.0070   -999.2500   -999.2500   -999.2500      1.6323      2.2134      1.6249   -999.2500   -999.2500   -999.2500      1.2045      1.0111     48.5097     50.6485    -40.7500      0.8988      0.9184      0.9184      2.6715   1003.5000      4.3902      0.1180      0.0296      0.1180      0.2360   -999.2500   -999.2500   -999.2500
   1808.5000      9.8750      0.3145      0.4160     10.0255     10.0507     20.3204     22.1489    925.6093     -0.0140      0.9609      1.0804      1.1018   -999.2500   -999.2500   -999.2500      2.0751      0.4960   -999.2500   -999.2500   -999.2500      0.3397      0.4412      0.0070      0.0076   -999.2500   -999.2500   -999.2500      1.6360      2.2159      1.6334   -999.2500   -999.2500   -999.2500      1.3048      1.0586     51.0410     53.7203    -41.0000      0.9258      0.9429      0.9429      2.9841   1020.5000      4.5320      0.1355      0.0340      0.1355      0.2711   -999.2500   -999.2500   -999.2500
   1809.0000      9.8750      0.3087      0.4106      9.9176      9.9955     22.5044     22.5480    902.0645     -0.0145      1.0497      1.1086      1.1611   -999.2500   -999.2500   -999.2500      2.0759      0.4783   -999.2500   -999.2500   -999.2500      0.3201      0.4220      0.0077      0.0078   -999.2500   -999.2500   -999.2500      1.6434      2.2172      1.6380   -999.2500   -999.2500   -999.2500      1.2828      1.2253     54.2412     53.8255    -40.9375      0.9644      0.9730      0.9730      3.0317   1020.0000      4.4898      0.1361      0.0342      0.1361      0.2723   -999.2500   -999.2500   -999.2500
   1809.5000      9.8750      0.2950      0.4102      9.9895      9.9363     22.5570     24.7326    891.5988     -0.0135      1.0888      1.1216      1.1885   -999.2500   -999.2500   -999.2500      2.0999      0.4746   -999.2500   -999.2500   -999.2500      0.3011      0.4163      0.0078      0.0088   -999.2500   -999.2500   -999.2500      1.6665      2.2205      1.6494   -999.2500   -999.2500   -999.2500      1.3706      1.4916     53.7400     56.9354    -40.7500      0.9797      0.9853      0.9853      3.1926   1036.0000      4.6226      0.1539      0.0387      0.1539      0.3078   -999.2500   -999.2500   -999.2500
   1810.0000      9.8750      0.2775      0.3758      9.9895      9.9895     25.2047     22.3783    877.6949     -0.0120      1.3170      1.1393      1.1723   -999.2500   -999.2500   -999.2500      2.0694      0.4343   -999.2500   -999.2500   -999.2500      0.2775      0.3758      0.0091      0.0085   -999.2500   -999.2500   -999.2500      1.6821      2.2266      1.6703   -999.2500   -999.2500   -999.2500      1.2645      1.7691     57.6287     52.9867    -40.0625      1.0000      1.0000      1.0758      2.6908   1020.2500      4.3938      0.1314      0.0330      0.1314      0.2627   -999.2500   -999.2500   -999.2500
   1810.5000      9.8750      0.2355      0.3283     10.0255      9.9975     21.7322     21.7781    850.2185     -0.0135      1.7101      1.1762      1.1406   -999.2500   -999.2500   -999.2500      2.0593      0.3837   -999.2500   -999.2500   -999.2500      0.2355      0.3283      0.0083      0.0083   -999.2500   -999.2500   -999.2500      1.6747      2.2296      1.6805   -999.2500   -999.2500   -999.2500      1.3155      1.4271     51.9257     51.6828    -38.8125      1.0000      1.0000      1.2092      2.5889   1037.2500      4.2927      0.1239      0.0311      0.1239      0.2478   -999.2500   -999.2500   -999.2500
   1811.0000      9.8750      0.2720      0.3720      9.9895     10.0182     21.7892     23.0012    823.3651     -0.0164      1.3454      1.2145      1.1441   -999.2500   -999.2500   -999.2500      2.0723      0.4298   -999.2500   -999.2500   -999.2500      0.2720      0.3720      0.0083      0.0086   -999.2500   -999.2500   -999.2500      1.6395      2.2258      1.6676   -999.2500   -999.2500   -999.2500      1.2567      1.2641     51.6244     53.3624    -38.1875      1.0000      1.0000      1.0530      2.7875   1020.5000      4.3583      0.1335      0.0335      0.1335      0.2670   -999.2500   -999.2500   -999.2500
