~V
VERS. 2.00: Ver 2.00
WRAP.   NO:        
~W
 STRT.FT 570:
 STOP.FT 2019:
 STEP.FT 0.5:
 NULL. -999.250000:
 COMP. UNOCAL:Company
 WELL. McKittrick Front 418:Well
 FLD. Cymric:Field
 LOC. S6 T30S R22E:Location
 STAT. CA:State
 SRVC. :Service Company
 SON. :Service Order #
 DATE. :Log Date
 UWI. 0402989925:Unique Well ID
~C
 DEPT.FT :
 BS.IN :
 BVWE.DEC :
 BVWT.DEC :
 CALI.IN :
 CALS.IN :
 CGR.GAPI :
 CGRS.GAPI :
 CILD.MM/M :
 DROS.G/C3 :
 DWRO. :
 ILD.OHMM :
 ILM.OHMM :
 KWCI.MD :
 KWCL.MD :
 KWCS.MD :
 MCRV. :
 NPHS.DEC :
 OWCI.PCT :
 OWCL.PCT :
 OWCS.PCT :
 PHIE.DEC :
 PHIT.DEC :
 POTA. :
 POTS. :
 PWCI.PCT :
 PWCL.PCT :
 PWCS.PCT :
 RHOB.G/C3 :
 RMAT. :
 ROBS.G/C3 :
 RWCI.G/C3 :
 RWCL.G/C3 :
 RWCS.G/C3 :
 SFLA.OHMM :
 SFLU.OHMM :
 SGR.GAPI :
 SGRS.GAPI :
 SP.MV :
 SWE.DEC :
 SWT.DEC :
 SWTU.DEC :
 THRS.PPM :
 TIME.MS :
 URNS.PPM :
 VCL.DEC :
 VCLD.DEC :
 VCLW.DEC :
 VSHL.DEC :
 WWCI.PCT :
 WWCL.PCT :
 WWCS.PCT :
~P
~A
# ...
   1714.0000      9.8750      0.3280      0.4050      9.9895     10.0165     22.8914     22.8914    869.3435     -0.0183      1.1511      1.1503      1.1677   -999.2500    251.9450    219.4410      2.0309      0.4609   -999.2500     15.5500     16.2839      0.3280      0.4050      0.0074      0.0074   -999.2500     42.7500     47.8288      1.6403      2.2150      1.6302   -999.2500      2.1750      2.2269      1.5654      1.5303     48.0017     48.0017    -41.5000      1.0000      1.0000      1.0004      3.2926   1038.0000      3.6045      0.1029      0.0258      0.1029      0.2057   -999.2500     74.1500     75.0229
   1714.5000      9.8750      0.3121      0.3916     10.0255     10.0528     23.3857     23.3857    811.7404     -0.0205      0.9666      1.2319      1.2173    501.0000    501.0000     53.6048      2.0354      0.4923     16.6000     16.6000     15.4481      0.3635      0.4430      0.0076      0.0076     27.6000     27.6000     55.9752      1.6269      2.2132      1.6243      2.1700      2.1700      2.2511      1.6230      1.3887     48.5794     48.5794    -42.1250      0.8586      0.8839      0.8839      3.3453   1037.0000      3.6165      0.1062      0.0267      0.1062      0.2123     73.0000     73.0000     76.7037
   1715.0000      9.8750      0.2792      0.3802     10.0614     10.0614     26.6133     26.6133    752.7996     -0.0227      0.9928      1.3284      1.3125   -999.2500    278.3000     44.1791      2.0742      0.4912   -999.2500     16.3500     12.3684      0.3391      0.4402      0.0083      0.0083   -999.2500     43.6000     38.8502      1.6235      2.2212      1.6515   -999.2500      2.2150      2.2091      1.7556      1.2861     53.6075     53.6075    -42.5625      0.8231      0.8637      0.8637      3.9123   1034.7500      3.8749      0.1349      0.0339      0.1349      0.2698   -999.2500     74.6000     79.0835
   1715.5000      9.8750      0.2666      0.3728     10.0614     10.0332     27.2571     27.2571    721.4082     -0.0233      1.2742      1.3862      1.4209     55.6000     55.6000     35.3616      2.0836      0.4499     16.1000     16.1000      9.3976      0.2827      0.3890      0.0084      0.0084     59.6000     59.6000     22.9000      1.6598      2.2352      1.6996      2.2600      2.2600      2.1697      1.9217      1.4764     54.8314     54.8314    -43.3750      0.9429      0.9585      0.9585      4.0834   1004.5000      3.9582      0.1419      0.0356      0.1419      0.2838     76.2000     76.2000     81.4537
   1716.0000      9.8750      0.2527      0.3688     10.0255     10.0255     28.5382     28.5382    700.0990     -0.0260      1.3140      1.4284      1.4921   -999.2500     45.5000     34.8016      2.1012      0.4497   -999.2500     12.8000      7.9044      0.2685      0.3845      0.0087      0.0087   -999.2500     41.2500     22.9000      1.7106      2.2449      1.7330   -999.2500      2.2150      2.1650      2.0933      1.9033     57.1090     57.1090    -43.6250      0.9414      0.9591      0.9591      4.2794   1020.0000      4.1013      0.1549      0.0389      0.1549      0.3098   -999.2500     78.7500     83.6934
   1716.5000      9.8750      0.2313      0.3523     10.0255     10.0544     29.0832     29.0832    665.0249     -0.0281      1.5711      1.5037      1.5514     35.4000     35.4000     31.8829      2.1101      0.4170      9.5000      9.5000      5.9071      0.2313      0.3523      0.0088      0.0088     22.9000     22.9000     23.9714      1.7387      2.2451      1.7337      2.1700      2.1700      2.1600      2.3654      2.2245     58.2527     58.2527    -43.0000      1.0000      1.0000      1.0222      4.4010   1006.7500      4.1872      0.1614      0.0405      0.1614      0.3229     81.3000     81.3000     86.4000
   1717.0000      9.8750      0.1732      0.3564     10.0614     10.0614     36.2293     36.2293    614.7234     -0.0266      1.3889      1.6267      1.6440   -999.2500     34.8000     13.3457      2.2223      0.4453   -999.2500      7.9000      2.7643      0.2015      0.3846      0.0106      0.0106   -999.2500     22.9000     32.5429      1.7325      2.2405      1.7180   -999.2500      2.1650      2.1600      2.4970      2.2373     68.5609     68.5609    -42.6250      0.8598      0.9265      0.9265      5.6260   1016.0000      4.6411      0.2445      0.0614      0.2445      0.4890   -999.2500     83.7000     88.8000
   1717.5000      9.8750      0.1650      0.3436     10.0614     10.0316     35.6495     35.6495    573.6116     -0.0255      1.0396      1.7433      1.7896     34.2000     34.2000      2.0750      2.2141      0.4906      6.3000      6.3000      1.7429      0.2630      0.4416      0.0104      0.0104     22.9000     22.9000     40.2143      1.7148      2.2390      1.7127      2.1600      2.1600      2.1643      2.6679      2.1026     68.0769     68.0769    -42.4375      0.6273      0.7781      0.7781      5.5460   1026.0000      4.6549      0.2385      0.0599      0.2385      0.4769     86.1000     86.1000     90.3214
   1718.0000      9.8750      0.1768      0.3322     10.0255     10.0557     33.7530     33.7530    547.0409     -0.0246      1.1933      1.8280      1.9279   -999.2500     17.9800      2.9150      2.1722      0.4628   -999.2500      3.5500      4.2571      0.2541      0.4095      0.0095      0.0095   -999.2500     30.4000     46.3857      1.7123      2.2433      1.7275   -999.2500      2.1600      2.1757      2.7270      2.4847     65.5931     65.5931    -41.8750      0.6958      0.8112      0.8112      5.4010   1013.7500      4.5706      0.2074      0.0521      0.2074      0.4148   -999.2500     88.2000     90.3786
   1718.5000      9.8750      0.1980      0.3264     10.0614     10.0308     29.2351     29.2351    542.8916     -0.0225      1.3305      1.8420      1.9801      1.7600      1.7600     12.7550      2.1235      0.4449      0.8000      0.8000      4.8071      0.2555      0.3839      0.0079      0.0079     37.9000     37.9000     39.0929      1.7304      2.2515      1.7559      2.1600      2.1600      2.1729      2.7459      2.9486     59.9985     59.9985    -41.5000      0.7749      0.8502      0.8502      4.8254   1036.7500      4.4160      0.1714      0.0430      0.1714      0.3428     90.3000     90.3000     90.1143
   1719.0000      9.8750      0.2089      0.3235     10.0255     10.0565     26.5824     26.5824    541.0900     -0.0230      1.7926      1.8481      1.9067   -999.2500      2.4950     27.9950      2.0987      0.3929   -999.2500      3.0000      4.1786      0.2139      0.3285      0.0072      0.0072   -999.2500     43.3000     23.7214      1.7603      2.2513      1.7550   -999.2500      2.1700      2.1614      2.5584      3.7966     56.7860     56.7860    -41.4375      0.9765      0.9847      0.9847      4.3924   1020.2500      4.3356      0.1531      0.0384      0.1531      0.3061   -999.2500     90.3500     89.6571
   1719.5000      9.8750      0.2091      0.3203     10.0614     10.0300     25.5095     25.5095    532.2124     -0.0251      1.4185      1.8789      1.8354      3.2300      3.2300     19.3750      2.0925      0.4278      5.2000      5.2000      2.2000      0.2579      0.3691      0.0069      0.0069     48.7000     48.7000     34.6500      1.7541      2.2463      1.7379      2.1800      2.1800      2.2200      2.5509      2.9788     55.9821     55.9821    -42.2500      0.8109      0.8679      0.8679      4.2087   1010.0000      4.3743      0.1485      0.0373      0.1485      0.2969     90.4000     90.4000     94.4000
   1720.0000      9.8750      0.1890      0.3239     10.0255     10.0573     29.0701     29.0701    531.1893     -0.0261      1.2686      1.8826      1.8481   -999.2500     16.5650     10.7633      2.1353      0.4469   -999.2500      4.6500      0.6454      0.2592      0.3940      0.0080      0.0080   -999.2500     35.2500     45.1641      1.7356      2.2414      1.7210   -999.2500      2.1700      2.2691      2.4753      2.3689     61.5159     61.5159    -41.8125      0.7292      0.8219      0.8219      4.7485   1031.0000      4.6575      0.1801      0.0452      0.1801      0.3602   -999.2500     90.0000     98.3274
