~V
VERS. 2.00: Ver 2.00
WRAP.   NO:        
~W
 STRT.FT 570:
 STOP.FT 2019:
 STEP.FT 0.5:
 NULL. -999.250000:
 COMP. UNOCAL:Company
 WELL. McKittrick Front 418:Well
 FLD. Cymric:Field
 LOC. S6 T30S R22E:Location
 STAT. CA:State
 SRVC. :Service Company
 SON. :Service Order #
 DATE. :Log Date
 UWI. 0402989925:Unique Well ID
~C
 DEPT.FT :
 BS.IN :
 BVWE.DEC :
 BVWT.DEC :
 CALI.IN :
 CALS.IN :
 CGR.GAPI :
 CGRS.GAPI :
 CILD.MM/M :
 DROS.G/C3 :
 DWRO. :
 ILD.OHMM :
 ILM.OHMM :
 KWCI.MD :
 KWCL.MD :
 KWCS.MD :
 MCRV. :
 NPHS.DEC :
 OWCI.PCT :
 OWCL.PCT :
 OWCS.PCT :
 PHIE.DEC :
 PHIT.DEC :
 POTA. :
 POTS. :
 PWCI.PCT :
 PWCL.PCT :
 PWCS.PCT :
 RHOB.G/C3 :
 RMAT. :
 ROBS.G/C3 :
 RWCI.G/C3 :
 RWCL.G/C3 :
 RWCS.G/C3 :
 SFLA.OHMM :
 SFLU.OHMM :
 SGR.GAPI :
 SGRS.GAPI :
 SP.MV :
 SWE.DEC :
 SWT.DEC :
 SWTU.DEC :
 THRS.PPM :
 TIME.MS :
 URNS.PPM :
 VCL.DEC :
 VCLD.DEC :
 VCLW.DEC :
 VSHL.DEC :
 WWCI.PCT :
 WWCL.PCT :
 WWCS.PCT :
~P
~A
# ...
    745.5000      9.8750      0.1395      0.4577     11.2115     11.2319     42.5298     42.1967    790.3068     -0.0097      1.1452      1.2653      1.2872   -999.2500   -999.2500   -999.2500      2.8000      0.5132   -999.2500   -999.2500   -999.2500      0.1642      0.4824      0.0118      0.0118   -999.2500   -999.2500   -999.2500      1.7483      2.4801      1.7504   -999.2500   -999.2500   -999.2500      1.1534      1.4522     68.4438     67.9160    -51.5000      0.8495      0.9488      0.9488      6.8079   1001.5000      3.6920      0.4767      0.1585      0.4767      0.8358   -999.2500   -999.2500   -999.2500
    746.0000      9.8750      0.1360      0.4573     11.2474     11.1640     41.8617     42.4550    791.5476     -0.0078      1.1595      1.2633      1.2491   -999.2500   -999.2500   -999.2500      2.8000      0.5091   -999.2500   -999.2500   -999.2500      0.1572      0.4785      0.0117      0.0118   -999.2500   -999.2500   -999.2500      1.7520      2.4814      1.7545   -999.2500   -999.2500   -999.2500      1.1269      1.2828     67.3853     68.4056    -51.8125      0.8652      0.9557      0.9557      6.8569   1017.5000      3.7251      0.4812      0.1599      0.4812      0.8428   -999.2500   -999.2500   -999.2500
    746.5000      9.8750      0.1278      0.4555     11.1037     11.1462     43.0976     43.0862    790.1598     -0.0052      1.0448      1.2656      1.2385   -999.2500   -999.2500   -999.2500      2.8000      0.5425   -999.2500   -999.2500   -999.2500      0.1763      0.5040      0.0119      0.0119   -999.2500   -999.2500   -999.2500      1.7563      2.4812      1.7538   -999.2500   -999.2500   -999.2500      1.1073      1.0866     69.5106     69.4469    -51.7500      0.7250      0.9038      0.9038      7.0098   1018.5000      3.7840      0.4908      0.1631      0.4908      0.8237   -999.2500   -999.2500   -999.2500
    747.0000      9.8750      0.1152      0.4533     11.1755     11.2408     43.0729     44.2531    791.7952     -0.0047      1.0801      1.2630      1.2341   -999.2500   -999.2500   -999.2500      2.8000      0.5248   -999.2500   -999.2500   -999.2500      0.1544      0.4924      0.0118      0.0122   -999.2500   -999.2500   -999.2500      1.7520      2.4791      1.7478   -999.2500   -999.2500   -999.2500      1.0767      1.0623     69.3726     71.1455    -51.7500      0.7462      0.9204      0.9204      7.1750   1036.0000      3.8603      0.5063      0.1683      0.5063      0.8456   -999.2500   -999.2500   -999.2500
    747.5000      9.8750      0.1439      0.4618     11.2833     11.3500     45.7375     43.9260    804.1919     -0.0054      1.1951      1.2435      1.2223   -999.2500   -999.2500   -999.2500      2.8000      0.4974   -999.2500   -999.2500   -999.2500      0.1537      0.4716      0.0128      0.0124   -999.2500   -999.2500   -999.2500      1.7450      2.4777      1.7442   -999.2500   -999.2500   -999.2500      1.0792      1.0672     73.3753     67.8478    -51.8125      0.9364      0.9793      0.9793      7.0008   1068.0000      3.4339      0.4761      0.1583      0.4761      0.8463   -999.2500   -999.2500   -999.2500
    748.0000      9.8750      0.2062      0.4788     11.3912     11.3912     41.4685     42.4567    821.5980     -0.0057      1.1848      1.2171      1.2122   -999.2500   -999.2500   -999.2500      2.6998      0.5200   -999.2500   -999.2500   -999.2500      0.2129      0.4855      0.0120      0.0124   -999.2500   -999.2500   -999.2500      1.7437      2.4789      1.7473   -999.2500   -999.2500   -999.2500      1.0930      1.0512     60.3493     61.6614    -51.3750      0.9684      0.9861      0.9861      6.6095   1018.0000      2.7568      0.4083      0.1357      0.4083      0.7871   -999.2500   -999.2500   -999.2500
    748.5000      9.8750      0.1969      0.4797     11.3912     11.3912     43.9039     43.4877    833.6094     -0.0057      1.1361      1.1996      1.2104   -999.2500   -999.2500   -999.2500      2.7369      0.5314   -999.2500   -999.2500   -999.2500      0.2106      0.4935      0.0130      0.0129   -999.2500   -999.2500   -999.2500      1.7494      2.4796      1.7490   -999.2500   -999.2500   -999.2500      1.1049      1.0530     63.5828     62.8959    -51.3750      0.9348      0.9722      0.9722      6.7010   1050.5000      2.7860      0.4237      0.1408      0.4237      0.7894   -999.2500   -999.2500   -999.2500
    749.0000      9.8750      0.2153      0.4850     11.3912     11.3676     42.8290     42.4598    839.7581     -0.0094      1.1443      1.1908      1.2091   -999.2500   -999.2500   -999.2500      2.6897      0.5314   -999.2500   -999.2500   -999.2500      0.2253      0.4951      0.0126      0.0125   -999.2500   -999.2500   -999.2500      1.7488      2.4758      1.7394   -999.2500   -999.2500   -999.2500      1.1111      1.1034     61.8089     61.3237    -51.6250      0.9553      0.9796      0.9796      6.5938   1028.5000      2.7079      0.4040      0.1343      0.4040      0.7747   -999.2500   -999.2500   -999.2500
    749.5000      9.8750      0.2139      0.4750     11.3552     11.3072     41.8275     41.7449    840.7930     -0.0103      1.2503      1.1894      1.2047   -999.2500   -999.2500   -999.2500      2.6587      0.4998   -999.2500   -999.2500   -999.2500      0.2139      0.4750      0.0122      0.0121   -999.2500   -999.2500   -999.2500      1.7345      2.4718      1.7294   -999.2500   -999.2500   -999.2500      1.1171      1.1295     60.4927     60.2886    -51.7500      1.0000      1.0000      1.0259      6.5263   1024.5000      2.6619      0.3911      0.1300      0.3911      0.7822   -999.2500   -999.2500   -999.2500
    750.0000      9.8750      0.2283      0.4832     11.2833     11.2589     41.5914     41.5070    836.1162     -0.0118      1.2173      1.1960      1.2039   -999.2500   -999.2500   -999.2500      2.6366      0.5118   -999.2500   -999.2500   -999.2500      0.2283      0.4832      0.0121      0.0121   -999.2500   -999.2500   -999.2500      1.7268      2.4712      1.7280   -999.2500   -999.2500   -999.2500      1.1246      1.1304     59.9097     59.5541    -51.6875      1.0000      1.0000      1.0099      6.4942   1019.5000      2.5906      0.3819      0.1270      0.3819      0.7639   -999.2500   -999.2500   -999.2500
    750.5000      9.8750      0.2263      0.4745     11.2474     11.3222     41.3368     41.3124    832.4049     -0.0146      1.2698      1.2013      1.2073   -999.2500   -999.2500   -999.2500      2.6124      0.4980   -999.2500   -999.2500   -999.2500      0.2263      0.4745      0.0120      0.0119   -999.2500   -999.2500   -999.2500      1.7286      2.4702      1.7254   -999.2500   -999.2500   -999.2500      1.1197      1.1159     58.8370     58.7455    -52.1250      1.0000      1.0000      1.0286      6.4936   1018.0000      2.5025      0.3718      0.1236      0.3718      0.7436   -999.2500   -999.2500   -999.2500
    751.0000      9.8750      0.2343      0.4808     11.3552     11.3806     41.2587     41.2206    833.3015     -0.0164      1.2403      1.2000      1.2093   -999.2500   -999.2500   -999.2500      2.6060      0.5068   -999.2500   -999.2500   -999.2500      0.2343      0.4808      0.0119      0.0119   -999.2500   -999.2500   -999.2500      1.7240      2.4694      1.7235   -999.2500   -999.2500   -999.2500      1.1163      1.1142     58.5446     58.5332    -51.8750      1.0000      1.0000      1.0186      6.4940   1016.5000      2.4852      0.3692      0.1228      0.3692      0.7383   -999.2500   -999.2500   -999.2500
    751.5000      9.8750      0.2332      0.4783     11.3912     11.3653     41.1292     41.1406    837.6033     -0.0132      1.2545      1.1939      1.2033   -999.2500   -999.2500   -999.2500      2.6011      0.5025   -999.2500   -999.2500   -999.2500      0.2332      0.4783      0.0118      0.0118   -999.2500   -999.2500   -999.2500      1.7233      2.4686      1.7216   -999.2500   -999.2500   -999.2500      1.1076      1.1307     58.5057     58.3686    -51.4375      1.0000      1.0000      1.0255      6.4943   1035.5000      2.4730      0.3671      0.1221      0.3671      0.7342   -999.2500   -999.2500   -999.2500
