~V
VERS. 2.00: Ver 2.00
WRAP.   NO:        
~W
 STRT.FT 570:
 STOP.FT 2019:
 STEP.FT 0.5:
 NULL. -999.250000:
 COMP. UNOCAL:Company
 WELL. McKittrick Front 418:Well
 FLD. Cymric:Field
 LOC. S6 T30S R22E:Location
 STAT. CA:State
 SRVC. :Service Company
 SON. :Service Order #
 DATE. :Log Date
 UWI. 0402989925:Unique Well ID
~C
 DEPT.FT :
 BS.IN :
 BVWE.DEC :
 BVWT.DEC :
 CALI.IN :
 CALS.IN :
 CGR.GAPI :
 CGRS.GAPI :
 CILD.MM/M :
 DROS.G/C3 :
 DWRO. :
 ILD.OHMM :
 ILM.OHMM :
 KWCI.MD :
 KWCL.MD :
 KWCS.MD :
 MCRV. :
 NPHS.DEC :
 OWCI.PCT :
 OWCL.PCT :
 OWCS.PCT :
 PHIE.DEC :
 PHIT.DEC :
 POTA. :
 POTS. :
 PWCI.PCT :
 PWCL.PCT :
 PWCS.PCT :
 RHOB.G/C3 :
 RMAT. :
 ROBS.G/C3 :
 RWCI.G/C3 :
 RWCL.G/C3 :
 RWCS.G/C3 :
 SFLA.OHMM :
 SFLU.OHMM :
 SGR.GAPI :
 SGRS.GAPI :
 SP.MV :
 SWE.DEC :
 SWT.DEC :
 SWTU.DEC :
 THRS.PPM :
 TIME.MS :
 URNS.PPM :
 VCL.DEC :
 VCLD.DEC :
 VCLW.DEC :
 VSHL.DEC :
 WWCI.PCT :
 WWCL.PCT :
 WWCS.PCT :
~P
~A
# ...
   1272.0000      9.8750      0.2011      0.3124     10.7443     10.7443     30.5144     27.3097    288.2749     -0.0070      0.6744      3.4689      3.4677   -999.2500      9.1150      9.2365      2.0929      0.6541   -999.2500     56.7500     57.4639      0.5727      0.6841      0.0128      0.0115   -999.2500     67.1000     67.2753      1.3387      2.1477      1.3387   -999.2500      2.1250      2.1237      3.3165      3.6361     59.5045     56.0258    -54.4375      0.3511      0.4567      0.4567      2.8032   1020.2500      4.1221      0.1487      0.0374      0.1487      0.2974   -999.2500     41.8000     41.2239
   1272.5000      9.8750      0.1977      0.3174     10.7802     10.7802     30.5773     29.1439    292.9688     -0.0084      0.6741      3.4133      3.3727      8.6300      8.6300      8.6909      2.1080      0.6546     53.9000     53.9000     54.2577      0.5663      0.6860      0.0126      0.0122     66.4000     66.4000     66.4879      1.3384      2.1474      1.3384      2.1300      2.1300      2.1294      3.2782      3.5936     59.1922     57.9845    -54.4375      0.3491      0.4627      0.4627      3.0001   1070.0000      4.1400      0.1599      0.0402      0.1599      0.3198     44.1000     44.1000     43.8113
   1273.0000      9.8750      0.1954      0.3211     10.7443     10.7443     32.4609     30.5377    296.5847     -0.0064      0.6846      3.3717      3.2628   -999.2500      7.7500      7.7505      2.1188      0.6888   -999.2500     48.3000     48.3031      0.5565      0.6823      0.0130      0.0127   -999.2500     64.3000     64.3011      1.3464      2.1531      1.3464   -999.2500      2.1550      2.1550      3.2892      3.4750     61.5326     59.3887    -54.5625      0.3510      0.4706      0.4706      3.2000   1036.7500      4.1415      0.1679      0.0422      0.1679      0.3359   -999.2500     48.8000     48.7974
   1273.5000      9.8750      0.1914      0.3198     10.8161     10.8161     34.6894     31.2276    292.5370     -0.0111      0.6944      3.4184      3.2035      6.8700      6.8700      6.9637      2.1236      0.6422     42.7000     42.7000     43.2962      0.5499      0.6783      0.0137      0.0127     62.2000     62.2000     62.4236      1.3532      2.1580      1.3532      2.1800      2.1800      2.1773      3.3914      3.1237     64.5701     60.0002    -54.4375      0.3481      0.4715      0.4715      3.3857   1070.0000      4.1302      0.1714      0.0431      0.1714      0.3429     53.5000     53.5000     52.9996
   1274.0000      9.8750      0.1788      0.3179     10.7802     10.7802     33.0710     33.1735    282.7303     -0.0156      0.7082      3.5369      3.3079   -999.2500      9.0850      8.6134      2.1429      0.7175   -999.2500     56.6000     53.6405      0.5352      0.6743      0.0130      0.0132   -999.2500     66.5000     65.5845      1.3614      2.1639      1.3614   -999.2500      2.1500      2.1564      3.6172      2.8425     62.0703     62.5039    -53.6875      0.3341      0.4715      0.4715      3.7152   1053.7500      4.2103      0.1857      0.0467      0.1857      0.3715   -999.2500     39.9500     42.8350
   1274.5000      9.8750      0.1703      0.3151     10.7802     10.7802     32.8440     34.2131    274.1779     -0.0195      0.7178      3.6473      3.5577     11.3000     11.3000     10.5926      2.1532      0.7932     70.5000     70.5000     66.0607      0.5265      0.6713      0.0128      0.0135     70.8000     70.8000     69.4267      1.3670      2.1678      1.3670      2.1200      2.1200      2.1296      3.9041      2.8384     61.7869     63.8344    -53.7500      0.3234      0.4693      0.4693      3.8969   1035.7500      4.2521      0.1933      0.0486      0.1933      0.3867     26.4000     26.4000     30.7275
   1275.0000      9.8750      0.1724      0.3093     10.8161     10.8161     31.1775     33.0099    267.8754     -0.0200      0.7000      3.7331      3.8758   -999.2500     11.3000     11.3000      2.1390      0.8284   -999.2500     67.6000     68.8349      0.5406      0.6774      0.0117      0.0130   -999.2500     69.4000     69.9962      1.3542      2.1587      1.3542   -999.2500      2.1250      2.1229      4.1564      3.4425     59.8028     61.9941    -53.6250      0.3189      0.4566      0.4566      3.7772   1020.2500      4.1606      0.1828      0.0459      0.1828      0.3656   -999.2500     29.4000     28.1225
   1275.5000      9.8750      0.1707      0.3047     10.8880     10.8880     26.7138     32.4384    261.0657     -0.0196      0.6712      3.8305      4.0670     11.3000     11.3000     11.3000      2.1336      0.8604     64.7000     64.7000     66.2436      0.5563      0.6902      0.0093      0.0125     68.0000     68.0000     68.7452      1.3321      2.1429      1.3321      2.1300      2.1300      2.1273      4.3510      4.5953     53.7966     61.3040    -53.6250      0.3069      0.4414      0.4414      3.8074   1017.0000      4.1436      0.1789      0.0450      0.1789      0.3578     32.4000     32.4000     30.8031
   1276.0000      9.8750      0.1743      0.2962     10.7443     10.7443     24.6861     30.2047    252.3730     -0.0181      0.6477      3.9624      4.1574   -999.2500     11.2000     11.2639      2.1119      0.7300   -999.2500     62.4000     63.8691      0.5775      0.6994      0.0083      0.0112   -999.2500     67.2500     67.7290      1.3134      2.1296      1.3134   -999.2500      2.1350      2.1318      4.4429      5.2093     51.2401     58.4938    -53.8750      0.3019      0.4236      0.4236      3.7305   1033.7500      4.0608      0.1628      0.0409      0.1628      0.3256   -999.2500     32.9500     32.5987
   1276.5000      9.8750      0.1833      0.2830     10.7802     10.7802     24.9741     26.3235    240.8346     -0.0185      0.6499      4.1522      4.2193     11.1000     11.1000     11.1745      2.0718      0.7959     60.1000     60.1000     61.8140      0.5938      0.6935      0.0083      0.0091     66.5000     66.5000     67.0589      1.3152      2.1309      1.3152      2.1400      2.1400      2.1363      4.3308      4.9569     51.6286     53.3046    -53.7500      0.3086      0.4080      0.4080      3.5049   1039.0000      3.8731      0.1332      0.0335      0.1332      0.2663     33.5000     33.5000     33.0901
   1277.0000      9.8750      0.1840      0.2751     10.7802     10.7802     21.3165     24.7342    231.7705     -0.0179      0.6652      4.3146      4.2870     10.1000     10.1000     10.9517      2.0564      0.7701     59.8000     59.8000     60.0555      0.5927      0.6838      0.0064      0.0083     65.6000     65.6000     66.3665      1.3273      2.1395      1.3273      2.1500      2.1500      2.1415      4.1476      4.3702     45.8004     51.3050    -53.8750      0.3104      0.4024      0.4024      3.4221   1056.2500      3.8142      0.1217      0.0306      0.1217      0.2435     33.3000     33.3000     33.4703
   1277.5000      9.8750      0.1855      0.2745     10.8161     10.8161     34.5014     24.4563    231.8451     -0.0142      0.6839      4.3132      4.3111   -999.2500   -999.2500     10.1000      2.0525      0.6891   -999.2500   -999.2500     59.8000      0.5852      0.6742      0.0138      0.0080   -999.2500   -999.2500     65.6000      1.3424      2.1503      1.3424   -999.2500   -999.2500      2.1500      3.9132      4.1780     59.1448     50.8035    -53.7500      0.3170      0.4072      0.4072      3.4497   1043.7500      3.7821      0.1189      0.0299      0.1189      0.2378   -999.2500   -999.2500     33.3000
   1278.0000      9.8750      0.2003      0.2745     10.8161     10.8161     33.9995     22.8474    239.9123     -0.0190      0.6867      4.1682      4.2009   -999.2500   -999.2500   -999.2500      2.0259      0.7597   -999.2500   -999.2500   -999.2500      0.5951      0.6694      0.0135      0.0073   -999.2500   -999.2500   -999.2500      1.3472      2.1537      1.3472   -999.2500   -999.2500   -999.2500      3.6657      4.2347     58.4681     47.3498    -53.9375      0.3366      0.4102      0.4102      3.3117   1046.7500      3.5173      0.0991      0.0249      0.0991      0.1983   -999.2500   -999.2500   -999.2500
