~V
VERS. 2.00: Ver 2.00
WRAP.   NO:        
~W
 STRT.FT 570:
 STOP.FT 2019:
 STEP.FT 0.5:
 NULL. -999.250000:
 COMP. UNOCAL:Company
 WELL. McKittrick Front 418:Well
 FLD. Cymric:Field
 LOC. S6 T30S R22E:Location
 STAT. CA:State
 SRVC. :Service Company
 SON. :Service Order #
 DATE. :Log Date
 UWI. 0402989925:Unique Well ID
~C
 DEPT.FT :
 BS.IN :
 BVWE.DEC :
 BVWT.DEC :
 CALI.IN :
 CALS.IN :
 CGR.GAPI :
 CGRS.GAPI :
 CILD.MM/M :
 DROS.G/C3 :
 DWRO. :
 ILD.OHMM :
 ILM.OHMM :
 KWCI.MD :
 KWCL.MD :
 KWCS.MD :
 MCRV. :
 NPHS.DEC :
 OWCI.PCT :
 OWCL.PCT :
 OWCS.PCT :
 PHIE.DEC :
 PHIT.DEC :
 POTA. :
 POTS. :
 PWCI.PCT :
 PWCL.PCT :
 PWCS.PCT :
 RHOB.G/C3 :
 RMAT. :
 ROBS.G/C3 :
 RWCI.G/C3 :
 RWCL.G/C3 :
 RWCS.G/C3 :
 SFLA.OHMM :
 SFLU.OHMM :
 SGR.GAPI :
 SGRS.GAPI :
 SP.MV :
 SWE.DEC :
 SWT.DEC :
 SWTU.DEC :
 THRS.PPM :
 TIME.MS :
 URNS.PPM :
 VCL.DEC :
 VCLD.DEC :
 VCLW.DEC :
 VSHL.DEC :
 WWCI.PCT :
 WWCL.PCT :
 WWCS.PCT :
~P
~A
# ...
   1629.5000      9.8750      0.1904      0.2657     10.0614     10.0289     15.8083     16.7706    300.0082     -0.0236      3.0194      3.3332      3.5010      2.6100      2.6100     34.0004      2.0277      0.3434     28.3000     28.3000     39.0180      0.2053      0.2806      0.0054      0.0057     53.3000     53.3000     37.8341      1.6963      2.2624      1.7931      2.2000      2.2000      2.1600      4.5809      6.1676     46.4172     47.5913    -39.5625      0.9274      0.9469      0.9469      2.2782   1037.0000      4.4242      0.1005      0.0252      0.1005      0.2010     70.1000     70.1000     54.1884
   1630.0000      9.8750      0.1881      0.2676     10.0614      9.9964     16.8021     17.5526    304.4369     -0.0243      1.8119      3.2848      3.2592   -999.2500      2.8300     18.3050      2.0354      0.4214   -999.2500     29.5500     33.6500      0.2905      0.3701      0.0057      0.0060   -999.2500     51.8500     45.5500      1.7728      2.2544      1.7658   -999.2500      2.1900      2.1800      4.2631      6.4254     47.6297     48.5869    -39.5000      0.6473      0.7231      0.7231      2.3913   1053.5000      4.4549      0.1062      0.0267      0.1062      0.2124   -999.2500     68.6500     62.1500
   1630.5000      9.8750      0.1742      0.2691     10.0255      9.9895     17.5901     20.2260    309.0217     -0.0231      1.1531      3.2360      3.0720      3.0500      3.0500      2.6100      2.0631      0.5023     30.8000     30.8000     28.3000      0.3744      0.4693      0.0060      0.0068     50.4000     50.4000     53.3000      1.7953      2.2446      1.7321      2.1800      2.1800      2.2000      4.1693      4.7036     48.6347     52.1726    -40.3125      0.4652      0.5734      0.5734      2.7885   1002.5000      4.5859      0.1267      0.0318      0.1267      0.2534     67.2000     67.2000     70.1000
   1631.0000      9.8750      0.1421      0.2707      9.9895      9.9895     20.4045     28.5585    316.7788     -0.0241      1.0121      3.1568      3.0208   -999.2500      7.6750      2.8300      2.1240      0.5228   -999.2500     23.6000     29.5500      0.3705      0.4991      0.0068      0.0101   -999.2500     42.6500     51.8500      1.7588      2.2372      1.7065   -999.2500      2.1700      2.1900      4.0568      3.9363     52.4122     60.0553    -39.8750      0.3835      0.5424      0.5424      3.7440   1020.2500      4.5213      0.1717      0.0431      0.1717      0.3435   -999.2500     72.5000     68.6500
   1631.5000      9.8750      0.1455      0.2752      9.9895      9.9895     29.2607     28.9456    326.2976     -0.0231      1.2147      3.0647      2.9863     12.3000     12.3000      2.9950      2.1260      0.4856     16.4000     16.4000     30.4876      0.3238      0.4536      0.0103      0.0097     34.9000     34.9000     50.7624      1.7215      2.2367      1.7048      2.1600      2.1600      2.1825      4.0421      3.4800     60.7135     60.3141    -40.1875      0.4492      0.6068      0.6068      3.9920   1036.7500      4.5029      0.1732      0.0435      0.1732      0.3464     77.8000     77.8000     67.5624
   1632.0000      9.8750      0.1587      0.2805      9.9895     10.0049     28.9124     27.8181    335.8260     -0.0213      1.7328      2.9777      2.9559   -999.2500      8.7050      5.3629      2.1118      0.4234   -999.2500     16.2500     27.1993      0.2542      0.3760      0.0096      0.0090   -999.2500     44.3000     46.5243      1.6973      2.2436      1.7288   -999.2500      2.1800      2.1750      4.2186      3.5579     60.2721     58.4756    -40.3125      0.6243      0.7461      0.7461      3.9872   1052.7500      4.4008      0.1627      0.0409      0.1627      0.3254   -999.2500     78.3500     69.8505
   1632.5000      9.8750      0.1806      0.2868      9.9895     10.0135     27.6815     25.3948    349.0442     -0.0194      2.5778      2.8650      2.9954      5.1100      5.1100      8.8319      2.0835      0.3647     16.1000     16.1000     21.7990      0.1976      0.3039      0.0089      0.0079     53.7000     53.7000     40.7114      1.7117      2.2535      1.7626      2.2000      2.2000      2.1675      4.3741      3.8953     58.2512     54.8183    -40.4375      0.9136      0.9438      0.9438      3.7609   1020.7500      4.2237      0.1418      0.0356      0.1418      0.2836     78.9000     78.9000     73.8257
   1633.0000      9.8750      0.1882      0.2661     10.0255      9.9895     25.0626     20.9187    350.9603     -0.0156      3.3163      2.8493      2.9719      7.1100      7.1100     12.2993      2.0324      0.3285     38.9000     38.9000     16.4000      0.1882      0.2661      0.0077      0.0060     52.7000     52.7000     34.9017      1.7516      2.2599      1.7848      2.1700      2.1700      2.1600      4.5217      4.5220     54.3195     48.1910    -40.4375      1.0000      1.0000      1.0866      3.3210   1001.7500      3.9149      0.1039      0.0261      0.1039      0.2079     59.3000     59.3000     77.8001
   1633.5000      9.8750      0.1759      0.2788      9.9895      9.9895     20.2288     25.4146    340.5735     -0.0152      3.0149      2.9362      2.9231   -999.2500      7.5375      8.7050      2.0777      0.3423   -999.2500     37.9000     16.2500      0.1759      0.2788      0.0057      0.0078   -999.2500     50.4750     44.3000      1.7848      2.2591      1.7818   -999.2500      2.1650      2.1800      4.4686      5.1348     47.1707     54.0641    -40.5000      1.0000      1.0000      1.0159      3.8181   1019.2500      4.1126      0.1375      0.0345      0.1375      0.2750   -999.2500     57.2000     78.3500
   1634.0000      9.8750      0.1612      0.2799      9.9895      9.9912     26.3920     27.9819    334.2111     -0.0144      1.5789      2.9921      3.0544   -999.2500      7.9650      5.1100      2.1060      0.4451   -999.2500     36.9000     16.1000      0.2766      0.3953      0.0082      0.0086   -999.2500     48.2500     53.7000      1.7848      2.2538      1.7638   -999.2500      2.1600      2.2000      4.5244      4.4643     55.3632     57.7270    -40.2500      0.5827      0.7080      0.7080      4.1770   1024.7500      4.2698      0.1584      0.0398      0.1584      0.3169   -999.2500     55.1000     78.9000
   1634.5000      9.8750      0.1553      0.2777      9.9895     10.0238     28.3179     28.7415    330.1649     -0.0163      1.9544      3.0288      3.2076   -999.2500      8.3925      7.1100      2.1127      0.4063   -999.2500     35.9000     38.9000      0.2300      0.3523      0.0087      0.0089   -999.2500     46.0250     52.7000      1.7639      2.2533      1.7618   -999.2500      2.1550      2.1700      4.3605      4.4397     58.2264     58.5957    -39.9375      0.6755      0.7882      0.7882      4.2845   1033.0000      4.2855      0.1634      0.0410      0.1634      0.3268   -999.2500     53.0000     59.3000
   1635.0000      9.8750      0.1929      0.2758     10.0255     10.0255     28.8410     24.1490    322.5797     -0.0122      2.6016      3.1000      3.2266      8.8200      8.8200      7.5375      2.0414      0.3633     34.9000     34.9000     37.9000      0.2208      0.3037      0.0089      0.0078     43.8000     43.8000     50.4750      1.7617      2.2545      1.7659      2.1500      2.1500      2.1650      4.1447      4.5018     58.6825     49.3640    -39.1875      0.8738      0.9082      0.9082      3.4462    995.0000      3.6195      0.1107      0.0278      0.1107      0.2213     50.9000     50.9000     57.2000
   1635.5000      9.8750      0.2095      0.2751     10.0255     10.0255     22.9306     22.1314    318.1414     -0.0144      2.0742      3.1433      3.2112     19.0000     19.0000      7.9650      2.0101      0.3991     54.7000     54.7000     36.9000      0.2795      0.3451      0.0075      0.0074     58.7000     58.7000     48.2500      1.7667      2.2512      1.7547      2.1600      2.1600      2.1600      4.0268      4.8766     46.9441     45.3131    -39.5000      0.7497      0.7972      0.7972      3.0563   1009.0000      3.3277      0.0875      0.0220      0.0875      0.1750     35.4000     35.4000     55.1000
