~V
VERS. 2.00: Ver 2.00
WRAP.   NO:        
~W
 STRT.FT 570:
 STOP.FT 2019:
 STEP.FT 0.5:
 NULL. -999.250000:
 COMP. UNOCAL:Company
 WELL. McKittrick Front 418:Well
 FLD. Cymric:Field
 LOC. S6 T30S R22E:Location
 STAT. CA:State
 SRVC. :Service Company
 SON. :Service Order #
 DATE. :Log Date
 UWI. 0402989925:Unique Well ID
~C
 DEPT.FT :
 BS.IN :
 BVWE.DEC :
 BVWT.DEC :
 CALI.IN :
 CALS.IN :
 CGR.GAPI :
 CGRS.GAPI :
 CILD.MM/M :
 DROS.G/C3 :
 DWRO. :
 ILD.OHMM :
 ILM.OHMM :
 KWCI.MD :
 KWCL.MD :
 KWCS.MD :
 MCRV. :
 NPHS.DEC :
 OWCI.PCT :
 OWCL.PCT :
 OWCS.PCT :
 PHIE.DEC :
 PHIT.DEC :
 POTA. :
 POTS. :
 PWCI.PCT :
 PWCL.PCT :
 PWCS.PCT :
 RHOB.G/C3 :
 RMAT. :
 ROBS.G/C3 :
 RWCI.G/C3 :
 RWCL.G/C3 :
 RWCS.G/C3 :
 SFLA.OHMM :
 SFLU.OHMM :
 SGR.GAPI :
 SGRS.GAPI :
 SP.MV :
 SWE.DEC :
 SWT.DEC :
 SWTU.DEC :
 THRS.PPM :
 TIME.MS :
 URNS.PPM :
 VCL.DEC :
 VCLD.DEC :
 VCLW.DEC :
 VSHL.DEC :
 WWCI.PCT :
 WWCL.PCT :
 WWCS.PCT :
~P
~A
# ...
   1447.5000      9.8750      0.1724      0.2314     10.1333     10.1333     17.9186     18.4827    183.1601     -0.0142      0.6348      5.4597      5.3470      6.2000      6.2000      6.8962      2.0000      0.7150     62.1000     62.1000     63.1636      0.6221      0.6812      0.0061      0.0064     64.4000     64.4000     65.7859      1.3163      2.1316      1.3163      2.1300      2.1300      2.1171      6.0511      5.3633     42.9148     43.7981    -47.9375      0.2771      0.3398      0.3398      2.4674   1020.2500      3.6340      0.0788      0.0198      0.0788      0.1577     37.4000     37.4000     36.0785
   1448.0000      9.8750      0.1726      0.2279     10.0614     10.0614     18.3035     17.9186    177.4742     -0.0139      0.6420      5.6346      5.6197   -999.2500      7.6750      6.7569      2.0000      0.6676   -999.2500     63.8000     62.7419      0.6222      0.6774      0.0062      0.0061   -999.2500     66.1500     65.0608      1.3206      2.1347      1.3206   -999.2500      2.1100      2.1224      6.3697      5.6393     43.5065     42.9148    -47.8125      0.2775      0.3364      0.3364      2.4489   1052.0000      3.5881      0.0738      0.0185      0.0738      0.1476   -999.2500     35.8500     36.8147
   1448.5000      9.8750      0.1657      0.2235     10.0973     10.0973     18.6466     18.3035    170.8808     -0.0129      0.6474      5.8520      5.8960      9.1500      9.1500      8.2647      2.0000      0.6317     65.5000     65.5000     64.4797      0.6167      0.6744      0.0064      0.0062     67.9000     67.9000     66.8497      1.3251      2.1380      1.3251      2.0900      2.0900      2.1020      6.6960      5.9975     43.6400     43.5065    -48.1250      0.2688      0.3314      0.3314      2.5044   1003.2500      3.6178      0.0772      0.0194      0.0772      0.1544     34.3000     34.3000     35.2303
   1449.0000      9.8750      0.1607      0.2190     10.0973     10.0973     17.1231     18.6466    164.1767     -0.0126      0.6425      6.0910      6.1462   -999.2500      8.6650      8.9453      2.0000      0.6235   -999.2500     67.2500     66.2385      0.6186      0.6770      0.0059      0.0064   -999.2500     68.0000     67.9422      1.3202      2.1344      1.3202   -999.2500      2.0600      2.0773      6.9242      6.7803     41.1500     43.6400    -47.0000      0.2597      0.3236      0.3236      2.5205   1020.2500      3.5877      0.0779      0.0196      0.0779      0.1559   -999.2500     32.4500     33.5193
   1449.5000      9.8750      0.1674      0.2151     10.0973     10.0973     16.9111     17.1231    158.1040     -0.0142      0.6408      6.3250      6.3434      8.1800      8.1800      8.4496      2.0000      0.6180     69.0000     69.0000     68.0274      0.6304      0.6781      0.0056      0.0059     68.1000     68.1000     68.0444      1.3147      2.1305      1.3147      2.0300      2.0300      2.0467      7.1997      7.2609     40.7484     41.1500    -46.6250      0.2656      0.3173      0.3173      2.2779   1035.7500      3.4490      0.0637      0.0160      0.0637      0.1274     30.6000     30.6000     31.6282
   1450.0000      9.8750      0.1634      0.2093     10.0614     10.0614     16.3630     16.9111    149.6920     -0.0155      0.6298      6.6804      6.5000   -999.2500      7.0700      7.6623      2.0000      0.6520   -999.2500     72.1500     70.4693      0.6380      0.6840      0.0051      0.0056   -999.2500     68.0000     68.0533      1.3033      2.1223      1.3033   -999.2500      2.0350      2.0323      7.5158      7.1194     39.3998     40.7484    -46.1875      0.2560      0.3060      0.3060      2.3477   1020.0000      3.4218      0.0614      0.0154      0.0614      0.1228   -999.2500     27.5500     29.1774
   1450.5000      9.8750      0.1634      0.2036     10.0255     10.0255     21.7436     16.3630    141.4751     -0.0178      0.6286      7.0684      6.7727      5.9600      5.9600      6.5276      2.0000      0.6222     75.3000     75.3000     73.6892      0.6445      0.6847      0.0066      0.0051     67.9000     67.9000     67.9511      1.2992      2.1195      1.2992      2.0400      2.0400      2.0374      7.9309      6.8230     45.8867     39.3998    -46.1875      0.2535      0.2973      0.2973      2.4291   1036.0000      3.3069      0.0537      0.0135      0.0537      0.1074     24.5000     24.5000     26.0596
   1451.0000      9.8750      0.1319      0.1999     10.0973     10.0973     19.8457     21.7436    134.0545     -0.0163      0.6263      7.4597      7.1967   -999.2500      8.3300      7.1707      2.0146      0.7020   -999.2500     74.4000     74.8402      0.6193      0.6873      0.0063      0.0066   -999.2500     68.6000     68.2576      1.3013      2.1209      1.3013   -999.2500      2.0400      2.0400      8.4420      6.9584     42.9302     45.8867    -46.0625      0.2131      0.2909      0.2909      3.2856   1020.0000      3.4657      0.0908      0.0228      0.0908      0.1816   -999.2500     25.4000     24.9598
   1451.5000      9.8750      0.1371      0.1924     10.0973     10.0973     18.5522     19.8457    126.9102     -0.0167      0.6348      7.8796      7.7266     10.7000     10.7000      9.5934      2.0000      0.6606     73.5000     73.5000     73.9202      0.6257      0.6810      0.0060      0.0063     69.3000     69.3000     68.9731      1.3067      2.1248      1.3067      2.0400      2.0400      2.0400      9.0346      7.6561     40.1778     42.9302    -45.6875      0.2192      0.2826      0.2826      2.9041   1020.0000      3.3137      0.0739      0.0186      0.0739      0.1478     26.3000     26.3000     25.8798
   1452.0000      9.8750      0.1448      0.1884     10.0255     10.0255     18.0712     18.5522    121.3004     -0.0148      0.6285      8.2440      8.2201   -999.2500     22.5500     17.2800      2.0000      0.7058   -999.2500     75.1000     74.3884      0.6411      0.6846      0.0062      0.0060   -999.2500     68.7000     68.9668      1.2967      2.1176      1.2967   -999.2500      2.0950      2.0705      9.6224      8.6022     38.9655     40.1778    -45.6250      0.2259      0.2751      0.2751      2.6324   1036.7500      3.1043      0.0582      0.0146      0.0582      0.1163   -999.2500     24.6500     25.3838
   1452.5000      9.8750      0.1460      0.1844     10.0614     10.0614     19.0394     18.0712    116.1334     -0.0191      0.6254      8.6108      8.6873     34.4000     34.4000     29.3932      2.0000      0.6262     76.7000     76.7000     76.0240      0.6480      0.6864      0.0068      0.0062     68.1000     68.1000     68.3535      1.2915      2.1139      1.2915      2.1500      2.1500      2.1268     10.1055      9.3761     40.2427     38.9655    -45.6250      0.2253      0.2686      0.2686      2.4445   1021.0000      2.9993      0.0512      0.0129      0.0512      0.1025     23.0000     23.0000     23.6971
   1453.0000      9.8750      0.1355      0.1793     10.0255     10.0255     18.9163     19.0394    110.0406     -0.0174      0.6262      9.0876      9.1324   -999.2500     23.3000     27.7433      2.0000      0.8408   -999.2500     78.2500     77.6295      0.6420      0.6858      0.0072      0.0068   -999.2500     68.7000     68.4598      1.2926      2.1147      1.2926   -999.2500      2.1350      2.1410     10.4738     10.0593     39.5081     40.2427    -45.8750      0.2111      0.2615      0.2615      2.4369   1020.5000      3.0437      0.0585      0.0147      0.0585      0.1171   -999.2500     21.3000     21.9805
   1453.5000      9.8750      0.1353      0.1760     10.1692     10.1692     17.8551     18.9163    105.9514     -0.0140      0.6417      9.4383      9.5427     12.2000     12.2000     16.3968      2.0000      0.7966     79.8000     79.8000     79.2140      0.6368      0.6775      0.0071      0.0072     69.3000     69.3000     69.0732      1.3044      2.1231      1.3044      2.1200      2.1200      2.1257     10.7340     10.8466     37.7847     39.5081    -45.5625      0.2125      0.2598      0.2598      2.2730   1036.0000      2.9559      0.0543      0.0137      0.0543      0.1087     19.6000     19.6000     20.2427
