~V
VERS. 2.00: Ver 2.00
WRAP.   NO:        
~W
 STRT.FT 570:
 STOP.FT 2019:
 STEP.FT 0.5:
 NULL. -999.250000:
 COMP. UNOCAL:Company
 WELL. McKittrick Front 418:Well
 FLD. Cymric:Field
 LOC. S6 T30S R22E:Location
 STAT. CA:State
 SRVC. :Service Company
 SON. :Service Order #
 DATE. :Log Date
 UWI. 0402989925:Unique Well ID
~C
 DEPT.FT :
 BS.IN :
 BVWE.DEC :
 BVWT.DEC :
 CALI.IN :
 CALS.IN :
 CGR.GAPI :
 CGRS.GAPI :
 CILD.MM/M :
 DROS.G/C3 :
 DWRO. :
 ILD.OHMM :
 ILM.OHMM :
 KWCI.MD :
 KWCL.MD :
 KWCS.MD :
 MCRV. :
 NPHS.DEC :
 OWCI.PCT :
 OWCL.PCT :
 OWCS.PCT :
 PHIE.DEC :
 PHIT.DEC :
 POTA. :
 POTS. :
 PWCI.PCT :
 PWCL.PCT :
 PWCS.PCT :
 RHOB.G/C3 :
 RMAT. :
 ROBS.G/C3 :
 RWCI.G/C3 :
 RWCL.G/C3 :
 RWCS.G/C3 :
 SFLA.OHMM :
 SFLU.OHMM :
 SGR.GAPI :
 SGRS.GAPI :
 SP.MV :
 SWE.DEC :
 SWT.DEC :
 SWTU.DEC :
 THRS.PPM :
 TIME.MS :
 URNS.PPM :
 VCL.DEC :
 VCLD.DEC :
 VCLW.DEC :
 VSHL.DEC :
 WWCI.PCT :
 WWCL.PCT :
 WWCS.PCT :
~P
~A
# ...
    921.0000      9.8750      0.1913      0.3057     11.1037     11.0840     50.1856     50.0682    290.9991     -0.0195      1.6724      3.4364      3.4466   -999.2500   -999.2500   -999.2500      2.2000      0.4718   -999.2500   -999.2500   -999.2500      0.3236      0.4380      0.0187      0.0186   -999.2500   -999.2500   -999.2500      1.8846      2.5216      1.8838   -999.2500   -999.2500   -999.2500      3.5457      3.3102     60.0729     59.9601    -51.1250      0.5912      0.6980      0.6980      6.1439   1048.7500      1.4200      0.1712      0.0568      0.1712      0.3424   -999.2500   -999.2500   -999.2500
    921.5000      9.8750      0.1863      0.3003     11.0318     11.0536     49.7845     49.9392    280.8238     -0.0174      1.5617      3.5610      3.5680   -999.2500   -999.2500   -999.2500      2.2000      0.4949   -999.2500   -999.2500   -999.2500      0.3391      0.4531      0.0185      0.0185   -999.2500   -999.2500   -999.2500      1.8955      2.5242      1.8922   -999.2500   -999.2500   -999.2500      3.7281      3.5328     59.6878     59.8498    -51.0000      0.5496      0.6629      0.6629      6.1784   1014.0000      1.4226      0.1706      0.0566      0.1706      0.3411   -999.2500   -999.2500   -999.2500
    922.0000      9.8750      0.1851      0.2953     11.0318     11.0318     50.3339     49.0388    269.5977     -0.0156      1.4915      3.7092      3.7026   -999.2500   -999.2500   -999.2500      2.2000      0.5152   -999.2500   -999.2500   -999.2500      0.3544      0.4646      0.0185      0.0180   -999.2500   -999.2500   -999.2500      1.9106      2.5284      1.9056   -999.2500   -999.2500   -999.2500      3.8703      3.6651     60.2633     58.8477    -51.0000      0.5224      0.6356      0.6356      6.1186   1022.7500      1.4080      0.1648      0.0547      0.1648      0.3297   -999.2500   -999.2500   -999.2500
    922.5000      9.8750      0.1811      0.2888     11.1037     11.0775     45.5440     46.0339    256.7241     -0.0151      1.5782      3.8952      3.8571   -999.2500   -999.2500   -999.2500      2.2000      0.5022   -999.2500   -999.2500   -999.2500      0.3449      0.4526      0.0167      0.0171   -999.2500   -999.2500   -999.2500      1.9203      2.5319      1.9168   -999.2500   -999.2500   -999.2500      4.0121      3.7316     55.0276     58.2027    -51.0000      0.5249      0.6380      0.6380      5.6664   1035.7500      1.7468      0.1612      0.0534      0.1612      0.3223   -999.2500   -999.2500   -999.2500
    923.0000      9.8750      0.1335      0.2797     11.1396     11.1254     47.4346     46.8175    246.5854     -0.0140      1.5637      4.0554      4.0160   -999.2500   -999.2500   -999.2500      2.2449      0.4998   -999.2500   -999.2500   -999.2500      0.3044      0.4506      0.0181      0.0179   -999.2500   -999.2500   -999.2500      1.9257      2.5340      1.9236   -999.2500   -999.2500   -999.2500      4.1373      3.8432     67.2797     66.4957    -51.2500      0.4384      0.6206      0.6206      5.5403   1003.0000      2.8248      0.2187      0.0725      0.2187      0.4374   -999.2500   -999.2500   -999.2500
    923.5000      9.8750      0.1381      0.2710     11.1396     11.1396     44.9456     45.3820    239.2384     -0.0146      1.5968      4.1799      4.1608   -999.2500   -999.2500   -999.2500      2.2000      0.4877   -999.2500   -999.2500   -999.2500      0.3091      0.4421      0.0174      0.0175   -999.2500   -999.2500   -999.2500      1.9258      2.5347      1.9258   -999.2500   -999.2500   -999.2500      4.2478      3.9944     64.1175     64.8058    -51.0000      0.4467      0.6131      0.6131      5.3079   1047.5000      2.7882      0.1989      0.0659      0.1989      0.3978   -999.2500   -999.2500   -999.2500
    924.0000      9.8750      0.1242      0.2734     11.2115     11.1788     46.7893     46.6642    234.1756     -0.0156      1.7289      4.2703      4.2794   -999.2500   -999.2500   -999.2500      2.2557      0.4708   -999.2500   -999.2500   -999.2500      0.2807      0.4300      0.0181      0.0180   -999.2500   -999.2500   -999.2500      1.9270      2.5349      1.9264   -999.2500   -999.2500   -999.2500      4.3424      4.2010     67.0255     66.8583    -51.1875      0.4425      0.6360      0.6360      5.4481    990.2500      2.8988      0.2232      0.0740      0.2232      0.4465   -999.2500   -999.2500   -999.2500
    924.5000      9.8750      0.1415      0.2682     11.1755     11.1930     46.2345     45.2836    231.3205     -0.0162      1.7412      4.3230      4.3655   -999.2500   -999.2500   -999.2500      2.2000      0.4649   -999.2500   -999.2500   -999.2500      0.2987      0.4253      0.0179      0.0176   -999.2500   -999.2500   -999.2500      1.9303      2.5356      1.9287   -999.2500   -999.2500   -999.2500      4.4324      4.3422     66.2836     63.1505    -51.5000      0.4738      0.6305      0.6305      5.2587   1033.7500      2.5647      0.1894      0.0628      0.1894      0.3789   -999.2500   -999.2500   -999.2500
    925.0000      9.8750      0.1926      0.2793     11.1396     11.1581     41.7962     42.6478    229.6019     -0.0167      1.9406      4.3554      4.3878   -999.2500   -999.2500   -999.2500      2.2000      0.4543   -999.2500   -999.2500   -999.2500      0.3289      0.4156      0.0164      0.0168   -999.2500   -999.2500   -999.2500      1.9327      2.5365      1.9315   -999.2500   -999.2500   -999.2500      4.4888      4.4486     51.6592     52.6946    -51.3750      0.5855      0.6720      0.6720      4.8650   1049.0000      1.4422      0.1297      0.0430      0.1297      0.2594   -999.2500   -999.2500   -999.2500
    925.5000      9.8750      0.1700      0.2731     11.1396     11.1396     45.9905     46.2136    227.7852     -0.0157      1.9318      4.3901      4.3641   -999.2500   -999.2500   -999.2500      2.2000      0.4488   -999.2500   -999.2500   -999.2500      0.3082      0.4112      0.0183      0.0183   -999.2500   -999.2500   -999.2500      1.9399      2.5379      1.9360   -999.2500   -999.2500   -999.2500      4.5685      4.5076     56.7593     56.9710    -51.6250      0.5518      0.6641      0.6641      5.2060   1004.7500      1.5442      0.1541      0.0511      0.1541      0.3082   -999.2500   -999.2500   -999.2500
    926.0000      9.8750      0.1606      0.2697     11.1396     11.1396     47.1535     47.6378    225.2689     -0.0136      1.9469      4.4391      4.3339   -999.2500   -999.2500   -999.2500      2.2000      0.4448   -999.2500   -999.2500   -999.2500      0.2986      0.4077      0.0187      0.0188   -999.2500   -999.2500   -999.2500      1.9404      2.5392      1.9402   -999.2500   -999.2500   -999.2500      4.6882      4.4694     57.8630     58.5597    -51.3750      0.5378      0.6615      0.6615      5.4129   1017.2500      1.5678      0.1632      0.0541      0.1632      0.3264   -999.2500   -999.2500   -999.2500
    926.5000      9.8750      0.1441      0.2642     11.0677     11.1113     49.8358     49.6585    221.7023     -0.0121      1.9139      4.5106      4.3563   -999.2500   -999.2500   -999.2500      2.2000      0.4441   -999.2500   -999.2500   -999.2500      0.2876      0.4077      0.0194      0.0193   -999.2500   -999.2500   -999.2500      1.9419      2.5394      1.9410   -999.2500   -999.2500   -999.2500      4.8438      4.4614     61.7218     61.4295    -51.6250      0.5011      0.6480      0.6480      5.7506   1020.5000      1.6897      0.1796      0.0595      0.1796      0.3592   -999.2500   -999.2500   -999.2500
    927.0000      9.8750      0.1495      0.2634     11.0677     11.0677     48.7888     48.6887    217.3828     -0.0137      1.8443      4.6002      4.4586   -999.2500   -999.2500   -999.2500      2.2000      0.4573   -999.2500   -999.2500   -999.2500      0.3034      0.4172      0.0190      0.0190   -999.2500   -999.2500   -999.2500      1.9377      2.5392      1.9404   -999.2500   -999.2500   -999.2500      5.0370      4.5528     59.9958     59.7955    -51.8750      0.4929      0.6313      0.6313      5.6217   1033.5000      1.5944      0.1703      0.0564      0.1703      0.3405   -999.2500   -999.2500   -999.2500
