~V
VERS. 2.00: Ver 2.00
WRAP.   NO:        
~W
 STRT.FT 570:
 STOP.FT 2019:
 STEP.FT 0.5:
 NULL. -999.250000:
 COMP. UNOCAL:Company
 WELL. McKittrick Front 418:Well
 FLD. Cymric:Field
 LOC. S6 T30S R22E:Location
 STAT. CA:State
 SRVC. :Service Company
 SON. :Service Order #
 DATE. :Log Date
 UWI. 0402989925:Unique Well ID
~C
 DEPT.FT :
 BS.IN :
 BVWE.DEC :
 BVWT.DEC :
 CALI.IN :
 CALS.IN :
 CGR.GAPI :
 CGRS.GAPI :
 CILD.MM/M :
 DROS.G/C3 :
 DWRO. :
 ILD.OHMM :
 ILM.OHMM :
 KWCI.MD :
 KWCL.MD :
 KWCS.MD :
 MCRV. :
 NPHS.DEC :
 OWCI.PCT :
 OWCL.PCT :
 OWCS.PCT :
 PHIE.DEC :
 PHIT.DEC :
 POTA. :
 POTS. :
 PWCI.PCT :
 PWCL.PCT :
 PWCS.PCT :
 RHOB.G/C3 :
 RMAT. :
 ROBS.G/C3 :
 RWCI.G/C3 :
 RWCL.G/C3 :
 RWCS.G/C3 :
 SFLA.OHMM :
 SFLU.OHMM :
 SGR.GAPI :
 SGRS.GAPI :
 SP.MV :
 SWE.DEC :
 SWT.DEC :
 SWTU.DEC :
 THRS.PPM :
 TIME.MS :
 URNS.PPM :
 VCL.DEC :
 VCLD.DEC :
 VCLW.DEC :
 VSHL.DEC :
 WWCI.PCT :
 WWCL.PCT :
 WWCS.PCT :
~P
~A
# ...
   1363.0000      9.8750      0.1981      0.2383     10.4567     10.4567     20.3716     19.0149    190.0223     -0.0128      0.6778      5.2625      5.2549   -999.2500   -999.2500   -999.2500      2.0000      0.6585   -999.2500   -999.2500   -999.2500      0.6248      0.6650      0.0044      0.0045   -999.2500   -999.2500   -999.2500      1.3395      2.1482      1.3395   -999.2500   -999.2500   -999.2500      5.3375      6.0141     41.3258     39.3924    -50.0000      0.3171      0.3583      0.3583      3.3854   1002.2500      2.9251      0.0537      0.0135      0.0537      0.1073   -999.2500   -999.2500   -999.2500
   1363.5000      9.8750      0.1779      0.2367     10.4567     10.4567     18.2214     21.9906    187.9608     -0.0065      0.6811      5.3203      5.1368   -999.2500   -999.2500   -999.2500      2.0000      0.6337   -999.2500   -999.2500   -999.2500      0.6042      0.6630      0.0036      0.0051   -999.2500   -999.2500   -999.2500      1.3472      2.1537      1.3472   -999.2500   -999.2500   -999.2500      5.2361      5.6066     37.7801     43.7516    -49.8125      0.2944      0.3570      0.3570      3.9570   1037.7500      3.1237      0.0786      0.0197      0.0786      0.1572   -999.2500   -999.2500   -999.2500
   1364.0000      9.8750      0.1910      0.2355     10.6364     10.6364     22.3473     19.8075    185.7191     -0.0050      0.6967      5.3845      5.1072   -999.2500   -999.2500   -999.2500      2.0000      0.6828   -999.2500   -999.2500   -999.2500      0.6113      0.6557      0.0050      0.0042   -999.2500   -999.2500   -999.2500      1.3555      2.1596      1.3555   -999.2500   -999.2500   -999.2500      5.2252      5.1362     43.4622     40.3957    -49.9375      0.3124      0.3591      0.3591      3.7448   1019.5000      2.9554      0.0594      0.0149      0.0594      0.1188   -999.2500   -999.2500   -999.2500
   1364.5000      9.8750      0.1948      0.2347     10.6005     10.6005     23.8560     19.3444    184.3643     -0.0027      0.7139      5.4240      5.1982   -999.2500   -999.2500   -999.2500      2.0000      0.6940   -999.2500   -999.2500   -999.2500      0.6079      0.6478      0.0060      0.0040   -999.2500   -999.2500   -999.2500      1.3677      2.1684      1.3677   -999.2500   -999.2500   -999.2500      5.3513      4.8610     45.1936     39.3268    -49.6250      0.3204      0.3622      0.3622      3.7074   1004.5000      2.8684      0.0533      0.0134      0.0533      0.1066   -999.2500   -999.2500   -999.2500
   1365.0000      9.8750      0.1734      0.2331     10.4927     10.4927     22.7284     22.7729    182.3324     -0.0052      0.6989      5.4845      5.3380   -999.2500   -999.2500   -999.2500      2.0000      0.6979   -999.2500   -999.2500   -999.2500      0.5947      0.6544      0.0057      0.0053   -999.2500   -999.2500   -999.2500      1.3611      2.1637      1.3611   -999.2500   -999.2500   -999.2500      5.6399      4.8713     43.7458     43.9506    -49.5000      0.2915      0.3561      0.3561      4.1083   1053.0000      3.0400      0.0797      0.0200      0.0797      0.1594   -999.2500   -999.2500   -999.2500
   1365.5000      9.8750      0.1669      0.2301     10.5646     10.5646     21.3047     23.5269    177.4680     -0.0067      0.6826      5.6348      5.5246   -999.2500   -999.2500   -999.2500      2.0060      0.5761   -999.2500   -999.2500   -999.2500      0.5997      0.6629      0.0053      0.0059   -999.2500   -999.2500   -999.2500      1.3471      2.1536      1.3471   -999.2500   -999.2500   -999.2500      6.1634      5.0671     41.6871     44.7710    -49.3750      0.2784      0.3472      0.3472      4.0484   1052.7500      3.0495      0.0844      0.0212      0.0844      0.1688   -999.2500   -999.2500   -999.2500
   1366.0000      9.8750      0.1678      0.2239     10.6005     10.6005     21.6161     22.2988    168.3619     -0.0081      0.6742      5.9396      5.8298   -999.2500   -999.2500   -999.2500      2.0000      0.6322   -999.2500   -999.2500   -999.2500      0.6101      0.6663      0.0057      0.0056   -999.2500   -999.2500   -999.2500      1.3383      2.1473      1.3383   -999.2500   -999.2500   -999.2500      6.9182      5.4666     42.0645     43.1245    -49.0000      0.2750      0.3361      0.3361      3.8522   1053.7500      2.9895      0.0750      0.0188      0.0750      0.1500   -999.2500   -999.2500   -999.2500
   1366.5000      9.8750      0.1648      0.2153     10.7083     10.7083     21.1053     21.4017    155.5387     -0.0094      0.6797      6.4293      6.4061   -999.2500   -999.2500   -999.2500      2.0000      0.5996   -999.2500   -999.2500   -999.2500      0.6131      0.6636      0.0058      0.0054   -999.2500   -999.2500   -999.2500      1.3393      2.1481      1.3393   -999.2500   -999.2500   -999.2500      7.9296      5.8756     41.2924     41.8047    -48.9375      0.2688      0.3244      0.3244      3.6659   1036.5000      2.9288      0.0675      0.0170      0.0675      0.1349   -999.2500   -999.2500   -999.2500
   1367.0000      9.8750      0.1544      0.2050     10.6724     10.6724     21.3500     21.4519    141.0821     -0.0120      0.6725      7.0881      7.2178   -999.2500   -999.2500   -999.2500      2.0000      0.7170   -999.2500   -999.2500   -999.2500      0.6166      0.6672      0.0064      0.0057   -999.2500   -999.2500   -999.2500      1.3310      2.1422      1.3310   -999.2500   -999.2500   -999.2500      8.9665      6.4893     41.2530     41.8163    -48.5000      0.2505      0.3073      0.3073      3.5590   1053.2500      2.9233      0.0675      0.0170      0.0675      0.1350   -999.2500   -999.2500   -999.2500
   1367.5000      9.8750      0.1479      0.1962     10.4567     10.4567     19.8641     21.1864    129.2066     -0.0098      0.6757      7.7395      8.3162   -999.2500   -999.2500   -999.2500      2.0000      0.7845   -999.2500   -999.2500   -999.2500      0.6173      0.6656      0.0063      0.0060   -999.2500   -999.2500   -999.2500      1.3310      2.1422      1.3310   -999.2500   -999.2500   -999.2500      9.8544      7.6721     38.9414     41.2793    -48.8750      0.2396      0.2947      0.2947      3.3822   1053.0000      2.8843      0.0645      0.0162      0.0645      0.1289   -999.2500   -999.2500   -999.2500
   1368.0000      9.8750      0.1461      0.1909     10.3849     10.3849     19.3945     20.8430    122.3536     -0.0072      0.6847      8.1730      9.6417   -999.2500   -999.2500   -999.2500      2.0000      0.8111   -999.2500   -999.2500   -999.2500      0.6164      0.6612      0.0066      0.0064   -999.2500   -999.2500   -999.2500      1.3362      2.1458      1.3362   -999.2500   -999.2500   -999.2500     10.2726     10.1280     37.8481     40.4642    -48.6875      0.2371      0.2887      0.2887      3.1325   1035.5000      2.8166      0.0598      0.0150      0.0598      0.1196   -999.2500   -999.2500   -999.2500
   1368.5000      9.8750      0.1510      0.1877     10.3849     10.3849     18.0637     19.6993    118.0876     -0.0075      0.7095      8.4683      9.8996   -999.2500   -999.2500   -999.2500      2.0000      0.6403   -999.2500   -999.2500   -999.2500      0.6130      0.6496      0.0062      0.0065   -999.2500   -999.2500   -999.2500      1.3529      2.1578      1.3529   -999.2500   -999.2500   -999.2500      9.7702     14.1359     35.7519     38.5575    -48.8125      0.2464      0.2889      0.2889      2.7813   1033.7500      2.7071      0.0489      0.0123      0.0489      0.0978   -999.2500   -999.2500   -999.2500
   1369.0000      9.8750      0.1548      0.1851     10.3489     10.3489     17.6414     18.9142    114.8315     -0.0085      0.7334      8.7084      9.0466   -999.2500   -999.2500   -999.2500      2.0000      0.5245   -999.2500   -999.2500   -999.2500      0.6087      0.6390      0.0063      0.0065   -999.2500   -999.2500   -999.2500      1.3690      2.1693      1.3690   -999.2500   -999.2500   -999.2500      8.9010     15.5183     34.7965     37.0915    -48.1250      0.2543      0.2897      0.2897      2.5477   1006.5000      2.6093      0.0405      0.0102      0.0405      0.0810   -999.2500   -999.2500   -999.2500
