~V
VERS. 2.00: Ver 2.00
WRAP.   NO:        
~W
 STRT.FT 570:
 STOP.FT 2019:
 STEP.FT 0.5:
 NULL. -999.250000:
 COMP. UNOCAL:Company
 WELL. McKittrick Front 418:Well
 FLD. Cymric:Field
 LOC. S6 T30S R22E:Location
 STAT. CA:State
 SRVC. :Service Company
 SON. :Service Order #
 DATE. :Log Date
 UWI. 0402989925:Unique Well ID
~C
 DEPT.FT :
 BS.IN :
 BVWE.DEC :
 BVWT.DEC :
 CALI.IN :
 CALS.IN :
 CGR.GAPI :
 CGRS.GAPI :
 CILD.MM/M :
 DROS.G/C3 :
 DWRO. :
 ILD.OHMM :
 ILM.OHMM :
 KWCI.MD :
 KWCL.MD :
 KWCS.MD :
 MCRV. :
 NPHS.DEC :
 OWCI.PCT :
 OWCL.PCT :
 OWCS.PCT :
 PHIE.DEC :
 PHIT.DEC :
 POTA. :
 POTS. :
 PWCI.PCT :
 PWCL.PCT :
 PWCS.PCT :
 RHOB.G/C3 :
 RMAT. :
 ROBS.G/C3 :
 RWCI.G/C3 :
 RWCL.G/C3 :
 RWCS.G/C3 :
 SFLA.OHMM :
 SFLU.OHMM :
 SGR.GAPI :
 SGRS.GAPI :
 SP.MV :
 SWE.DEC :
 SWT.DEC :
 SWTU.DEC :
 THRS.PPM :
 TIME.MS :
 URNS.PPM :
 VCL.DEC :
 VCLD.DEC :
 VCLW.DEC :
 VSHL.DEC :
 WWCI.PCT :
 WWCL.PCT :
 WWCS.PCT :
~P
~A
# ...
   1980.5000      9.8750      0.3582      0.4617      9.4145      9.4864   -999.2500   -999.2500   1117.2307     -0.0167      0.7202      0.8951      0.9009   -999.2500   -999.2500   -999.2500      2.1717   -999.2500   -999.2500   -999.2500   -999.2500      0.4085      0.5120   -999.2500   -999.2500   -999.2500   -999.2500   -999.2500      1.6435      2.2190      1.6440   -999.2500   -999.2500   -999.2500      0.9729      0.8047   -999.2500   -999.2500    -33.3750      0.8768      0.9017      0.9017   -999.2500    935.8750   -999.2500      0.2071      0.1035      0.2071      0.4142   -999.2500   -999.2500   -999.2500
   1981.0000      9.8750      0.3655      0.4691      9.4864      9.4145   -999.2500   -999.2500   1155.0403     -0.0178      0.7173      0.8658      0.9174   -999.2500   -999.2500   -999.2500      2.1717   -999.2500   -999.2500   -999.2500   -999.2500      0.4095      0.5130   -999.2500   -999.2500   -999.2500   -999.2500   -999.2500      1.6387      2.2188      1.6435   -999.2500   -999.2500   -999.2500      1.0481      0.9492   -999.2500   -999.2500    -32.8125      0.8927      0.9144      0.9144   -999.2500    912.1250   -999.2500      0.2071      0.1035      0.2071      0.4142   -999.2500   -999.2500   -999.2500
   1981.5000      9.8750      0.3653      0.4688      9.4504      9.4864   -999.2500   -999.2500   1153.7925     -0.0210      0.7079      0.8667      0.9150   -999.2500   -999.2500   -999.2500      2.1717   -999.2500   -999.2500   -999.2500   -999.2500      0.4126      0.5162   -999.2500   -999.2500   -999.2500   -999.2500   -999.2500      1.6358      2.2174      1.6387   -999.2500   -999.2500   -999.2500      1.0690      1.1561   -999.2500   -999.2500    -33.5625      0.8852      0.9082      0.9082   -999.2500    923.2500   -999.2500      0.2071      0.1035      0.2071      0.4142   -999.2500   -999.2500   -999.2500
   1982.0000      9.8750      0.3579      0.4614      9.4504      9.4504   -999.2500   -999.2500   1116.1768     -0.0243      0.7041      0.8959      0.9343   -999.2500   -999.2500   -999.2500      2.1717   -999.2500   -999.2500   -999.2500   -999.2500      0.4139      0.5175   -999.2500   -999.2500   -999.2500   -999.2500   -999.2500      1.6395      2.2166      1.6358   -999.2500   -999.2500   -999.2500      1.1272      1.0901   -999.2500   -999.2500    -32.8125      0.8646      0.8917      0.8917   -999.2500    991.2500   -999.2500      0.2071      0.1035      0.2071      0.4142   -999.2500   -999.2500   -999.2500
   1982.5000      9.8750      0.3461      0.4497      9.4864      9.4504   -999.2500   -999.2500   1057.5076     -0.0223      0.7140      0.9456      0.9733   -999.2500   -999.2500   -999.2500      2.1717   -999.2500   -999.2500   -999.2500   -999.2500      0.4105      0.5140   -999.2500   -999.2500   -999.2500   -999.2500   -999.2500      1.6423      2.2177      1.6395   -999.2500   -999.2500   -999.2500      1.0767      1.0833   -999.2500   -999.2500    -32.8750      0.8432      0.8748      0.8748   -999.2500   1053.3750   -999.2500      0.2071      0.1035      0.2071      0.4142   -999.2500   -999.2500   -999.2500
   1983.0000      9.8750      0.3341      0.4377      9.4864      9.4864   -999.2500   -999.2500    999.4983     -0.0214      0.7225      1.0005      1.0106   -999.2500   -999.2500   -999.2500      2.1717   -999.2500   -999.2500   -999.2500   -999.2500      0.4075      0.5111   -999.2500   -999.2500   -999.2500   -999.2500   -999.2500      1.6405      2.2185      1.6423   -999.2500   -999.2500   -999.2500      1.0724      1.1059   -999.2500   -999.2500    -33.6250      0.8199      0.8564      0.8564   -999.2500    930.1250   -999.2500      0.2071      0.1035      0.2071      0.4142   -999.2500   -999.2500   -999.2500
   1983.5000      9.8750      0.3296      0.4332      9.4145      9.4864   -999.2500   -999.2500    978.2040     -0.0211      0.7200      1.0223      1.0397   -999.2500   -999.2500   -999.2500      2.1717   -999.2500   -999.2500   -999.2500   -999.2500      0.4084      0.5119   -999.2500   -999.2500   -999.2500   -999.2500   -999.2500      1.6319      2.2180      1.6405   -999.2500   -999.2500   -999.2500      1.0122      1.2161   -999.2500   -999.2500    -33.3125      0.8072      0.8462      0.8462   -999.2500    852.5000   -999.2500      0.2071      0.1035      0.2071      0.4142   -999.2500   -999.2500   -999.2500
   1984.0000      9.8750      0.3302      0.4338      9.4145      9.4145   -999.2500   -999.2500    981.0620     -0.0231      0.7032      1.0193      1.0389   -999.2500   -999.2500   -999.2500      2.1717   -999.2500   -999.2500   -999.2500   -999.2500      0.4141      0.5177   -999.2500   -999.2500   -999.2500   -999.2500   -999.2500      1.6343      2.2155      1.6319   -999.2500   -999.2500   -999.2500      0.9874      1.1377   -999.2500   -999.2500    -32.8750      0.7974      0.8379      0.8379   -999.2500    866.6250   -999.2500      0.2071      0.1035      0.2071      0.4142   -999.2500   -999.2500   -999.2500
   1984.5000      9.8750      0.3313      0.4348      9.4504      9.4145   -999.2500   -999.2500    986.2859     -0.0209      0.7073      1.0139      1.0135   -999.2500   -999.2500   -999.2500      2.1717   -999.2500   -999.2500   -999.2500   -999.2500      0.4126      0.5162   -999.2500   -999.2500   -999.2500   -999.2500   -999.2500      1.6279      2.2162      1.6343   -999.2500   -999.2500   -999.2500      0.9026      1.0856   -999.2500   -999.2500    -33.1875      0.8028      0.8424      0.8424   -999.2500    997.2500   -999.2500      0.2071      0.1035      0.2071      0.4142   -999.2500   -999.2500   -999.2500
   1985.0000      9.8750      0.3352      0.4388      9.4145      9.4504   -999.2500   -999.2500   1005.2644     -0.0118      0.6941      0.9948      0.9845   -999.2500   -999.2500   -999.2500      2.1717   -999.2500   -999.2500   -999.2500   -999.2500      0.4172      0.5208   -999.2500   -999.2500   -999.2500   -999.2500   -999.2500      1.6205      2.2143      1.6279   -999.2500   -999.2500   -999.2500      0.8775      0.8921   -999.2500   -999.2500    -33.5625      0.8035      0.8425      0.8425   -999.2500   1034.5000   -999.2500      0.2071      0.1035      0.2071      0.4142   -999.2500   -999.2500   -999.2500
   1985.5000      9.8750      0.3466      0.4501      9.4145      9.4145   -999.2500   -999.2500   1060.5369     -0.0043      0.6775      0.9429      0.9579   -999.2500   -999.2500   -999.2500      2.1717   -999.2500   -999.2500   -999.2500   -999.2500      0.4232      0.5268   -999.2500   -999.2500   -999.2500   -999.2500   -999.2500      1.6099      2.2121      1.6205   -999.2500   -999.2500   -999.2500      0.8137      0.8952   -999.2500   -999.2500    -33.6250      0.8188      0.8544      0.8544   -999.2500   1063.1250   -999.2500      0.2071      0.1035      0.2071      0.4142   -999.2500   -999.2500   -999.2500
   1986.0000      9.8750      0.3596      0.4631      9.4145      9.4145   -999.2500   -999.2500   1126.0706      0.0029      0.6556      0.8880      0.9123   -999.2500   -999.2500   -999.2500      2.1717   -999.2500   -999.2500   -999.2500   -999.2500      0.4315      0.5350   -999.2500   -999.2500   -999.2500   -999.2500   -999.2500      1.6196      2.2091      1.6099   -999.2500   -999.2500   -999.2500      0.7737      0.8975   -999.2500   -999.2500    -32.6875      0.8334      0.8656      0.8656   -999.2500   1064.2500   -999.2500      0.2071      0.1035      0.2071      0.4142   -999.2500   -999.2500   -999.2500
   1986.5000      9.8750      0.0000      0.9000      9.4145      9.4145   -999.2500   -999.2500   1196.6641      0.0125      0.2179      0.8357      0.8515   -999.2500   -999.2500   -999.2500      2.1717   -999.2500   -999.2500   -999.2500   -999.2500      0.0000      0.9000   -999.2500   -999.2500   -999.2500   -999.2500   -999.2500   -999.2500      2.2091   -999.2500   -999.2500   -999.2500   -999.2500      0.7244      0.9242   -999.2500   -999.2500    -32.1875      1.0000      1.0000      0.5295   -999.2500   1080.6250   -999.2500      0.2071      0.1035 1000000015047466220000000000000.0000      0.4142   -999.2500   -999.2500   -999.2500
