~V
VERS. 2.00: Ver 2.00
WRAP.   NO:        
~W
 STRT.FT 570:
 STOP.FT 2019:
 STEP.FT 0.5:
 NULL. -999.250000:
 COMP. UNOCAL:Company
 WELL. McKittrick Front 418:Well
 FLD. Cymric:Field
 LOC. S6 T30S R22E:Location
 STAT. CA:State
 SRVC. :Service Company
 SON. :Service Order #
 DATE. :Log Date
 UWI. 0402989925:Unique Well ID
~C
 DEPT.FT :
 BS.IN :
 BVWE.DEC :
 BVWT.DEC :
 CALI.IN :
 CALS.IN :
 CGR.GAPI :
 CGRS.GAPI :
 CILD.MM/M :
 DROS.G/C3 :
 DWRO. :
 ILD.OHMM :
 ILM.OHMM :
 KWCI.MD :
 KWCL.MD :
 KWCS.MD :
 MCRV. :
 NPHS.DEC :
 OWCI.PCT :
 OWCL.PCT :
 OWCS.PCT :
 PHIE.DEC :
 PHIT.DEC :
 POTA. :
 POTS. :
 PWCI.PCT :
 PWCL.PCT :
 PWCS.PCT :
 RHOB.G/C3 :
 RMAT. :
 ROBS.G/C3 :
 RWCI.G/C3 :
 RWCL.G/C3 :
 RWCS.G/C3 :
 SFLA.OHMM :
 SFLU.OHMM :
 SGR.GAPI :
 SGRS.GAPI :
 SP.MV :
 SWE.DEC :
 SWT.DEC :
 SWTU.DEC :
 THRS.PPM :
 TIME.MS :
 URNS.PPM :
 VCL.DEC :
 VCLD.DEC :
 VCLW.DEC :
 VSHL.DEC :
 WWCI.PCT :
 WWCL.PCT :
 WWCS.PCT :
~P
~A
# ...
   1889.5000      9.8750      0.2204      0.3651      9.8098      9.8098     26.1544     26.1544    851.8077     -0.0205      1.4177      1.1740      1.1544   -999.2500   -999.2500   -999.2500      2.1530      0.4308   -999.2500   -999.2500   -999.2500      0.2204      0.3651      0.0077      0.0077   -999.2500   -999.2500   -999.2500      1.7310      2.2443      1.7310   -999.2500   -999.2500   -999.2500      1.1527      1.4712     63.8146     63.8146    -33.5000      1.0000      1.0000      1.0973      4.0636    986.6250      5.4060      0.1932      0.0485      0.1932      0.3865   -999.2500   -999.2500   -999.2500
   1890.0000      9.8750      0.2461      0.3594      9.7739      9.7739     22.8205     22.8205    854.1158     -0.0198      1.4225      1.1708      1.1524   -999.2500   -999.2500   -999.2500      2.0964      0.4220   -999.2500   -999.2500   -999.2500      0.2461      0.3594      0.0072      0.0072   -999.2500   -999.2500   -999.2500      1.7128      2.2390      1.7128   -999.2500   -999.2500   -999.2500      1.0943      1.2814     56.4783     56.4783    -33.5000      1.0000      1.0000      1.1025      3.3267   1020.6250      4.8315      0.1513      0.0380      0.1513      0.3026   -999.2500   -999.2500   -999.2500
   1890.5000      9.8750      0.2880      0.3965      9.7379      9.7379     22.4383     22.4383    858.0785     -0.0229      0.9600      1.1654      1.1628   -999.2500   -999.2500   -999.2500      2.0877      0.4945   -999.2500   -999.2500   -999.2500      0.3283      0.4368      0.0072      0.0072   -999.2500   -999.2500   -999.2500      1.6758      2.2282      1.6758   -999.2500   -999.2500   -999.2500      1.0236      1.1175     55.3545     55.3545    -35.5000      0.8770      0.9076      0.9076      3.2426   1070.0000      4.7250      0.1449      0.0364      0.1449      0.2898   -999.2500   -999.2500   -999.2500
   1891.0000      9.8750      0.2908      0.4041      9.7379      9.7379     23.6126     23.6126    888.2672     -0.0208      0.9832      1.1258      1.1271   -999.2500   -999.2500   -999.2500      2.0964      0.4903   -999.2500   -999.2500   -999.2500      0.3190      0.4324      0.0079      0.0079   -999.2500   -999.2500   -999.2500      1.6654      2.2252      1.6654   -999.2500   -999.2500   -999.2500      0.9280      1.1783     56.4885     56.4885    -36.7500      0.9114      0.9347      0.9347      3.2654    998.2500      4.7193      0.1514      0.0380      0.1514      0.3027   -999.2500   -999.2500   -999.2500
   1891.5000      9.8750      0.2835      0.4117      9.7739      9.7739     26.2407     26.2407    947.8534     -0.0204      1.0965      1.0550      1.0296   -999.2500   -999.2500   -999.2500      2.1232      0.4724   -999.2500   -999.2500   -999.2500      0.2835      0.4117      0.0091      0.0091   -999.2500   -999.2500   -999.2500      1.6624      2.2243      1.6624   -999.2500   -999.2500   -999.2500      0.8769      1.1890     59.9548     59.9548    -37.6250      1.0000      1.0000      1.0199      3.5125    998.1250      4.8396      0.1712      0.0430      0.1712      0.3423   -999.2500   -999.2500   -999.2500
   1892.0000      9.8750      0.2860      0.4139      9.8098      9.8098     26.6345     26.6345   1004.1854     -0.0236      1.0846      0.9958      0.9398   -999.2500   -999.2500   -999.2500      2.1227      0.4719   -999.2500   -999.2500   -999.2500      0.2860      0.4139      0.0097      0.0097   -999.2500   -999.2500   -999.2500      1.6415      2.2182      1.6415   -999.2500   -999.2500   -999.2500      0.8249      1.0138     59.8906     59.8906    -37.3750      1.0000      1.0000      1.0432      3.3571    995.7500      4.7738      0.1708      0.0429      0.1708      0.3416   -999.2500   -999.2500   -999.2500
   1892.5000      9.8750      0.2884      0.4479      9.8458      9.8458     31.6588     31.6588   1057.9216     -0.0253      0.8527      0.9452      0.8842   -999.2500   -999.2500   -999.2500      2.1796      0.5252   -999.2500   -999.2500   -999.2500      0.3113      0.4707      0.0116      0.0116   -999.2500   -999.2500   -999.2500      1.6118      2.2096      1.6118   -999.2500   -999.2500   -999.2500      0.8145      0.7665     66.0337     66.0337    -38.3125      0.9265      0.9514      0.9514      3.9749   1039.0000      4.9344      0.2129      0.0535      0.2129      0.4258   -999.2500   -999.2500   -999.2500
   1893.0000      9.8750      0.3125      0.4587      9.7739      9.7739     30.2208     30.2208   1120.6997     -0.0256      0.6404      0.8923      0.8568   -999.2500   -999.2500   -999.2500      2.1557      0.5812   -999.2500   -999.2500   -999.2500      0.3927      0.5389      0.0109      0.0109   -999.2500   -999.2500   -999.2500      1.5875      2.2026      1.5875   -999.2500   -999.2500   -999.2500      0.7781      0.7002     64.1586     64.1586    -36.9375      0.7958      0.8512      0.8512      3.8333    989.2500      4.8717      0.1952      0.0490      0.1952      0.3904   -999.2500   -999.2500   -999.2500
   1893.5000      9.8750      0.2850      0.4810      9.7739      9.7739     34.1911     34.1911   1217.7854     -0.0239      0.8339      0.8212      0.8385   -999.2500   -999.2500   -999.2500      2.2455      0.5382   -999.2500   -999.2500   -999.2500      0.2850      0.4810      0.0121      0.0121   -999.2500   -999.2500   -999.2500      1.5945      2.2046      1.5945   -999.2500   -999.2500   -999.2500      0.7595      0.7348     69.9365     69.9365    -37.3125      1.0000      1.0000      1.0076      4.4733    994.6250      5.1312      0.2617      0.0657      0.2617      0.5234   -999.2500   -999.2500   -999.2500
   1894.0000      9.8750      0.2129      0.4678      9.7739      9.7739     37.9353     37.9353   1326.4221     -0.0230      0.9202      0.7539      0.8028   -999.2500   -999.2500   -999.2500      2.3519      0.5261   -999.2500   -999.2500   -999.2500      0.2129      0.4678      0.0126      0.0126   -999.2500   -999.2500   -999.2500      1.6097      2.2090      1.6097   -999.2500   -999.2500   -999.2500      0.7264      0.8819     76.2295     76.2295    -36.3125      1.0000      1.0000      1.0950      5.3030   1008.0000      5.4970      0.3404      0.0855      0.3404      0.6807   -999.2500   -999.2500   -999.2500
   1894.5000      9.8750      0.2012      0.4171      9.7739      9.7739     35.1537     35.1537   1422.8433     -0.0213      1.1430      0.7028      0.7576   -999.2500   -999.2500   -999.2500      2.2814      0.4717   -999.2500   -999.2500   -999.2500      0.2012      0.4171      0.0118      0.0118   -999.2500   -999.2500   -999.2500      1.6132      2.2100      1.6132   -999.2500   -999.2500   -999.2500      0.6874      0.8876     72.0611     72.0611    -36.4375      1.0000      1.0000      1.2565      4.8574    986.8750      5.2980      0.2883      0.0724      0.2883      0.5765   -999.2500   -999.2500   -999.2500
   1895.0000      9.8750      0.2766      0.4213      9.7379      9.7379     29.5490     29.5490   1490.0354     -0.0227      1.0587      0.6711      0.7180   -999.2500   -999.2500   -999.2500      2.1531      0.4731   -999.2500   -999.2500   -999.2500      0.2766      0.4213      0.0101      0.0101   -999.2500   -999.2500   -999.2500      1.5885      2.2028      1.5885   -999.2500   -999.2500   -999.2500      0.6583      0.8134     63.8285     63.8285    -36.0000      1.0000      1.0000      1.2490      4.0089   1003.5000      4.9207      0.1933      0.0486      0.1933      0.3866   -999.2500   -999.2500   -999.2500
   1895.5000      9.8750      0.2746      0.4204      9.7739      9.7739     29.9056     29.9056   1524.7917     -0.0228      1.0643      0.6558      0.6916   -999.2500   -999.2500   -999.2500      2.1549      0.4697   -999.2500   -999.2500   -999.2500      0.2746      0.4204      0.0104      0.0104   -999.2500   -999.2500   -999.2500      1.5699      2.1974      1.5699   -999.2500   -999.2500   -999.2500      0.6434      0.6666     64.0623     64.0623    -36.6875      1.0000      1.0000      1.2662      3.9737   1003.0000      4.9031      0.1946      0.0489      0.1946      0.3893   -999.2500   -999.2500   -999.2500
