~V
VERS. 2.00: Ver 2.00
WRAP.   NO:        
~W
 STRT.FT 570:
 STOP.FT 2019:
 STEP.FT 0.5:
 NULL. -999.250000:
 COMP. UNOCAL:Company
 WELL. McKittrick Front 418:Well
 FLD. Cymric:Field
 LOC. S6 T30S R22E:Location
 STAT. CA:State
 SRVC. :Service Company
 SON. :Service Order #
 DATE. :Log Date
 UWI. 0402989925:Unique Well ID
~C
 DEPT.FT :
 BS.IN :
 BVWE.DEC :
 BVWT.DEC :
 CALI.IN :
 CALS.IN :
 CGR.GAPI :
 CGRS.GAPI :
 CILD.MM/M :
 DROS.G/C3 :
 DWRO. :
 ILD.OHMM :
 ILM.OHMM :
 KWCI.MD :
 KWCL.MD :
 KWCS.MD :
 MCRV. :
 NPHS.DEC :
 OWCI.PCT :
 OWCL.PCT :
 OWCS.PCT :
 PHIE.DEC :
 PHIT.DEC :
 POTA. :
 POTS. :
 PWCI.PCT :
 PWCL.PCT :
 PWCS.PCT :
 RHOB.G/C3 :
 RMAT. :
 ROBS.G/C3 :
 RWCI.G/C3 :
 RWCL.G/C3 :
 RWCS.G/C3 :
 SFLA.OHMM :
 SFLU.OHMM :
 SGR.GAPI :
 SGRS.GAPI :
 SP.MV :
 SWE.DEC :
 SWT.DEC :
 SWTU.DEC :
 THRS.PPM :
 TIME.MS :
 URNS.PPM :
 VCL.DEC :
 VCLD.DEC :
 VCLW.DEC :
 VSHL.DEC :
 WWCI.PCT :
 WWCL.PCT :
 WWCS.PCT :
~P
~A
# ...
   1005.5000      9.8750      0.3395      0.3575     10.6364     10.4567     24.9587     25.1066    348.4934     -0.0103      2.9682      2.8695      3.4771   -999.2500   -999.2500   -999.2500      2.2000      0.4282   -999.2500   -999.2500   -999.2500      0.3395      0.3575      0.0085      0.0088   -999.2500   -999.2500   -999.2500      1.7970      2.5713      2.0434   -999.2500   -999.2500   -999.2500      4.0545      4.6785     34.5307     34.7062    -50.6250      1.0000      1.0000      1.0159      3.2955   1017.2500      1.3780      0.0269      0.0089      0.0269      0.0538   -999.2500   -999.2500   -999.2500
   1006.0000      9.8750      0.1961      0.1914     10.4567     10.3130     25.1108     21.6088    333.5555      0.0086     12.4561      2.9980      3.9724   -999.2500   -999.2500   -999.2500      2.2000      0.2341   -999.2500   -999.2500   -999.2500      0.1961      0.1914      0.0088      0.0082   -999.2500   -999.2500   -999.2500      2.0434      2.6538      2.3127   -999.2500   -999.2500   -999.2500      4.0158     19.2498     34.7112     28.7657    -49.6875      1.0000      1.0000      1.9023      2.5897   1036.7500      1.0274     -0.0071     -0.0023     -0.0071     -0.0141   -999.2500   -999.2500   -999.2500
   1006.5000      9.8750      0.1665      0.1630     10.3130     10.3130     21.5525     21.8048    322.9539      0.0206     17.6842      3.0964      3.8195    522.0000    522.0000    522.0000      2.2000      0.2177     67.7000     67.7000     67.7000      0.1665      0.1630      0.0082      0.0081     29.6000     29.6000     29.6000      2.3127      2.6779      2.3928      2.7000      2.7000      2.7000      3.1004     29.5574     28.6702     29.0761    -49.9375      1.0000      1.0000      2.1982      2.6862   1017.0000      1.0438     -0.0053     -0.0017     -0.0053     -0.0106     30.1000     30.1000     30.1000
   1007.0000      9.8750      0.2747      0.2798     10.3130     10.4208     21.8058     22.8755    315.9744      0.0023      5.2163      3.1648      3.1913   -999.2500    436.7833    436.7833      2.2000      0.3601   -999.2500     57.2667     57.2667      0.2747      0.2798      0.0081      0.0080   -999.2500     33.6667     33.6667      2.3928      2.6193      2.1979   -999.2500      2.6567      2.6567      2.3385     10.6254     29.0777     31.3386    -49.1875      1.0000      1.0000      1.2567      3.0102   1034.7500      1.2149      0.0076      0.0025      0.0076      0.0153   -999.2500     40.5667     40.5667
   1007.5000      9.8750      0.3068      0.3441     10.4208     10.5286     22.8966     27.5937    323.7908     -0.0098      1.5005      3.0884      2.7113   -999.2500    351.5667    351.5667      2.2000      0.5863   -999.2500     46.8333     46.8333      0.4455      0.4829      0.0080      0.0085   -999.2500     37.7333     37.7333      2.1979      2.5516      1.9801   -999.2500      2.6133      2.6133      1.9458      3.4487     31.3831     39.7721    -49.7500      0.6886      0.7127      0.7127      4.1249   1034.7500      1.7482      0.0558      0.0185      0.0558      0.1117   -999.2500     51.0333     51.0333
   1008.0000      9.8750      0.3092      0.3581     10.5286     10.7443     27.7821     29.6189    360.6450     -0.0096      1.1170      2.7728      2.3689   -999.2500    266.3500    266.3500      2.2000      0.6129   -999.2500     36.4000     36.4000      0.5011      0.5500      0.0085      0.0091   -999.2500     41.8000     41.8000      1.9801      2.5072      1.8375   -999.2500      2.5700      2.5700      1.7730      1.9042     40.1085     42.8068    -49.1875      0.6170      0.6510      0.6510      4.4478   1052.5000      1.8931      0.0732      0.0243      0.0732      0.1464   -999.2500     61.5000     61.5000
   1008.5000      9.8750      0.3381      0.3880     10.7443     10.7802     29.7316     29.8522    427.9173     -0.0105      1.0983      2.3369      2.0543   -999.2500    181.1333    181.1333      2.2000      0.5952   -999.2500     25.9667     25.9667      0.5041      0.5540      0.0091      0.0090   -999.2500     45.8667     45.8667      1.8375      2.4843      1.7637   -999.2500      2.5267      2.5267      1.6605      1.6302     42.9724     43.0752    -49.3750      0.6707      0.7004      0.7004      4.5267   1024.2500      1.8981      0.0747      0.0248      0.0747      0.1494   -999.2500     71.9667     71.9667
   1009.0000      9.8750      0.3716      0.4201     10.7802     10.8880     29.8623     29.8117    504.6952     -0.0140      0.9223      1.9814      1.8094   -999.2500     95.9166     95.9166      2.2000      0.6494   -999.2500     15.5333     15.5333      0.5532      0.6017      0.0090      0.0090   -999.2500     49.9333     49.9333      1.7637      2.4735      1.7337   -999.2500      2.4833      2.4833      1.6672      1.5349     43.0838     42.7006    -49.1250      0.6717      0.6981      0.6981      4.5341   1012.5000      1.8502      0.0726      0.0241      0.0726      0.1451   -999.2500     82.4333     82.4333
   1009.5000      9.8750      0.4011      0.4458     10.8880     10.9599     29.8063     29.5498    569.1467     -0.0132      0.9768      1.7570      1.6493     10.7000     10.7000     10.7000      2.2000      0.6312      5.1000      5.1000      5.1000      0.5422      0.5870      0.0090      0.0089     54.0000     54.0000     54.0000      1.7337      2.4666      1.7166      2.4400      2.4400      2.4400      1.7114      1.4799     42.6597     41.7430    -48.7500      0.7397      0.7595      0.7595      4.4888   1018.2500      1.7503      0.0671      0.0223      0.0671      0.1342     92.9000     92.9000     92.9000
   1010.0000      9.8750      0.4250      0.4653     10.9599     10.9958     29.5162     28.9883    618.4808     -0.0143      1.0414      1.6169      1.5882   -999.2500     11.2000     11.2000      2.2000      0.6128   -999.2500      7.3500      7.3500      0.5310      0.5713      0.0089      0.0085   -999.2500     53.8833     53.8833      1.7166      2.4627      1.7066   -999.2500      2.4583      2.4583      1.7855      1.4590     41.6232     40.5684    -49.8125      0.8005      0.8146      0.8146      4.4884   1017.5000      1.6623      0.0604      0.0201      0.0604      0.1208   -999.2500     90.5167     90.5167
   1010.5000      9.8750      0.4353      0.4751     10.9958     10.9599     28.9060     29.2439    646.3774     -0.0157      1.1700      1.5471      1.5926   -999.2500     11.7000     11.7000      2.2000      0.5811   -999.2500      9.6000      9.6000      0.5014      0.5412      0.0085      0.0085   -999.2500     53.7667     53.7667      1.7066      2.4649      1.7123   -999.2500      2.4767      2.4767      1.7667      1.6964     40.4039     40.4347    -49.3750      0.8682      0.8779      0.8779      4.5888   1019.2500      1.6064      0.0596      0.0198      0.0596      0.1193   -999.2500     88.1333     88.1333
   1011.0000      9.8750      0.4427      0.4806     10.9599     10.9958     29.3055     29.3474    660.5858     -0.0147      1.0871      1.5138      1.5907   -999.2500     12.2000     12.2000      2.2000      0.6061   -999.2500     11.8500     11.8500      0.5227      0.5607      0.0085      0.0084   -999.2500     53.6500     53.6500      1.7123      2.4662      1.7154   -999.2500      2.4950      2.4950      1.6907      2.1125     40.4403     39.9544    -49.6250      0.8468      0.8572      0.8572      4.6610   1018.2500      1.5226      0.0569      0.0189      0.0569      0.1138   -999.2500     85.7500     85.7500
   1011.5000      9.8750      0.4456      0.4839     10.9958     11.0677     29.3562     29.9862    670.6788     -0.0139      1.1615      1.4910      1.5788   -999.2500     12.7000     12.7000      2.2000      0.5903   -999.2500     14.1000     14.1000      0.5053      0.5436      0.0083      0.0086   -999.2500     53.5333     53.5333      1.7154      2.4704      1.7260   -999.2500      2.5133      2.5133      1.5906      2.2988     39.8525     40.0273    -49.6250      0.8819      0.8902      0.8902      4.7199   1036.0000      1.4414      0.0573      0.0191      0.0573      0.1146   -999.2500     83.3667     83.3667
