~V
VERS. 2.00: Ver 2.00
WRAP.   NO:        
~W
 STRT.FT 30:
 STOP.FT 4020:
 STEP.FT 0.5:
 NULL. -999.250000:
 COMP. Western Gulf (Chevron):Company
 WELL. KCL-SAN EMIDIO #3:Well
 FLD. :Field
 LOC. S27 T11N R22W:Location
 STAT. CA:State
 SRVC. :Service Company
 SON. :Service Order #
 DATE. :Log Date
 UWI. :Unique Well ID
~C
 DEPT.FT :
 LAT.OHMM :
 LN.OHMM :
 RD.OHMM :
 RM.OHMM :
 RS.OHMM :
 SBL.MV :
 SN.OHMM :
 SP.MV :
 SPN. :
~P
~A
# ...
   3447.0000      3.5760      5.9380      3.5760      5.9380     10.0120    -48.4019     10.0120    -59.2840   -138.2910
   3447.5000      3.5430      6.0300      3.5430      6.0300      9.6340    -48.7314      9.6340    -59.6100   -139.2327
   3448.0000      3.4350      6.1220      3.4350      6.1220      8.8020    -49.0610      8.8020    -59.9360   -140.1743
   3448.5000      3.4190      6.3100      3.4190      6.3100      8.2530    -48.3566      8.2530    -59.2280   -138.1617
   3449.0000      3.4220      6.3520      3.4220      6.3520      7.9900    -47.5201      7.9900    -58.3880   -135.7719
   3449.5000      3.4540      6.4010      3.4540      6.4010      8.0020    -46.1657      8.0020    -57.0300   -131.9020
   3450.0000      3.4960      6.4520      3.4960      6.4520      8.0830    -44.6163      8.0830    -55.4770   -127.4751
   3450.5000      3.5340      6.4780      3.5340      6.4780      8.2520    -42.8739      8.2520    -53.7310   -122.4967
   3451.0000      3.5760      6.5040      3.5760      6.5040      8.5500    -41.7784      8.5500    -52.6320   -119.3669
   3451.5000      3.6110      6.5520      3.6110      6.5520      8.7280    -40.7650      8.7280    -51.6150   -116.4715
   3452.0000      3.6470      6.6000      3.6470      6.6000      8.7380    -39.7506      8.7380    -50.5970   -113.5731
   3452.5000      3.7010      6.6470      3.7010      6.6470      8.7110    -37.2331      8.7110    -48.0760   -106.3804
   3453.0000      3.7160      6.6940      3.7160      6.6940      8.6850    -36.4777      8.6850    -47.3170   -104.2220
   3453.5000      3.7300      6.7740      3.7300      6.7740      8.5610    -35.7223      8.5610    -46.5580   -102.0637
   3454.0000      3.7360      6.7960      3.7360      6.7960      8.4990    -34.3379      8.4990    -45.1700    -98.1082
   3454.5000      3.7290      6.7340      3.7290      6.7340      8.1830    -33.8924      8.1830    -44.7210    -96.8355
   3455.0000      3.7220      6.6100      3.7220      6.6100      8.0430    -34.0310      8.0430    -44.8560    -97.2314
   3455.5000      3.6850      6.5160      3.6850      6.5160      8.1080    -34.8496      8.1080    -45.6710    -99.5702
   3456.0000      3.6470      6.4210      3.6470      6.4210      8.1590    -36.9641      8.1590    -47.7820   -105.6118
   3456.5000      3.6200      6.3560      3.6200      6.3560      8.2600    -41.5767      8.2600    -52.3910   -118.7906
   3457.0000      3.6200      6.2910      3.6200      6.2910      8.3760    -42.9153      8.3760    -53.7260   -122.6151
   3457.5000      3.6230      6.1210      3.6230      6.1210      8.4470    -43.6359      8.4470    -54.4430   -124.6739
   3458.0000      3.6770      6.1170      3.6770      6.1170      8.5180    -44.5834      8.5180    -55.3870   -127.3812
   3458.5000      3.7090      6.1950      3.7090      6.1950      8.7350    -45.6620      8.7350    -56.4620   -130.4629
   3459.0000      3.7420      6.2640      3.7420      6.2640      8.8810    -46.9356      8.8810    -57.7320   -134.1016
   3459.5000      3.7800      6.3340      3.7800      6.3340      9.0720    -48.6611      9.0720    -59.4540   -139.0318
   3460.0000      3.7890      6.4210      3.7890      6.4210      9.2280    -50.5497      9.2280    -61.3390   -144.4278
   3460.5000      3.7990      6.4560      3.7990      6.4560      9.4230    -53.1843      9.4230    -63.9700   -151.9551
   3461.0000      3.7980      6.4920      3.7980      6.4920      9.5390    -54.8459      9.5390    -65.6280   -156.7025
   3461.5000      3.7590      6.5370      3.7590      6.5370      9.5480    -58.2584      9.5480    -69.0370   -166.4527
   3462.0000      3.7110      6.5820      3.7110      6.5820      9.5420    -60.6980      9.5420    -71.4730   -173.4229
   3462.5000      3.6640      6.6270      3.6640      6.6270      9.3010    -63.7206      9.3010    -74.4920   -182.0588
   3463.0000      3.5300      6.6480      3.5300      6.6480      9.0560    -67.3281      9.0560    -78.0960   -192.3661
   3463.5000      3.3970      6.6680      3.3970      6.6680      8.8510    -71.4207      8.8510    -82.1850   -204.0592
   3464.0000      3.3330      6.7100      3.3330      6.7100      8.4550    -75.5793      8.4550    -86.3400   -215.9408
   3464.5000      3.2690      6.6320      3.2690      6.6320      8.0940    -77.3069      8.0940    -88.0640   -220.8768
   3465.0000      3.1470      6.4170      3.1470      6.4170      8.0670    -77.8814      8.0670    -88.6350   -222.5184
   3465.5000      3.0250      6.1080      3.0250      6.1080      8.2520    -78.4570      8.2520    -89.2070   -224.1629
   3466.0000      2.9160      5.9380      2.9160      5.9380      8.4170    -78.0106      8.4170    -88.7570   -222.8874
   3466.5000      2.8060      5.6880      2.8060      5.6880      8.4820    -77.0152      8.4820    -87.7580   -220.0433
   3467.0000      2.6970      5.5610      2.6970      5.5610      8.4330    -75.6937      8.4330    -86.4330   -216.2678
   3467.5000      2.5870      5.3200      2.5870      5.3200      8.3900    -74.6643      8.3900    -85.4000   -213.3265
   3468.0000      2.5400      5.1500      2.5400      5.1500      8.2950    -73.4079      8.2950    -84.1400   -209.7368
   3468.5000      2.4930      4.9970      2.4930      4.9970      7.9770    -72.0874      7.9770    -82.8160   -205.9641
   3469.0000      2.4070      4.7430      2.4070      4.7430      7.8330    -71.4790      7.8330    -82.2040   -204.2257
   3469.5000      2.3860      4.5870      2.3860      4.5870      7.6480    -70.8066      7.6480    -81.5280   -202.3045
   3470.0000      2.3650      4.4630      2.3650      4.4630      7.4030    -71.6402      7.4030    -82.3580   -204.6861
   3470.5000      2.3640      4.3400      2.3640      4.3400      7.1790    -72.4737      7.1790    -83.1880   -207.0678
   3471.0000      2.3900      4.0920      2.3900      4.0920      6.3730    -76.3093      6.3730    -87.0200   -218.0265
   3471.5000      2.4410      3.9520      2.4410      3.9520      7.9710    -76.5439      7.9710    -87.2510   -218.6967
   3472.0000      2.5190      4.1330      2.5190      4.1330      8.1880    -76.7774      8.1880    -87.4810   -219.3641
   3472.5000      2.6390      4.3700      2.6390      4.3700      8.5510    -76.4310      8.5510    -87.1310   -218.3743
   3473.0000      2.7290      4.5090      2.7290      4.5090      9.6360    -76.1486      9.6360    -86.8450   -217.5674
   3473.5000      2.8260      4.6160      2.8260      4.6160      9.9610    -75.9941      9.9610    -86.6870   -217.1261
   3474.0000      2.8970      4.7230      2.8970      4.7230     10.0670    -75.9377     10.0670    -86.6270   -216.9649
   3474.5000      2.9680      4.4850      2.9680      4.4850     10.0640    -76.0433     10.0640    -86.7290   -217.2665
   3475.0000      3.0230      4.3830      3.0230      4.3830      9.8650    -76.3759      9.8650    -87.0580   -218.2167
   3475.5000      2.9610      4.2800      2.9610      4.2800      8.6630    -76.8364      8.6630    -87.5150   -219.5327
   3476.0000      2.9020      4.0990      2.9020      4.0990      8.1030    -78.0440      8.1030    -88.7190   -222.9829
   3476.5000      2.8430      3.9190      2.8430      3.9190      6.8810    -78.9286      6.8810    -89.6000   -225.5102
   3477.0000      2.6410      3.7100      2.6410      3.7100      7.0920    -79.2921      7.0920    -89.9600   -226.5490
   3477.5000      2.5660      3.5890      2.5660      3.5890      7.2410    -79.7557      7.2410    -90.4200   -227.8735
   3478.0000      2.4840      3.5310      2.4840      3.5310      7.3690    -79.7623      7.3690    -90.4230   -227.8922
   3478.5000      2.4290      3.5530      2.4290      3.5530      7.4970    -79.7689      7.4970    -90.4260   -227.9110
   3479.0000      2.4120      3.6820      2.4120      3.6820      8.0260    -79.6494      8.0260    -90.3030   -227.5698
   3479.5000      2.4020      3.8540      2.4020      3.8540      8.3570    -79.3340      8.3570    -89.9840   -226.6686
   3480.0000      2.3750      3.9150      2.3750      3.9150      8.4870    -77.7846      8.4870    -88.4310   -222.2416
