~V
VERS. 2.00: Ver 2.00
WRAP.   NO:        
~W
 STRT.FT 30:
 STOP.FT 4020:
 STEP.FT 0.5:
 NULL. -999.250000:
 COMP. Western Gulf (Chevron):Company
 WELL. KCL-SAN EMIDIO #3:Well
 FLD. :Field
 LOC. S27 T11N R22W:Location
 STAT. CA:State
 SRVC. :Service Company
 SON. :Service Order #
 DATE. :Log Date
 UWI. :Unique Well ID
~C
 DEPT.FT :
 LAT.OHMM :
 LN.OHMM :
 RD.OHMM :
 RM.OHMM :
 RS.OHMM :
 SBL.MV :
 SN.OHMM :
 SP.MV :
 SPN. :
~P
~A
     30.0000   -999.2500   -999.2500   -999.2500   -999.2500   -999.2500   -999.2500   -999.2500   -999.2500   -999.2500
     30.5000   -999.2500   -999.2500   -999.2500   -999.2500   -999.2500     -7.0130   -999.2500     -9.0130    -20.0371
     31.0000   -999.2500   -999.2500   -999.2500   -999.2500   -999.2500     -6.8520   -999.2500     -8.8520    -19.5771
     31.5000   -999.2500   -999.2500   -999.2500   -999.2500   -999.2500     -6.6915   -999.2500     -8.6915    -19.1186
     32.0000   -999.2500   -999.2500   -999.2500   -999.2500      0.1500     -6.5305      0.1500     -8.5305    -18.6586
     32.5000   -999.2500   -999.2500   -999.2500   -999.2500      0.6370     -6.3700      0.6370     -8.3700    -18.2000
     33.0000   -999.2500   -999.2500   -999.2500   -999.2500      1.5960     -6.2090      1.5960     -8.2090    -17.7400
     33.5000   -999.2500   -999.2500   -999.2500   -999.2500      2.5560     -6.0590      2.5560     -8.0590    -17.3114
     34.0000   -999.2500   -999.2500   -999.2500   -999.2500      6.4330     -5.9090      6.4330     -7.9090    -16.8829
     34.5000   -999.2500   -999.2500   -999.2500   -999.2500     10.5720     -5.7590     10.5720     -7.7590    -16.4543
     35.0000   -999.2500   -999.2500   -999.2500   -999.2500     12.1350     -5.6630     12.1350     -7.6630    -16.1800
     35.5000   -999.2500   -999.2500   -999.2500   -999.2500     13.6980     -5.5670     13.6980     -7.5670    -15.9057
     36.0000   -999.2500   -999.2500   -999.2500   -999.2500     15.6180     -5.4705     15.6180     -7.4705    -15.6300
     36.5000   -999.2500   -999.2500   -999.2500   -999.2500     16.7410     -5.3745     16.7410     -7.3745    -15.3557
     37.0000   -999.2500   -999.2500   -999.2500   -999.2500     17.8630     -5.2780     17.8630     -7.2780    -15.0800
     37.5000   -999.2500   -999.2500   -999.2500   -999.2500     18.6270     -5.1815     18.6270     -7.1815    -14.8043
     38.0000   -999.2500   -999.2500   -999.2500   -999.2500     19.3920     -5.0215     19.3920     -7.0215    -14.3471
     38.5000   -999.2500   -999.2500   -999.2500   -999.2500     20.0250     -4.8610     20.0250     -6.8610    -13.8886
     39.0000   -999.2500   -999.2500   -999.2500   -999.2500     20.6580     -4.7645     20.6580     -6.7645    -13.6129
     39.5000   -999.2500   -999.2500   -999.2500   -999.2500     21.3060     -4.6685     21.3060     -6.6685    -13.3386
     40.0000   -999.2500   -999.2500   -999.2500   -999.2500     21.7110     -4.5725     21.7110     -6.5725    -13.0643
     40.5000   -999.2500   -999.2500   -999.2500   -999.2500     22.1150     -4.4760     22.1150     -6.4760    -12.7886
     41.0000   -999.2500   -999.2500   -999.2500   -999.2500     22.4710     -4.3745     22.4710     -6.3745    -12.4986
     41.5000   -999.2500   -999.2500   -999.2500   -999.2500     22.8270     -4.2730     22.8270     -6.2730    -12.2086
     42.0000   -999.2500   -999.2500   -999.2500   -999.2500     23.3620     -4.1715     23.3620     -6.1715    -11.9186
     42.5000   -999.2500   -999.2500   -999.2500   -999.2500     23.8960     -4.0865     23.8960     -6.0865    -11.6757
     43.0000   -999.2500   -999.2500   -999.2500   -999.2500     24.4470     -4.0010     24.4470     -6.0010    -11.4314
     43.5000   -999.2500   -999.2500   -999.2500   -999.2500     24.9990     -3.9155     24.9990     -5.9155    -11.1871
     44.0000   -999.2500   -999.2500   -999.2500   -999.2500     25.3230     -3.8195     25.3230     -5.8195    -10.9129
     44.5000   -999.2500   -999.2500   -999.2500   -999.2500     24.9600     -3.7230     24.9600     -5.7230    -10.6371
     45.0000   -999.2500   -999.2500   -999.2500   -999.2500     24.5660     -3.5790     24.5660     -5.5790    -10.2257
     45.5000   -999.2500   -999.2500   -999.2500   -999.2500     24.4330     -3.5150     24.4330     -5.5150    -10.0429
     46.0000   -999.2500   -999.2500   -999.2500   -999.2500     24.3160     -3.4510     24.3160     -5.4510     -9.8600
     46.5000   -999.2500   -999.2500   -999.2500   -999.2500     24.2000     -3.3555     24.2000     -5.3555     -9.5871
     47.0000   -999.2500   -999.2500   -999.2500   -999.2500     24.0990     -3.3075     24.0990     -5.3075     -9.4500
     47.5000   -999.2500   -999.2500   -999.2500   -999.2500     23.9970     -3.2195     23.9970     -5.2195     -9.1986
     48.0000   -999.2500   -999.2500   -999.2500   -999.2500     24.0600     -3.1310     24.0600     -5.1310     -8.9457
     48.5000   -999.2500   -999.2500   -999.2500   -999.2500     24.1220     -3.0515     24.1220     -5.0515     -8.7186
     49.0000   -999.2500   -999.2500   -999.2500   -999.2500     24.3970     -3.0845     24.3970     -5.0845     -8.8129
     49.5000   -999.2500   -999.2500   -999.2500   -999.2500     24.6710     -3.2795     24.6710     -5.2795     -9.3700
     50.0000   -999.2500   -999.2500   -999.2500   -999.2500     24.8960     -3.3850     24.8960     -5.3850     -9.6714
     50.5000   -999.2500   -999.2500   -999.2500   -999.2500     25.1220     -3.4905     25.1220     -5.4905     -9.9729
     51.0000   -999.2500   -999.2500   -999.2500   -999.2500     25.2150     -3.8965     25.2150     -5.8965    -11.1329
     51.5000   -999.2500   -999.2500   -999.2500   -999.2500     25.0000     -3.9620     25.0000     -5.9620    -11.3200
     52.0000   -999.2500   -999.2500   -999.2500   -999.2500     24.7850     -3.9950     24.7850     -5.9950    -11.4143
     52.5000   -999.2500   -999.2500   -999.2500   -999.2500     24.4560     -4.0120     24.4560     -6.0120    -11.4629
     53.0000   -999.2500   -999.2500   -999.2500   -999.2500     24.1280     -4.0285     24.1280     -6.0285    -11.5100
     53.5000   -999.2500   -999.2500   -999.2500   -999.2500     23.2100     -4.0460     23.2100     -6.0460    -11.5600
     54.0000   -999.2500   -999.2500   -999.2500   -999.2500     22.4890     -4.0310     22.4890     -6.0310    -11.5171
     54.5000   -999.2500   -999.2500   -999.2500   -999.2500     22.0470     -4.0320     22.0470     -6.0320    -11.5200
     55.0000   -999.2500   -999.2500   -999.2500   -999.2500     21.6040     -4.0650     21.6040     -6.0650    -11.6143
     55.5000   -999.2500   -999.2500   -999.2500   -999.2500     21.0310     -4.1870     21.0310     -6.1870    -11.9629
     56.0000   -999.2500   -999.2500   -999.2500   -999.2500     20.4570     -4.3085     20.4570     -6.3085    -12.3100
     56.5000   -999.2500   -999.2500   -999.2500   -999.2500     19.2450     -4.5685     19.2450     -6.5685    -13.0529
     57.0000   -999.2500   -999.2500   -999.2500   -999.2500     18.6880     -4.6420     18.6880     -6.6420    -13.2629
     57.5000   -999.2500   -999.2500   -999.2500   -999.2500     18.1300     -4.7150     18.1300     -6.7150    -13.4714
     58.0000   -999.2500   -999.2500   -999.2500   -999.2500     17.5240     -4.7490     17.5240     -6.7490    -13.5686
     58.5000   -999.2500   -999.2500   -999.2500   -999.2500     16.9170     -4.7340     16.9170     -6.7340    -13.5257
     59.0000   -999.2500   -999.2500   -999.2500   -999.2500     16.3920     -4.7670     16.3920     -6.7670    -13.6200
     59.5000   -999.2500   -999.2500   -999.2500   -999.2500     15.8670     -4.8000     15.8670     -6.8000    -13.7143
     60.0000   -999.2500   -999.2500   -999.2500   -999.2500     15.4250     -4.8325     15.4250     -6.8325    -13.8071
     60.5000   -999.2500   -999.2500   -999.2500   -999.2500     14.9820     -4.9550     14.9820     -6.9550    -14.1571
     61.0000   -999.2500   -999.2500   -999.2500   -999.2500     14.5710     -5.0770     14.5710     -7.0770    -14.5057
     61.5000   -999.2500   -999.2500   -999.2500   -999.2500     14.1610     -5.1750     14.1610     -7.1750    -14.7857
     62.0000   -999.2500   -999.2500   -999.2500   -999.2500     13.6520     -5.2730     13.6520     -7.2730    -15.0657
     62.5000   -999.2500   -999.2500   -999.2500   -999.2500     13.1440     -5.2260     13.1440     -7.2260    -14.9314
     63.0000   -999.2500   -999.2500   -999.2500   -999.2500     12.7820     -5.1780     12.7820     -7.1780    -14.7943
