~V
VERS. 2.00: Ver 2.00
WRAP.   NO:        
~W
 STRT.FT 30:
 STOP.FT 4020:
 STEP.FT 0.5:
 NULL. -999.250000:
 COMP. Western Gulf (Chevron):Company
 WELL. KCL-SAN EMIDIO #3:Well
 FLD. :Field
 LOC. S27 T11N R22W:Location
 STAT. CA:State
 SRVC. :Service Company
 SON. :Service Order #
 DATE. :Log Date
 UWI. :Unique Well ID
~C
 DEPT.FT :
 LAT.OHMM :
 LN.OHMM :
 RD.OHMM :
 RM.OHMM :
 RS.OHMM :
 SBL.MV :
 SN.OHMM :
 SP.MV :
 SPN. :
~P
~A
# ...
    298.0000      5.1290      9.1840      5.1290      9.1840      7.2210    -10.6690      7.2210    -12.6690    -30.4829
    298.5000      5.7320      9.4040      5.7320      9.4040      7.2360    -10.1080      7.2360    -12.1080    -28.8800
    299.0000      6.3100      9.6560      6.3100      9.6560      7.2150     -9.6920      7.2150    -11.6920    -27.6914
    299.5000      6.8490      9.8760      6.8490      9.8760      7.0740     -9.2765      7.0740    -11.2765    -26.5043
    300.0000      7.0340      9.9660      7.0340      9.9660      6.9330     -8.8100      6.9330    -10.8100    -25.1714
    300.5000      7.2190      9.9850      7.2190      9.9850      6.2090     -8.3440      6.2090    -10.3440    -23.8400
    301.0000      7.2050      9.7140      7.2050      9.7140      5.9190     -7.9650      5.9190     -9.9650    -22.7571
    301.5000      6.8330      9.4440      6.8330      9.4440      5.6290     -7.5860      5.6290     -9.5860    -21.6743
    302.0000      6.3900      8.5450      6.3900      8.5450      5.2350     -6.8605      5.2350     -8.8605    -19.6014
    302.5000      6.1290      8.1540      6.1290      8.1540      4.8410     -6.6915      4.8410     -8.6915    -19.1186
    303.0000      5.8690      7.4370      5.8690      7.4370      4.1040     -6.5225      4.1040     -8.5225    -18.6357
    303.5000      5.4190      7.0790      5.4190      7.0790      3.8500     -5.9425      3.8500     -7.9425    -16.9786
    304.0000      5.1840      6.7560      5.1840      6.7560      3.7190     -5.6685      3.7190     -7.6685    -16.1957
    304.5000      4.9750      6.4330      4.9750      6.4330      3.6180     -5.4430      3.6180     -7.4430    -15.5514
    305.0000      4.7720      6.1920      4.7720      6.1920      3.5170     -5.1380      3.5170     -7.1380    -14.6800
    305.5000      4.6160      5.9500      4.6160      5.9500      3.3590     -5.1230      3.3590     -7.1230    -14.6371
    306.0000      4.5240      5.7020      4.5240      5.7020      3.3720     -5.2199      3.3720     -7.2210    -14.9141
    306.5000      4.6800      5.6010      4.6800      5.6010      3.3840     -5.3499      3.3840     -7.3520    -15.2854
    307.0000      4.8360      5.5000      4.8360      5.5000      3.3970     -5.4958      3.3970     -7.4990    -15.7024
    307.5000      5.0140      5.2710      5.0140      5.2710      3.4100     -5.5768      3.4100     -7.5810    -15.9336
    308.0000      5.1930      5.0880      5.1930      5.0880      3.4160     -5.6577      3.4160     -7.6630    -16.1649
    308.5000      5.2670      5.0290      5.2670      5.0290      3.4090     -5.7077      3.4090     -7.7140    -16.3076
    309.0000      5.3420      4.9830      5.3420      4.9830      3.4020     -5.6106      3.4020     -7.6180    -16.0303
    309.5000      5.3470      4.9370      5.3470      4.9370      3.3680     -5.5141      3.3680     -7.5225    -15.7544
    310.0000      5.1710      4.8490      5.1710      4.8490      3.2380     -5.2725      3.2380     -7.2820    -15.0643
    310.5000      4.9850      4.7610      4.9850      4.7610      3.1270     -5.2399      3.1270     -7.2505    -14.9713
    311.0000      4.7990      4.6010      4.7990      4.6010      3.0160     -5.2084      3.0160     -7.2200    -14.8811
    311.5000      4.6130      4.4410      4.6130      4.4410      2.9860     -5.1033      2.9860     -7.1160    -14.5810
    312.0000      4.4270      4.3810      4.4270      4.3810      2.9560     -4.9983      2.9560     -7.0120    -14.2808
    312.5000      4.3580      4.4070      4.3580      4.4070      2.9590     -4.8367      2.9590     -6.8515    -13.8192
    313.0000      4.2890      4.4320      4.2890      4.4320      2.9610     -4.5942      2.9610     -6.6100    -13.1262
    313.5000      4.2360      4.4610      4.2360      4.4610      2.9450     -4.3516      2.9450     -6.3685    -12.4332
    314.0000      4.1840      4.4900      4.1840      4.4900      2.9280     -3.9971      2.9280     -6.0150    -11.4202
    314.5000      4.1310      4.3040      4.1310      4.3040      2.8970     -3.8355      2.8970     -5.8545    -10.9586
    315.0000      3.9750      4.1180      3.9750      4.1180      2.8660     -3.7059      2.8660     -5.7260    -10.5884
    315.5000      3.8180      3.8630      3.8180      3.8630      2.8350     -3.5764      2.8350     -5.5975    -10.2183
    316.0000      3.7300      3.7000      3.7300      3.7000      2.7910     -3.2863      2.7910     -5.3085     -9.3895
    316.5000      3.6410      3.5950      3.6410      3.5950      2.7470     -3.0603      2.7470     -5.0835     -8.7437
    317.0000      3.4840      3.4650      3.4840      3.4650      2.7030     -2.9472      2.7030     -4.9715     -8.4206
    317.5000      3.3730      3.4120      3.3730      3.4120      2.5330     -2.8262      2.5330     -4.8515     -8.0748
    318.0000      3.3270      3.3600      3.3270      3.3600      2.4350     -2.7051      2.4350     -4.7315     -7.7289
    318.5000      3.2810      3.3070      3.2810      3.3070      2.3310     -2.5926      2.3310     -4.6200     -7.4073
    319.0000      3.2150      3.2420      3.2150      3.2420      2.2520     -2.5200      2.2520     -4.5485     -7.2000
    319.5000      3.1890      3.1760      3.1890      3.1760      2.2580     -2.4474      2.2580     -4.4770     -6.9927
    320.0000      3.1720      3.1330      3.1720      3.1330      2.2640     -2.5454      2.2640     -4.5760     -7.2726
    320.5000      3.1550      3.0900      3.1550      3.0900      2.2700     -2.8533      2.2700     -4.8850     -8.1524
    321.0000      3.1350      2.9920      3.1350      2.9920      2.3280     -3.0968      2.3280     -5.1295     -8.8480
    321.5000      3.1200      2.9390      3.1200      2.9390      2.3500     -3.1447      2.3500     -5.1785     -8.9849
    322.0000      3.1050      2.8870      3.1050      2.8870      2.3720     -3.1617      2.3720     -5.1965     -9.0333
    322.5000      3.0900      2.8150      3.0900      2.8150      2.3910     -3.1461      2.3910     -5.1820     -8.9889
    323.0000      3.0750      2.7720      3.0750      2.7720      2.4100     -3.0011      2.4100     -5.0380     -8.5745
    323.5000      3.0540      2.7290      3.0540      2.7290      2.4290     -2.7905      2.4290     -4.8285     -7.9729
    324.0000      3.0340      2.7030      3.0340      2.7030      2.4520     -2.3869      2.4520     -4.4260     -6.8199
    324.5000      3.0240      2.6760      3.0240      2.6760      2.4740     -2.3224      2.4740     -4.3625     -6.6354
    325.0000      3.0140      2.6620      3.0140      2.6620      2.5000     -2.3878      2.5000     -4.4290     -6.8224
    325.5000      3.1210      2.7010      3.1210      2.7010      2.5250     -2.4848      2.5250     -4.5270     -7.0994
    326.0000      3.2280      2.7780      3.2280      2.7780      2.5730     -2.5822      2.5730     -4.6255     -7.3778
    326.5000      3.3250      2.9150      3.3250      2.9150      2.6220     -2.7612      2.6220     -4.8055     -7.8891
    327.0000      3.4220      3.0510      3.4220      3.0510      2.6540     -2.9556      2.6540     -5.0010     -8.4446
    327.5000      3.5350      3.1250      3.5350      3.1250      2.6860     -3.0851      2.6860     -5.1315     -8.8145
    328.0000      3.6490      3.1340      3.6490      3.1340      2.6980     -3.1830      2.6980     -5.2305     -9.0943
    328.5000      3.7260      2.9250      3.7260      2.9250      2.6520     -3.2480      2.6520     -5.2965     -9.2799
    329.0000      3.4780      2.8270      3.4780      2.8270      2.6060     -3.2644      2.6060     -5.3140     -9.3269
    329.5000      3.2370      2.7620      3.2370      2.7620      2.5280     -3.2803      2.5280     -5.3310     -9.3724
    330.0000      3.1840      2.7610      3.1840      2.7610      2.4490     -3.2813      2.4490     -5.3330     -9.3751
    330.5000      3.1320      2.7740      3.1320      2.7740      2.4350     -3.2167      2.4350     -5.2695     -9.1907
    331.0000      3.1080      2.7730      3.1080      2.7730      2.4220     -3.0557      2.4220     -5.1095     -8.7305
