~V
VERS. 2.00: Ver 2.00
WRAP.   NO:        
~W
 STRT.FT 30:
 STOP.FT 4020:
 STEP.FT 0.5:
 NULL. -999.250000:
 COMP. Western Gulf (Chevron):Company
 WELL. KCL-SAN EMIDIO #3:Well
 FLD. :Field
 LOC. S27 T11N R22W:Location
 STAT. CA:State
 SRVC. :Service Company
 SON. :Service Order #
 DATE. :Log Date
 UWI. :Unique Well ID
~C
 DEPT.FT :
 LAT.OHMM :
 LN.OHMM :
 RD.OHMM :
 RM.OHMM :
 RS.OHMM :
 SBL.MV :
 SN.OHMM :
 SP.MV :
 SPN. :
~P
~A
# ...
   1872.5000      2.2830      2.5560      2.2830      2.5560      6.8100    -17.0049      6.8100    -22.3125    -48.5853
   1873.0000      2.2600      2.4640      2.2600      2.4640      7.3470    -19.3958      7.3470    -24.7045    -55.4166
   1873.5000      2.2810      2.4310      2.2810      2.4310      9.5910    -19.8872      9.5910    -25.1970    -56.8207
   1874.0000      2.3350      2.5500      2.3350      2.5500      9.9890    -20.6062      9.9890    -25.9170    -58.8748
   1874.5000      2.4170      2.6690      2.4170      2.6690     10.1020    -21.1476     10.1020    -26.4595    -60.4218
   1875.0000      2.4990      3.1220      2.4990      3.1220     10.1750    -21.0316     10.1750    -26.3445    -60.0902
   1875.5000      2.7210      3.2930      2.7210      3.2930     10.2260    -20.9160     10.2260    -26.2300    -59.7600
   1876.0000      2.8730      3.5610      2.8730      3.5610     10.2640    -20.4700     10.2640    -25.7850    -58.4856
   1876.5000      3.1800      3.8920      3.1800      3.8920     10.1460    -19.7294     10.1460    -25.0455    -56.3697
   1877.0000      3.5520      4.1890      3.5520      4.1890     10.0780    -16.1688     10.0780    -21.4860    -46.1967
   1877.5000      3.8240      4.4710      3.8240      4.4710     10.0100    -14.1493     10.0100    -19.4675    -40.4266
   1878.0000      3.9010      4.9310      3.9010      4.9310      9.8630    -13.0202      9.8630    -18.3395    -37.2007
   1878.5000      3.9480      5.6120      3.9480      5.6120      9.4580    -11.6807      9.4580    -17.0010    -33.3734
   1879.0000      3.9340      6.0980      3.9340      6.0980      8.4370     -9.3046      8.4370    -14.6260    -26.5847
   1879.5000      3.7190      6.4310      3.7190      6.4310      5.5280     -8.8561      5.5280    -14.1785    -25.3031
   1880.0000      3.3830      6.6280      3.3830      6.6280      5.4590     -8.6195      5.4590    -13.9430    -24.6272
   1880.5000      3.0500      6.6300      3.0500      6.6300      5.4190     -9.1615      5.4190    -14.4860    -26.1756
   1881.0000      2.8960      6.4110      2.8960      6.4110      5.5910     -9.7494      5.5910    -15.0750    -27.8554
   1881.5000      2.6710      6.3060      2.6710      6.3060      5.7640    -13.5979      5.7640    -18.9245    -38.8510
   1882.0000      2.4650      6.2270      2.4650      6.2270      5.9040    -15.6633      5.9040    -20.9910    -44.7523
   1882.5000      2.3660      6.1770      2.3660      6.1770      6.0440    -17.3727      6.0440    -22.7015    -49.6364
   1883.0000      2.2900      6.1660      2.2900      6.1660      6.1500    -18.2867      6.1500    -23.6165    -52.2477
   1883.5000      2.2590      6.1650      2.2590      6.1650      6.2030    -19.0541      6.2030    -24.3850    -54.4404
   1884.0000      2.2780      6.1850      2.2780      6.1850      5.8780    -19.6431      5.8780    -24.9750    -56.1231
   1884.5000      2.4360      6.2050      2.4360      6.2050      5.6590    -20.7685      5.6590    -26.1015    -59.3386
   1885.0000      2.6690      6.4270      2.6690      6.4270      5.4400    -21.6985      5.4400    -27.0325    -61.9956
   1885.5000      3.2750      7.8230      3.2750      7.8230      5.0590    -22.2709      5.0590    -27.6060    -63.6312
   1886.0000      3.5040      8.0530      3.5040      8.0530      4.7710    -23.1694      4.7710    -28.5055    -66.1982
   1886.5000      3.6100      8.1230      3.6100      8.1230      4.4940    -22.7698      4.4940    -28.1070    -65.0566
   1887.0000      3.8590      8.1180      3.8590      8.1180      4.4410    -22.0462      4.4410    -27.3845    -62.9893
   1887.5000      3.9750      8.0850      3.9750      8.0850      4.5630    -21.1457      4.5630    -26.4850    -60.4163
   1888.0000      4.1390      7.9210      4.1390      7.9210      4.6980    -20.9561      4.6980    -26.2965    -59.8747
   1888.5000      4.2870      7.7020      4.2870      7.7020      4.4300    -21.8876      4.4300    -27.2290    -62.5359
   1889.0000      4.3350      7.4410      4.3350      7.4410      3.6980    -23.1905      3.6980    -28.5330    -66.2586
   1889.5000      4.3690      6.9850      4.3690      6.9850      3.1450    -28.8365      3.1450    -34.1800    -82.3899
   1890.0000      4.3130      6.2510      4.3130      6.2510      2.6500    -32.5069      2.6500    -37.8515    -92.8769
   1890.5000      4.1360      5.5180      4.1360      5.5180      2.4210    -36.7599      2.4210    -42.1055   -105.0282
   1891.0000      3.8720      5.2010      3.8720      5.2010      2.3350    -38.0798      2.3350    -43.4265   -108.7994
   1891.5000      3.6200      3.4220      3.6200      3.4220      2.2500    -38.3602      2.2500    -43.7080   -109.6007
   1892.0000      3.3720      2.9340      3.3720      2.9340      2.1870    -38.6412      2.1870    -43.9900   -110.4034
   1892.5000      2.8970      2.6730      2.8970      2.6730      2.1240    -39.0056      2.1240    -44.3555   -111.4447
   1893.0000      2.3560      2.5380      2.3560      2.5380      2.0590    -39.1901      2.0590    -44.5410   -111.9717
   1893.5000      2.1860      2.3780      2.1860      2.3780      1.9950    -39.3095      1.9950    -44.6615   -112.3129
   1894.0000      2.1330      2.2560      2.1330      2.2560      1.9540    -39.2345      1.9540    -44.5875   -112.0985
   1894.5000      2.0800      2.1480      2.0800      2.1480      1.9500    -38.8994      1.9500    -44.2535   -111.1412
   1895.0000      2.0720      1.9870      2.0720      1.9870      2.1040    -38.5644      2.1040    -43.9195   -110.1839
   1895.5000      2.0650      1.8790      2.0650      1.8790      2.1580    -37.8898      2.1580    -43.2460   -108.2566
   1896.0000      2.0600      1.7950      2.0600      1.7950      2.1670    -37.2152      2.1670    -42.5725   -106.3293
   1896.5000      2.0460      1.7110      2.0460      1.7110      2.1760    -36.6697      2.1760    -42.0280   -104.7706
   1897.0000      1.9470      1.5860      1.9470      1.5860      2.3690    -36.1241      2.3690    -41.4835   -103.2118
   1897.5000      1.8320      1.5920      1.8320      1.5920      2.5110    -34.8531      2.5110    -40.2135    -99.5802
   1898.0000      1.7920      1.5970      1.7920      1.5970      2.5330    -34.4440      2.5330    -39.8055    -98.4115
   1898.5000      1.9460      1.6570      1.9460      1.6570      2.6020    -34.0350      2.6020    -39.3975    -97.2428
   1899.0000      2.0390      1.6880      2.0390      1.6880      2.6400    -33.4984      2.6400    -38.8620    -95.7097
   1899.5000      2.1060      1.7200      2.1060      1.7200      2.7760    -32.9619      2.7760    -38.3265    -94.1767
   1900.0000      2.1730      1.7540      2.1730      1.7540      3.0370    -32.5203      3.0370    -37.8860    -92.9152
   1900.5000      2.2120      1.7780      2.2120      1.7780      3.6080    -32.0792      3.6080    -37.4460    -91.6550
   1901.0000      2.2270      1.8010      2.2270      1.8010      3.9190    -30.6112      3.9190    -35.9790    -87.4606
   1901.5000      2.2430      1.7970      2.2430      1.7970      4.2140    -29.4311      4.2140    -34.8000    -84.0890
   1902.0000      2.2180      1.7930      2.2180      1.7930      4.3170    -27.8286      4.3170    -33.1985    -79.5102
   1902.5000      2.1770      1.7560      2.1770      1.7560      4.3260    -25.9995      4.3260    -31.3705    -74.2844
   1903.0000      2.1360      1.7170      2.1360      1.7170      4.3160    -23.7335      4.3160    -29.1055    -67.8099
   1903.5000      2.0560      1.6610      2.0560      1.6610      4.3020    -22.2299      4.3020    -27.6030    -63.5140
   1904.0000      1.9750      1.6050      1.9750      1.6050      4.2880    -23.1084      4.2880    -28.4825    -66.0239
   1904.5000      1.8340      1.5440      1.8340      1.5440      4.2810    -23.9208      4.2810    -29.2960    -68.3452
   1905.0000      1.7030      1.4830      1.7030      1.4830      4.2730    -23.4717      4.2730    -28.8480    -67.0621
   1905.5000      1.6440      1.4880      1.6440      1.4880      4.2660    -22.5177      4.2660    -27.8950    -64.3363
