~V
VERS. 2.00: Ver 2.00
WRAP.   NO:        
~W
 STRT.FT 30:
 STOP.FT 4020:
 STEP.FT 0.5:
 NULL. -999.250000:
 COMP. Western Gulf (Chevron):Company
 WELL. KCL-SAN EMIDIO #3:Well
 FLD. :Field
 LOC. S27 T11N R22W:Location
 STAT. CA:State
 SRVC. :Service Company
 SON. :Service Order #
 DATE. :Log Date
 UWI. :Unique Well ID
~C
 DEPT.FT :
 LAT.OHMM :
 LN.OHMM :
 RD.OHMM :
 RM.OHMM :
 RS.OHMM :
 SBL.MV :
 SN.OHMM :
 SP.MV :
 SPN. :
~P
~A
# ...
   3715.0000      2.5520      2.5420      2.5520      2.5420      5.1030    -36.7490      5.1030    -46.7490   -104.9971
   3715.5000      2.5030      2.7590      2.5030      2.7590      5.0760    -33.1900      5.0760    -43.1900    -94.8286
   3716.0000      2.4150      2.8600      2.4150      2.8600      4.5650    -31.1230      4.5650    -41.1230    -88.9229
   3716.5000      2.3070      2.9470      2.3070      2.9470      4.3370    -31.5190      4.3370    -41.5190    -90.0543
   3717.0000      2.2180      3.0340      2.2180      3.0340      4.2430    -43.6840      4.2430    -53.6840   -124.8114
   3717.5000      2.1980      3.1470      2.1980      3.1470      5.1320    -48.0680      5.1320    -58.0680   -137.3372
   3718.0000      2.1910      3.1890      2.1910      3.1890      5.5600    -49.8910      5.5600    -59.8910   -142.5457
   3718.5000      2.2040      3.1820      2.2040      3.1820      5.8230    -53.2710      5.8230    -63.2710   -152.2029
   3719.0000      2.2940      3.1750      2.2940      3.1750      6.0400    -54.9960      6.0400    -64.9960   -157.1314
   3719.5000      2.4270      3.1300      2.4270      3.1300      6.2770    -56.8180      6.2770    -66.8180   -162.3372
   3720.0000      2.4980      3.0860      2.4980      3.0860      6.6820    -58.1870      6.6820    -68.1870   -166.2486
   3720.5000      2.5850      3.0270      2.5850      3.0270      7.5070    -57.7080      7.5070    -67.7080   -164.8800
   3721.0000      2.6430      3.0080      2.6430      3.0080      8.4060    -55.4460      8.4060    -65.4460   -158.4171
   3721.5000      2.7010      2.9900      2.7010      2.9900      9.0290    -52.0160      9.0290    -62.0160   -148.6172
   3722.0000      2.7680      2.9890      2.7680      2.9890      9.3990    -47.6150      9.3990    -57.6150   -136.0429
   3722.5000      2.8130      2.9890      2.8130      2.9890      9.6230    -42.3690      9.6230    -52.3690   -121.0543
   3723.0000      2.8440      3.0340      2.8440      3.0340      9.3390    -37.7400      9.3390    -47.7400   -107.8286
   3723.5000      2.8740      3.0790      2.8740      3.0790      8.9490    -34.8620      8.9490    -44.8620    -99.6057
   3724.0000      2.8930      3.2370      2.8930      3.2370      7.7460    -32.8260      7.7460    -42.8260    -93.7886
   3724.5000      2.9120      3.4080      2.9120      3.4080      6.7290    -31.0510      6.7290    -41.0510    -88.7171
   3725.0000      2.9060      3.4700      2.9060      3.4700      6.1790    -30.3440      6.1790    -40.3440    -86.6972
   3725.5000      2.9000      3.5070      2.9000      3.5070      5.1420    -29.9640      5.1420    -39.9640    -85.6114
   3726.0000      2.8940      3.5430      2.8940      3.5430      4.5800    -30.5230      4.5800    -40.5230    -87.2086
   3726.5000      2.8820      3.5650      2.8820      3.5650      4.2220    -30.7880      4.2220    -40.7880    -87.9657
   3727.0000      2.8700      3.5910      2.8700      3.5910      4.0290    -31.0530      4.0290    -41.0530    -88.7229
   3727.5000      2.8590      3.6260      2.8590      3.6260      3.9280    -31.7420      3.9280    -41.7420    -90.6914
   3728.0000      2.8490      3.6420      2.8490      3.6420      3.8870    -32.1710      3.8870    -42.1710    -91.9172
   3728.5000      2.8320      3.6570      2.8320      3.6570      3.8460    -32.7630      3.8460    -42.7630    -93.6086
   3729.0000      2.8250      3.6890      2.8250      3.6890      3.7510    -33.0280      3.7510    -43.0280    -94.3657
   3729.5000      2.8180      3.7210      2.8180      3.7210      3.5720    -33.2940      3.5720    -43.2940    -95.1257
   3730.0000      2.7960      3.7860      2.7960      3.7860      3.4700    -33.7250      3.4700    -43.7250    -96.3571
   3730.5000      2.7750      3.8530      2.7750      3.8530      3.3690    -33.8120      3.3690    -43.8120    -96.6057
   3731.0000      2.7610      3.9210      2.7610      3.9210      3.3650    -33.8990      3.3650    -43.8990    -96.8543
   3731.5000      2.7480      4.0760      2.7480      4.0760      3.3550    -33.8440      3.3550    -43.8440    -96.6972
   3732.0000      2.7570      4.1500      2.7570      4.1500      3.3370    -33.3650      3.3370    -43.3650    -95.3286
   3732.5000      2.7620      4.2250      2.7620      4.2250      3.3180    -32.8850      3.3180    -42.8850    -93.9571
   3733.0000      2.7590      4.3150      2.7590      4.3150      3.2200    -32.3090      3.2200    -42.3090    -92.3114
   3733.5000      2.7550      4.3550      2.7550      4.3550      3.1090    -31.6680      3.1090    -41.6680    -90.4800
   3734.0000      2.7280      4.3950      2.7280      4.3950      3.0140    -31.9230      3.0140    -41.9230    -91.2086
   3734.5000      2.7150      4.4530      2.7150      4.4530      2.9200    -32.1790      2.9200    -42.1790    -91.9400
   3735.0000      2.6980      4.3820      2.6980      4.3820      2.6980    -32.4340      2.6980    -42.4340    -92.6686
   3735.5000      2.6960      4.3120      2.6960      4.3120      2.6610    -33.1560      2.6610    -43.1560    -94.7314
   3736.0000      2.6940      4.2170      2.6940      4.2170      2.6670    -33.5350      2.6670    -43.5350    -95.8143
   3736.5000      2.6340      4.1220      2.6340      4.1220      2.6800    -33.9140      2.6800    -43.9140    -96.8972
   3737.0000      2.5070      4.0470      2.5070      4.0470      2.7040    -34.7010      2.7040    -44.7010    -99.1457
   3737.5000      2.4640      3.9720      2.4640      3.9720      2.7270    -35.1300      2.7270    -45.1300   -100.3714
   3738.0000      2.4640      3.8670      2.4640      3.8670      2.7480    -34.6830      2.7480    -44.6830    -99.0943
   3738.5000      2.4730      3.7950      2.4730      3.7950      2.7680    -34.1710      2.7680    -44.1710    -97.6314
   3739.0000      2.4800      3.7700      2.4800      3.7700      2.7810    -33.9340      2.7810    -43.9340    -96.9543
   3739.5000      2.4880      3.7450      2.4880      3.7450      2.7930    -33.6980      2.7930    -43.6980    -96.2800
   3740.0000      2.5040      3.7300      2.5040      3.7300      2.8040    -33.8690      2.8040    -43.8690    -96.7686
   3740.5000      2.5190      3.7150      2.5190      3.7150      2.8150    -34.7510      2.8150    -44.7510    -99.2886
   3741.0000      2.5350      3.7010      2.5350      3.7010      2.6030    -35.2460      2.6030    -45.2460   -100.7029
   3741.5000      2.5930      3.6880      2.5930      3.6880      2.6110    -35.3490      2.6110    -45.3490   -100.9971
   3742.0000      2.6200      3.6710      2.6200      3.6710      2.6180    -34.4820      2.6180    -44.4820    -98.5200
   3742.5000      2.6470      3.6540      2.6470      3.6540      2.6140    -33.8720      2.6140    -43.8720    -96.7772
   3743.0000      2.6880      3.6140      2.6880      3.6140      2.6110    -33.2620      2.6110    -43.2620    -95.0343
   3743.5000      2.7010      3.5910      2.7010      3.5910      2.5090    -32.5590      2.5090    -42.5590    -93.0257
   3744.0000      2.7130      3.5680      2.7130      3.5680      2.5510    -32.4190      2.5510    -42.4190    -92.6257
   3744.5000      2.7320      3.5170      2.7320      3.5170      2.6180    -32.2790      2.6180    -42.2790    -92.2257
   3745.0000      2.7510      3.4660      2.7510      3.4660      2.6860    -33.0020      2.6860    -43.0020    -94.2914
   3745.5000      2.7730      3.4330      2.7730      3.4330      2.7210    -33.3160      2.7210    -43.3160    -95.1886
   3746.0000      2.7960      3.4000      2.7960      3.4000      2.7570    -33.6300      2.7570    -43.6300    -96.0857
   3746.5000      2.8500      3.3630      2.8500      3.3630      2.8400    -33.9630      2.8400    -43.9630    -97.0372
   3747.0000      2.9050      3.3270      2.9050      3.3270      2.9240    -33.9700      2.9240    -43.9700    -97.0572
   3747.5000      2.9920      3.2840      2.9920      3.2840      2.9920    -33.8150      2.9920    -43.8150    -96.6143
   3748.0000      3.0370      3.2610      3.0370      3.2610      3.0400    -33.4020      3.0400    -43.4020    -95.4343
