~V
VERS. 2.00: Ver 2.00
WRAP.   NO:        
~W
 STRT.FT 30:
 STOP.FT 4020:
 STEP.FT 0.5:
 NULL. -999.250000:
 COMP. Western Gulf (Chevron):Company
 WELL. KCL-SAN EMIDIO #3:Well
 FLD. :Field
 LOC. S27 T11N R22W:Location
 STAT. CA:State
 SRVC. :Service Company
 SON. :Service Order #
 DATE. :Log Date
 UWI. :Unique Well ID
~C
 DEPT.FT :
 LAT.OHMM :
 LN.OHMM :
 RD.OHMM :
 RM.OHMM :
 RS.OHMM :
 SBL.MV :
 SN.OHMM :
 SP.MV :
 SPN. :
~P
~A
# ...
    834.0000      0.9830      1.7530      0.9830      1.7530      2.2420    -11.1354      2.2420    -14.2510    -31.8155
    834.5000      0.9870      1.7440      0.9870      1.7440      2.2380    -11.0399      2.2380    -14.1565    -31.5425
    835.0000      0.9860      1.7350      0.9860      1.7350      2.2230    -10.0723      2.2230    -13.1900    -28.7781
    835.5000      0.9850      1.7260      0.9850      1.7260      2.2070     -9.3468      2.2070    -12.4655    -26.7051
    836.0000      0.9810      1.7090      0.9810      1.7090      2.2450     -8.7817      2.2450    -11.9015    -25.0906
    836.5000      0.9770      1.7000      0.9770      1.7000      2.2830     -8.3302      2.2830    -11.4510    -23.8004
    837.0000      0.9730      1.6910      0.9730      1.6910      2.3150     -8.5441      2.3150    -11.6660    -24.4117
    837.5000      0.9710      1.6840      0.9710      1.6840      2.3090     -8.7720      2.3090    -11.8950    -25.0630
    838.0000      0.9680      1.6770      0.9680      1.6770      2.3040     -9.1655      2.3040    -12.2895    -26.1871
    838.5000      0.9640      1.6740      0.9640      1.6740      2.2210     -9.2969      2.2210    -12.4220    -26.5627
    839.0000      0.9630      1.6720      0.9630      1.6720      2.1560     -8.4419      2.1560    -11.5680    -24.1197
    839.5000      0.9630      1.6640      0.9630      1.6640      2.0860     -7.9728      2.0860    -11.1000    -22.7795
    840.0000      0.9600      1.6620      0.9600      1.6620      2.0660     -7.5228      2.0660    -10.6510    -21.4936
    840.5000      0.9580      1.6590      0.9580      1.6590      2.0980     -7.3462      2.0980    -10.4755    -20.9892
    841.0000      0.9500      1.6580      0.9500      1.6580      2.1150     -7.1217      2.1150    -10.2520    -20.3476
    841.5000      0.9500      1.6630      0.9500      1.6630      2.1320     -7.9856      2.1320    -11.1170    -22.8160
    842.0000      0.9510      1.6670      0.9510      1.6670      2.1530     -8.4255      2.1530    -11.5580    -24.0730
    842.5000      0.9510      1.6750      0.9510      1.6750      2.1730     -8.7035      2.1730    -11.8370    -24.8671
    843.0000      0.9540      1.6810      0.9540      1.6810      2.1610     -8.7874      2.1610    -11.9220    -25.1070
    843.5000      0.9560      1.6870      0.9560      1.6870      2.1490     -8.6344      2.1490    -11.7700    -24.6697
    844.0000      0.9600      1.7090      0.9600      1.7090      2.1150     -8.4813      2.1150    -11.6180    -24.2324
    844.5000      0.9650      1.7180      0.9650      1.7180      2.0980     -7.3533      2.0980    -10.4910    -21.0093
    845.0000      0.9990      1.7270      0.9990      1.7270      2.0970     -6.6097      2.0970     -9.7485    -18.8849
    845.5000      1.0270      1.7450      1.0270      1.7450      2.0970     -6.1092      2.0970     -9.2490    -17.4547
    846.0000      1.0590      1.7640      1.0590      1.7640      2.1070     -5.3351      2.1070     -8.4760    -15.2432
    846.5000      1.0840      1.7740      1.0840      1.7740      2.1180     -4.9150      2.1180     -8.0570    -14.0430
    847.0000      1.1060      1.7850      1.1060      1.7850      2.1250     -4.3510      2.1250     -7.4940    -12.4314
    847.5000      1.1180      1.7920      1.1180      1.7920      2.1320     -4.2724      2.1320     -7.4165    -12.2070
    848.0000      1.1300      1.8000      1.1300      1.8000      2.1250     -4.6644      2.1250     -7.8095    -13.3268
    848.5000      1.1380      1.8090      1.1380      1.8090      2.0650     -5.1048      2.0650     -8.2510    -14.5852
    849.0000      1.1450      1.8210      1.1450      1.8210      2.0190     -4.9783      2.0190     -8.1255    -14.2236
    849.5000      1.1250      1.8300      1.1250      1.8300      1.9820     -4.4777      1.9820     -7.6260    -12.7935
    850.0000      1.0980      1.8420      1.0980      1.8420      1.9590     -4.1072      1.9590     -7.2565    -11.7347
    850.5000      1.0710      1.8540      1.0710      1.8540      1.9450     -3.9981      1.9450     -7.1485    -11.4232
    851.0000      0.9920      1.8560      0.9920      1.8560      1.9440     -4.1636      1.9440     -7.3150    -11.8959
    851.5000      0.9650      1.8510      0.9650      1.8510      1.9750     -5.4810      1.9750     -8.6335    -15.6600
    852.0000      0.9330      1.8450      0.9330      1.8450      2.0170     -8.3219      2.0170    -11.4755    -23.7770
    852.5000      0.9020      1.8310      0.9020      1.8310      2.0770     -8.7474      2.0770    -11.9020    -24.9925
    853.0000      0.8580      1.8130      0.8580      1.8130      2.1110     -8.7848      2.1110    -11.9405    -25.0995
    853.5000      0.8430      1.8030      0.8430      1.8030      2.1440     -7.6378      2.1440    -10.7945    -21.8222
    854.0000      0.8270      1.7920      0.8270      1.7920      2.1860     -7.2037      2.1860    -10.3615    -20.5820
    854.5000      0.8030      1.7720      0.8030      1.7720      2.2270     -6.8507      2.2270    -10.0095    -19.5733
    855.0000      0.7800      1.7510      0.7800      1.7510      2.2410     -7.0346      2.2410    -10.1945    -20.0989
    855.5000      0.7630      1.7370      0.7630      1.7370      2.2550     -7.6536      2.2550    -10.8145    -21.8673
    856.0000      0.7450      1.7230      0.7450      1.7230      2.2690     -9.3105      2.2690    -12.4725    -26.6014
    856.5000      0.7370      1.7160      0.7370      1.7160      2.2840     -9.7524      2.2840    -12.9155    -27.8641
    857.0000      0.7500      1.7090      0.7500      1.7090      2.2990     -9.9344      2.2990    -13.0985    -28.3840
    857.5000      0.7590      1.6980      0.7590      1.6980      2.3180     -9.6383      2.3180    -12.8035    -27.5381
    858.0000      0.7680      1.6870      0.7680      1.6870      2.3370     -9.3418      2.3370    -12.5080    -26.6908
    858.5000      0.8120      1.6690      0.8120      1.6690      2.6930     -8.9587      2.6930    -12.1260    -25.5963
    859.0000      0.9240      1.6490      0.9240      1.6490      3.5920     -8.7997      3.5920    -11.9680    -25.1419
    859.5000      1.2420      1.6290      1.2420      1.6290      4.1460     -9.1781      4.1460    -12.3475    -26.2232
    860.0000      3.6060      1.6890      3.6060      1.6890      4.5160    -10.2191      4.5160    -13.3895    -29.1973
    860.5000      4.9180      3.4200      4.9180      3.4200      4.8490    -13.7735      4.8490    -16.9450    -39.3528
    861.0000      5.2250      4.5820      5.2250      4.5820      4.9880    -14.3779      4.9880    -17.5505    -41.0798
    861.5000      5.2700      5.0290      5.2700      5.0290      5.0940    -14.6564      5.0940    -17.8300    -41.8754
    862.0000      5.2950      5.0550      5.2950      5.0550      5.1100    -14.8708      5.1100    -18.0455    -42.4881
    862.5000      5.3100      5.0800      5.3100      5.0800      4.9620    -14.5363      4.9620    -17.7120    -41.5322
    863.0000      5.3260      5.0360      5.3260      5.0360      4.4840    -14.1822      4.4840    -17.3590    -40.5206
    863.5000      5.3410      4.8400      5.3410      4.8400      3.9050    -13.7397      3.9050    -16.9175    -39.2562
    864.0000      5.1510      4.5990      5.1510      4.5990      3.5200    -13.2976      3.5200    -16.4765    -37.9932
    864.5000      3.7110      4.1240      3.7110      4.1240      3.1360    -12.2506      3.1360    -15.4305    -35.0016
    865.0000      2.9530      2.9240      2.9530      2.9240      2.9140    -11.8960      2.9140    -15.0770    -33.9886
    865.5000      2.5140      2.2150      2.5140      2.2150      2.5910    -11.5349      2.5910    -14.7170    -32.9570
    866.0000      2.0280      1.6710      2.0280      1.6710      2.3790    -11.1734      2.3790    -14.3565    -31.9240
    866.5000      1.5010      1.4620      1.5010      1.4620      2.3170    -10.9098      2.3170    -14.0940    -31.1710
    867.0000      1.2080      1.2010      1.2080      1.2010      2.4130    -10.6463      2.4130    -13.8315    -30.4179
