~V
VERS. 2.00: Ver 2.00
WRAP.   NO:        
~W
 STRT.FT 30:
 STOP.FT 4020:
 STEP.FT 0.5:
 NULL. -999.250000:
 COMP. Western Gulf (Chevron):Company
 WELL. KCL-SAN EMIDIO #3:Well
 FLD. :Field
 LOC. S27 T11N R22W:Location
 STAT. CA:State
 SRVC. :Service Company
 SON. :Service Order #
 DATE. :Log Date
 UWI. :Unique Well ID
~C
 DEPT.FT :
 LAT.OHMM :
 LN.OHMM :
 RD.OHMM :
 RM.OHMM :
 RS.OHMM :
 SBL.MV :
 SN.OHMM :
 SP.MV :
 SPN. :
~P
~A
# ...
    566.0000      1.7480      1.3990      1.7480      1.3990      2.5630    -14.6226      2.5630    -17.1725    -41.7790
    566.5000      1.7190      1.3960      1.7190      1.3960      2.5560    -14.2376      2.5560    -16.7885    -40.6788
    567.0000      1.6910      1.3970      1.6910      1.3970      2.5490    -13.5285      2.5490    -16.0805    -38.6529
    567.5000      1.6380      1.3980      1.6380      1.3980      2.4340    -13.2400      2.4340    -15.7930    -37.8285
    568.0000      1.5850      1.4020      1.5850      1.4020      2.3940    -13.1309      2.3940    -15.6850    -37.5169
    568.5000      1.5480      1.4060      1.5480      1.4060      2.3550    -13.1349      2.3550    -15.6900    -37.5282
    569.0000      1.5180      1.4120      1.5180      1.4120      2.2540    -13.1523      2.2540    -15.7085    -37.5780
    569.5000      1.4910      1.4170      1.4910      1.4170      2.1540    -13.1702      2.1540    -15.7275    -37.6293
    570.0000      1.4670      1.4280      1.4670      1.4280      2.1080    -13.1762      2.1080    -15.7345    -37.6463
    570.5000      1.4540      1.4280      1.4540      1.4280      2.0520    -12.9211      2.0520    -15.4805    -36.9175
    571.0000      1.4400      1.4270      1.4400      1.4270      1.9960    -12.4066      1.9960    -14.9670    -35.4474
    571.5000      1.4330      1.4190      1.4330      1.4190      2.0050    -12.2140      2.0050    -14.7755    -34.8972
    572.0000      1.4260      1.4120      1.4260      1.4120      2.0140    -12.0410      2.0140    -14.6035    -34.4028
    572.5000      1.3920      1.4010      1.3920      1.4010      2.0580    -11.9789      2.0580    -14.5425    -34.2255
    573.0000      1.3750      1.3910      1.3750      1.3910      2.0680    -11.9654      2.0680    -14.5300    -34.1867
    573.5000      1.3540      1.3840      1.3540      1.3840      2.0790    -12.3103      2.0790    -14.8760    -35.1723
    574.0000      1.3340      1.3770      1.3340      1.3770      2.0360    -12.6542      2.0360    -15.2210    -36.1550
    574.5000      1.3200      1.3650      1.3200      1.3650      1.9930    -12.9652      1.9930    -15.5330    -37.0434
    575.0000      1.3150      1.3550      1.3150      1.3550      1.9490    -13.4241      1.9490    -15.9930    -38.3547
    575.5000      1.3210      1.3500      1.3210      1.3500      1.9220    -13.4586      1.9220    -16.0285    -38.4531
    576.0000      1.3270      1.3460      1.3270      1.3460      1.9120    -13.3485      1.9120    -15.9195    -38.1386
    576.5000      1.3450      1.3420      1.3450      1.3420      1.9500    -13.2380      1.9500    -15.8100    -37.8228
    577.0000      1.3700      1.3430      1.3700      1.3430      1.9880    -12.8029      1.9880    -15.3760    -36.5798
    577.5000      1.3840      1.3440      1.3840      1.3440      2.0450    -12.3679      2.0450    -14.9420    -35.3367
    578.0000      1.3980      1.3460      1.3980      1.3460      2.0730    -12.0068      2.0730    -14.5820    -34.3051
    578.5000      1.4260      1.3490      1.4260      1.3490      2.1020    -11.6457      2.1020    -14.2220    -33.2736
    579.0000      1.4120      1.3540      1.4120      1.3540      2.1220    -11.4087      2.1220    -13.9860    -32.5963
    579.5000      1.3990      1.3600      1.3990      1.3600      2.1430    -11.4296      2.1430    -14.0080    -32.6561
    580.0000      1.3440      1.3690      1.3440      1.3690      2.1500    -11.5466      2.1500    -14.1260    -32.9902
    580.5000      1.2900      1.3770      1.2900      1.3770      2.1570    -11.7285      2.1570    -14.3090    -33.5101
    581.0000      1.2370      1.3940      1.2370      1.3940      2.1460    -12.0230      2.1460    -14.6045    -34.3513
    581.5000      1.1840      1.4110      1.1840      1.4110      2.1360    -12.4474      2.1360    -15.0300    -35.5640
    582.0000      1.1640      1.4270      1.1640      1.4270      2.0920    -12.9124      2.0920    -15.4960    -36.8925
    582.5000      1.1430      1.4420      1.1430      1.4420      2.0670    -13.3768      2.0670    -15.9615    -38.2194
    583.0000      1.1420      1.4390      1.1420      1.4390      2.0420    -14.3387      2.0420    -16.9245    -40.9679
    583.5000      1.1410      1.4360      1.1410      1.4360      2.0090    -15.0557      2.0090    -17.6425    -43.0163
    584.0000      1.1560      1.4330      1.1560      1.4330      1.9760    -15.6921      1.9760    -18.2800    -44.8347
    584.5000      1.1840      1.4210      1.1840      1.4210      1.9480    -15.9381      1.9480    -18.5270    -45.5374
    585.0000      1.1950      1.4080      1.1950      1.4080      1.9410    -16.4285      1.9410    -19.0185    -46.9386
    585.5000      1.2060      1.3870      1.2060      1.3870      1.9340    -16.4475      1.9340    -19.0385    -46.9928
    586.0000      1.2280      1.3650      1.2280      1.3650      1.9330    -16.1604      1.9330    -18.7525    -46.1726
    586.5000      1.2120      1.3440      1.2120      1.3440      1.9320    -15.4009      1.9320    -17.9940    -44.0025
    587.0000      1.1970      1.3260      1.1970      1.3260      1.9340    -14.7258      1.9340    -17.3200    -42.0737
    587.5000      1.1680      1.3090      1.1680      1.3090      1.9370    -14.4842      1.9370    -17.0795    -41.3836
    588.0000      1.1390      1.3020      1.1390      1.3020      1.9390    -14.1322      1.9390    -16.7285    -40.3777
    588.5000      1.1220      1.2950      1.1220      1.2950      1.8860    -13.8606      1.8860    -16.4580    -39.6018
    589.0000      1.1050      1.2910      1.1050      1.2910      1.8650    -13.7976      1.8650    -16.3960    -39.4217
    589.5000      1.1170      1.2860      1.1170      1.2860      1.8450    -13.7350      1.8450    -16.3345    -39.2429
    590.0000      1.1290      1.2920      1.1290      1.2920      1.8200    -13.7570      1.8200    -16.3575    -39.3056
    590.5000      1.1480      1.2970      1.1480      1.2970      1.7940    -13.8424      1.7940    -16.4440    -39.5498
    591.0000      1.1790      1.3090      1.1790      1.3090      1.7810    -13.9254      1.7810    -16.5280    -39.7867
    591.5000      1.2140      1.3410      1.2140      1.3410      1.7660    -14.1238      1.7660    -16.7275    -40.3537
    592.0000      1.2490      1.3720      1.2490      1.3720      1.7640    -14.5007      1.7640    -17.1055    -41.4307
    592.5000      1.3420      1.3860      1.3420      1.3860      1.7620    -15.0297      1.7620    -17.6355    -42.9420
    593.0000      1.3640      1.4000      1.3640      1.4000      1.7590    -15.5586      1.7590    -18.1655    -44.4533
    593.5000      1.3870      1.4510      1.3870      1.4510      1.7560    -16.2456      1.7560    -18.8535    -46.4160
    594.0000      1.3970      1.4080      1.3970      1.4080      1.7560    -16.0860      1.7560    -18.6950    -45.9601
    594.5000      1.4070      1.3810      1.4070      1.3810      1.7550    -15.9260      1.7550    -18.5360    -45.5028
    595.0000      1.3890      1.3540      1.3890      1.3540      1.7590    -15.4359      1.7590    -18.0470    -44.1026
    595.5000      1.3700      1.3390      1.3700      1.3390      1.7630    -14.9459      1.7630    -17.5580    -42.7025
    596.0000      1.3510      1.3230      1.3510      1.3230      1.7730    -14.6093      1.7730    -17.2225    -41.7409
    596.5000      1.3320      1.3270      1.3320      1.3270      1.7830    -14.4013      1.7830    -17.0155    -41.1464
    597.0000      1.3310      1.3310      1.3310      1.3310      1.7910    -14.1932      1.7910    -16.8085    -40.5520
    597.5000      1.3300      1.3420      1.3300      1.3420      1.7980    -13.9631      1.7980    -16.5795    -39.8947
    598.0000      1.3290      1.3520      1.3290      1.3520      1.8070    -13.7331      1.8070    -16.3505    -39.2374
    598.5000      1.3070      1.3670      1.3070      1.3670      1.8160    -13.6385      1.8160    -16.2570    -38.9672
    599.0000      1.2850      1.3630      1.2850      1.3630      1.8370    -13.5450      1.8370    -16.1645    -38.6999
