~V
VERS. 2.00: Ver 2.00
WRAP.   NO:        
~W
 STRT.FT 30:
 STOP.FT 4020:
 STEP.FT 0.5:
 NULL. -999.250000:
 COMP. Western Gulf (Chevron):Company
 WELL. KCL-SAN EMIDIO #3:Well
 FLD. :Field
 LOC. S27 T11N R22W:Location
 STAT. CA:State
 SRVC. :Service Company
 SON. :Service Order #
 DATE. :Log Date
 UWI. :Unique Well ID
~C
 DEPT.FT :
 LAT.OHMM :
 LN.OHMM :
 RD.OHMM :
 RM.OHMM :
 RS.OHMM :
 SBL.MV :
 SN.OHMM :
 SP.MV :
 SPN. :
~P
~A
# ...
   2676.5000      1.9840      4.9420      1.9840      4.9420      8.8410    -45.2283      8.8410    -53.7755   -129.2238
   2677.0000      1.9630      4.8400      1.9630      4.8400      8.9770    -45.5137      8.9770    -54.0636   -130.0392
   2677.5000      1.9360      4.7370      1.9360      4.7370      9.5290    -45.3488      9.5290    -53.9013   -129.5681
   2678.0000      2.0760      4.6290      2.0760      4.6290      9.6850    -44.5974      9.6850    -53.1526   -127.4213
   2678.5000      2.2480      4.5900      2.2480      4.5900      9.7230    -43.6141      9.7230    -52.1720   -124.6117
   2679.0000      2.3060      4.6350      2.3060      4.6350      9.6510    -42.6944      9.6510    -51.2549   -121.9840
   2679.5000      2.3510      4.8300      2.3510      4.8300      9.3560    -41.9539      9.3560    -50.5171   -119.8683
   2680.0000      2.3570      5.2260      2.3570      5.2260      7.3180    -34.6966      7.3180    -43.2625    -99.1332
   2680.5000      2.2270      5.2780      2.2270      5.2780      5.9470    -37.2549      5.9470    -45.8235   -106.4427
   2681.0000      2.0870      5.3300      2.0870      5.3300      5.8070    -30.3813      5.8070    -38.9525    -86.8036
   2681.5000      2.0140      5.3320      2.0140      5.3320      5.7840    -29.4551      5.7840    -38.0290    -84.1574
   2682.0000      1.9400      5.1830      1.9400      5.1830      5.9230    -29.8594      5.9230    -38.4360    -85.3126
   2682.5000      1.9190      4.8410      1.9190      4.8410      6.3710    -28.8202      6.3710    -37.3995    -82.3435
   2683.0000      1.8980      4.7030      1.8980      4.7030      7.1150    -28.7381      7.1150    -37.3200    -82.1087
   2683.5000      1.9250      4.5650      1.9250      4.5650      8.1480    -30.9409      8.1480    -39.5255    -88.4025
   2684.0000      1.9520      4.1650      1.9520      4.1650      9.1970    -33.1442      9.1970    -41.7315    -94.6977
   2684.5000      2.1920      3.9760      2.1920      3.9760      9.4570    -35.4450      9.4570    -44.0350   -101.2715
   2685.0000      2.3120      3.8520      2.3120      3.8520      9.5650    -36.8049      9.5650    -45.3975   -105.1567
   2685.5000      2.4390      3.7670      2.4390      3.7670      9.6740    -37.5007      9.6740    -46.0960   -107.1448
   2686.0000      2.4840      3.7570      2.4840      3.7570      9.7770    -37.5480      9.7770    -46.1460   -107.2800
   2686.5000      2.4900      3.8900      2.4900      3.8900      9.8260    -35.7308      9.8260    -44.3315   -102.0881
   2687.0000      2.4700      3.9810      2.4700      3.9810      9.8320    -35.7457      9.8320    -44.3490   -102.1304
   2687.5000      2.4280      4.0490      2.4280      4.0490      9.3640    -35.8580      9.3640    -44.4640   -102.4514
   2688.0000      2.3690      4.0940      2.3690      4.0940      9.0970    -35.9378      9.0970    -44.5465   -102.6794
   2688.5000      2.2940      4.1160      2.2940      4.1160      9.0090    -35.9846      9.0090    -44.5960   -102.8132
   2689.0000      2.2120      4.0560      2.2120      4.0560      8.8140    -35.9585      8.8140    -44.5725   -102.7384
   2689.5000      2.1570      3.9960      2.1570      3.9960      8.7520    -35.9318      8.7520    -44.5485   -102.6622
   2690.0000      2.0950      3.8720      2.0950      3.8720      8.7910    -36.8396      8.7910    -45.4590   -105.2560
   2690.5000      2.0860      3.7970      2.0860      3.7970      8.8880    -32.2159      8.8880    -40.8380    -92.0455
   2691.0000      2.0780      3.7380      2.0780      3.7380      8.9750    -32.8828      8.9750    -41.5075    -93.9507
   2691.5000      2.0650      3.6890      2.0650      3.6890      9.0720    -42.4279      9.0720    -51.0553   -121.2226
   2692.0000      2.0840      3.6580      2.0840      3.6580      9.1230    -43.0829      9.1230    -51.7130   -123.0939
   2692.5000      2.0980      3.6270      2.0980      3.6270      9.1730    -43.3027      9.1730    -51.9355   -123.7220
   2693.0000      2.1130      3.8120      2.1130      3.8120      9.4030    -43.3790      9.4030    -52.0144   -123.9399
   2693.5000      2.1500      3.9370      2.1500      3.9370      9.5360    -43.0390      9.5360    -51.6771   -122.9686
   2694.0000      2.1880      4.0610      2.1880      4.0610      9.6360    -42.3129      9.6360    -50.9537   -120.8939
   2694.5000      2.2260      4.1550      2.2260      4.1550      9.7370    -41.6143      9.7370    -50.2578   -118.8981
   2695.0000      2.2670      4.2490      2.2670      4.2490     10.0160    -33.9018     10.0160    -42.5480    -96.8624
   2695.5000      2.3090      4.3460      2.3090      4.3460   -999.2500    -35.0102   -999.2500    -43.6590   -100.0291
   2696.0000      2.3310      4.4300      2.3310      4.4300   -999.2500    -36.1185   -999.2500    -44.7700   -103.1957
   2696.5000      2.3520      4.5080      2.3520      4.5080   -999.2500    -37.2263   -999.2500    -45.8805   -106.3609
   2697.0000      2.3740      4.5630      2.3740      4.5630   -999.2500    -36.0576   -999.2500    -44.7145   -103.0219
   2697.5000      2.4380      4.6120      2.4380      4.6120   -999.2500    -34.4350   -999.2500    -43.0945    -98.3856
   2698.0000      2.4990      4.6600      2.4990      4.6600   -999.2500    -29.5053   -999.2500    -38.1675    -84.3008
   2698.5000      2.5410      4.6440      2.5410      4.6440   -999.2500    -25.0301   -999.2500    -33.6950    -71.5146
   2699.0000      2.5720      4.6270      2.5720      4.6270   -999.2500    -23.6669   -999.2500    -32.3345    -67.6198
   2699.5000      2.6030      4.6790      2.6030      4.6790   -999.2500    -22.0278   -999.2500    -30.6980    -62.9365
   2700.0000      2.6710      4.8370      2.6710      4.8370   -999.2500    -22.4156   -999.2500    -31.0885    -64.0446
   2700.5000      2.5790      5.1620      2.5790      5.1620   -999.2500    -23.3239   -999.2500    -31.9995    -66.6398
   2701.0000      2.5140      5.4500      2.5140      5.4500   -999.2500    -25.6902   -999.2500    -34.3685    -73.4007
   2701.5000      2.4060      5.6260      2.4060      5.6260     10.0310    -27.9276     10.0310    -36.6085    -79.7930
   2702.0000      2.3370      5.9080      2.3370      5.9080      9.6990    -29.3059      9.6990    -37.9895    -83.7311
   2702.5000      2.2290      6.0730      2.2290      6.0730      7.3560    -30.5057      7.3560    -39.1920    -87.1592
   2703.0000      2.1670      6.1240      2.1670      6.1240      7.0180    -31.9320      7.0180    -40.6210    -91.2344
   2703.5000      2.1120      6.1660      2.1120      6.1660      7.0630    -33.8454      7.0630    -42.5370    -96.7010
   2704.0000      2.0920      5.8500      2.0920      5.8500      7.3220    -35.3042      7.3220    -43.9985   -100.8691
   2704.5000      2.0880      5.6130      2.0880      5.6130      7.5000    -36.6985      7.5000    -45.3955   -104.8529
   2705.0000      2.0970      5.4090      2.0970      5.4090      7.6270    -35.1998      7.6270    -43.8995   -100.5710
   2705.5000      2.1070      5.2060      2.1070      5.2060      7.7530    -33.7012      7.7530    -42.4035    -96.2890
   2706.0000      2.1580      4.8710      2.1580      4.8710      8.0900    -32.2025      8.0900    -40.9075    -92.0071
   2706.5000      2.2030      4.6880      2.2030      4.6880      8.2390    -42.4851      8.2390    -51.1928   -121.3859
   2707.0000      2.2770      4.6550      2.2770      4.6550      8.3880    -43.0797      8.3880    -51.7901   -123.0849
   2707.5000      2.3060      4.6220      2.3060      4.6220      8.6770    -43.1667      8.6770    -51.8797   -123.3334
   2708.0000      2.3350      4.7060      2.3350      4.7060      8.7170    -42.9893      8.7170    -51.7051   -122.8267
   2708.5000      2.3730      4.7900      2.3730      4.7900      8.7570    -41.7278      8.7570    -50.4462   -119.2224
   2709.0000      2.3470      5.0110      2.3470      5.0110      8.7990    -34.5559      8.7990    -43.2770    -98.7312
   2709.5000      2.3200      5.0390      2.3200      5.0390      8.5900    -35.8303      8.5900    -44.5540   -102.3722
