~V
VERS. 2.00: Ver 2.00
WRAP.   NO:        
~W
 STRT.FT 30:
 STOP.FT 4020:
 STEP.FT 0.5:
 NULL. -999.250000:
 COMP. Western Gulf (Chevron):Company
 WELL. KCL-SAN EMIDIO #3:Well
 FLD. :Field
 LOC. S27 T11N R22W:Location
 STAT. CA:State
 SRVC. :Service Company
 SON. :Service Order #
 DATE. :Log Date
 UWI. :Unique Well ID
~C
 DEPT.FT :
 LAT.OHMM :
 LN.OHMM :
 RD.OHMM :
 RM.OHMM :
 RS.OHMM :
 SBL.MV :
 SN.OHMM :
 SP.MV :
 SPN. :
~P
~A
# ...
   1336.5000      1.1710      1.4950      1.1710      1.4950      2.6990    -23.3438      2.6990    -27.5200    -66.6964
   1337.0000      1.1650      1.5020      1.1650      1.5020      2.6920    -22.6802      2.6920    -26.8575    -64.8006
   1337.5000      1.1560      1.5090      1.1560      1.5090      2.6530    -22.0161      2.6530    -26.1945    -62.9033
   1338.0000      1.1480      1.5120      1.1480      1.5120      2.5800    -21.0291      2.5800    -25.2085    -60.0831
   1338.5000      1.1410      1.5140      1.1410      1.5140      2.5230    -20.5745      2.5230    -24.7550    -58.7844
   1339.0000      1.1340      1.5170      1.1340      1.5170      2.4660    -19.7650      2.4660    -23.9465    -56.4713
   1339.5000      1.1260      1.5170      1.1260      1.5170      2.4130    -19.1509      2.4130    -23.3335    -54.7169
   1340.0000      1.1190      1.5170      1.1190      1.5170      2.3600    -18.8599      2.3600    -23.0435    -53.8853
   1340.5000      1.1130      1.5180      1.1130      1.5180      2.3340    -18.7223      2.3340    -22.9070    -53.4923
   1341.0000      1.1080      1.5180      1.1080      1.5180      2.2910    -18.5852      2.2910    -22.7710    -53.1007
   1341.5000      1.1020      1.5160      1.1020      1.5160      2.2580    -18.3602      2.2580    -22.5470    -52.4577
   1342.0000      1.0880      1.5140      1.0880      1.5140      2.2920    -18.2156      2.2920    -22.4035    -52.0447
   1342.5000      1.0740      1.4940      1.0740      1.4940      2.3250    -18.1501      2.3250    -22.3390    -51.8574
   1343.0000      1.0610      1.4730      1.0610      1.4730      2.4160    -18.0845      2.4160    -22.2745    -51.6701
   1343.5000      1.0370      1.4600      1.0370      1.4600      2.5060    -17.9740      2.5060    -22.1650    -51.3542
   1344.0000      1.0240      1.4560      1.0240      1.4560      2.6550    -17.9259      2.6550    -22.1180    -51.2169
   1344.5000      1.0100      1.4520      1.0100      1.4520      2.7450    -19.0294      2.7450    -23.2225    -54.3696
   1345.0000      0.9840      1.4450      0.9840      1.4450      2.7570    -21.9483      2.7570    -26.1425    -62.7094
   1345.5000      0.9570      1.4440      0.9570      1.4440      2.6430    -22.7272      2.6430    -26.9225    -64.9350
   1346.0000      0.9350      1.4440      0.9350      1.4440      2.5160    -22.3867      2.5160    -26.5830    -63.9620
   1346.5000      0.9140      1.4470      0.9140      1.4470      2.4280    -22.0466      2.4280    -26.2440    -62.9904
   1347.0000      0.8890      1.4500      0.8890      1.4500      2.3400    -20.8021      2.3400    -25.0005    -59.4345
   1347.5000      0.8640      1.4550      0.8640      1.4550      2.2930    -19.9750      2.2930    -24.1745    -57.0715
   1348.0000      0.8470      1.4580      0.8470      1.4580      2.4350    -18.8090      2.4350    -23.0095    -53.7399
   1348.5000      0.8380      1.4600      0.8380      1.4600      2.5450    -18.2424      2.5450    -22.4440    -52.1212
   1349.0000      0.8300      1.4760      0.8300      1.4760      2.6120    -18.1299      2.6120    -22.3325    -51.7996
   1349.5000      0.8350      1.5730      0.8350      1.5730      2.6780    -18.1308      2.6780    -22.3345    -51.8023
   1350.0000      1.0010      1.6180      1.0010      1.6180      2.8100    -18.4557      2.8100    -22.6605    -52.7307
   1350.5000      1.1390      1.7170      1.1390      1.7170      2.7380    -19.8537      2.7380    -24.0595    -56.7248
   1351.0000      1.1860      1.7530      1.1860      1.7530      2.6660    -20.8291      2.6660    -25.0360    -59.5118
   1351.5000      1.2320      1.8360      1.2320      1.8360      2.5450    -20.9521      2.5450    -25.1600    -59.8631
   1352.0000      1.2540      1.8640      1.2540      1.8640      2.5540    -21.0755      2.5540    -25.2845    -60.2158
   1352.5000      1.2760      1.8700      1.2760      1.8700      2.5620    -20.5140      2.5620    -24.7240    -58.6114
   1353.0000      1.1770      1.8400      1.1770      1.8400      2.5780    -19.6254      2.5780    -23.8365    -56.0726
   1353.5000      1.0630      1.7660      1.0630      1.7660      2.5270    -18.3954      2.5270    -22.6075    -52.5582
   1354.0000      1.0360      1.6930      1.0360      1.6930      2.4760    -16.3233      2.4760    -20.5365    -46.6380
   1354.5000      1.0120      1.6380      1.0120      1.6380      2.2600    -14.2028      2.2600    -18.4170    -40.5793
   1355.0000      1.0040      1.5840      1.0040      1.5840      2.2100    -13.4922      2.2100    -17.7075    -38.5491
   1355.5000      0.9950      1.5630      0.9950      1.5630      2.2550    -13.4146      2.2550    -17.6310    -38.3276
   1356.0000      0.9940      1.5560      0.9940      1.5560      2.2900    -17.2116      2.2900    -21.4290    -49.1760
   1356.5000      0.9960      1.5490      0.9960      1.5490      2.2790    -17.9915      2.2790    -22.2100    -51.4044
   1357.0000      0.9990      1.5410      0.9990      1.5410      2.1840    -17.7205      2.1840    -21.9400    -50.6299
   1357.5000      1.0060      1.5330      1.0060      1.5330      2.0820    -16.9119      2.0820    -21.1325    -48.3198
   1358.0000      1.0130      1.5260      1.0130      1.5260      2.0260    -16.0884      2.0260    -20.3100    -45.9668
   1358.5000      1.0090      1.5200      1.0090      1.5200      1.9830    -16.3993      1.9830    -20.6220    -46.8552
   1359.0000      0.9980      1.5150      0.9980      1.5150      1.9470    -17.1653      1.9470    -21.3890    -49.0436
   1359.5000      0.9880      1.5110      0.9880      1.5110      1.9180    -17.5092      1.9180    -21.7340    -50.0263
   1360.0000      0.9270      1.5070      0.9270      1.5070      1.8900    -17.0416      1.8900    -21.2675    -48.6904
   1360.5000      0.8660      1.5030      0.8660      1.5030      1.8570    -16.6056      1.8570    -20.8325    -47.4445
   1361.0000      0.8190      1.4990      0.8190      1.4990      1.8230    -16.0090      1.8230    -20.2370    -45.7401
   1361.5000      0.8380      1.4940      0.8380      1.4940      1.8010    -17.2445      1.8010    -21.4735    -49.2699
   1362.0000      0.8520      1.4940      0.8520      1.4940      1.7790    -18.3654      1.7790    -22.5955    -52.4726
   1362.5000      0.8660      1.4930      0.8660      1.4930      1.7620    -18.3529      1.7620    -22.5840    -52.4368
   1363.0000      0.8910      1.4990      0.8910      1.4990      1.7580    -17.4473      1.7580    -21.6795    -49.8495
   1363.5000      0.9060      1.5040      0.9060      1.5040      1.7550    -14.1923      1.7550    -18.4255    -40.5493
   1364.0000      0.9220      1.5130      0.9220      1.5130      1.7620    -11.9577      1.7620    -16.1920    -34.1648
   1364.5000      0.9290      1.5220      0.9290      1.5220      1.7690    -10.8916      1.7690    -15.1270    -31.1190
   1365.0000      0.9360      1.5410      0.9360      1.5410      1.7770    -10.7151      1.7770    -14.9515    -30.6145
   1365.5000      0.9480      1.5720      0.9480      1.5720      1.7800    -17.2365      1.7800    -21.4740    -49.2472
   1366.0000      0.9600      1.5970      0.9600      1.5970      1.7830    -17.7895      1.7830    -22.0280    -50.8271
   1366.5000      0.9660      1.6290      0.9660      1.6290      1.7850    -18.0679      1.7850    -22.3075    -51.6226
   1367.0000      0.9720      1.6700      0.9720      1.6700      1.7770    -18.1269      1.7770    -22.3675    -51.7911
   1367.5000      0.9780      1.6950      0.9780      1.6950      1.7700    -18.1858      1.7700    -22.4275    -51.9595
   1368.0000      0.9830      1.7170      0.9830      1.7170      1.7600    -17.8968      1.7600    -22.1395    -51.1336
   1368.5000      0.9890      1.7230      0.9890      1.7230      1.7500    -17.6077      1.7500    -21.8515    -50.3077
   1369.0000      0.9910      1.7290      0.9910      1.7290      1.7090    -16.2196      1.7090    -20.4645    -46.3419
   1369.5000      0.9930      1.7070      0.9930      1.7070      1.7270    -15.4926      1.7270    -19.7385    -44.2645
