~V
VERS. 2.00: Ver 2.00
WRAP.   NO:        
~W
 STRT.FT 30:
 STOP.FT 4020:
 STEP.FT 0.5:
 NULL. -999.250000:
 COMP. Western Gulf (Chevron):Company
 WELL. KCL-SAN EMIDIO #3:Well
 FLD. :Field
 LOC. S27 T11N R22W:Location
 STAT. CA:State
 SRVC. :Service Company
 SON. :Service Order #
 DATE. :Log Date
 UWI. :Unique Well ID
~C
 DEPT.FT :
 LAT.OHMM :
 LN.OHMM :
 RD.OHMM :
 RM.OHMM :
 RS.OHMM :
 SBL.MV :
 SN.OHMM :
 SP.MV :
 SPN. :
~P
~A
# ...
   2944.5000      1.9330      3.0440      1.9330      3.0440      6.2020    -30.5677      6.2020    -40.5490    -87.3364
   2945.0000      1.8680      3.0050      1.8680      3.0050      6.1140    -27.2266      6.1140    -37.2105    -77.7902
   2945.5000      1.8670      2.9660      1.8670      2.9660      6.0260    -25.5879      6.0260    -35.5745    -73.1082
   2946.0000      1.8670      2.7180      1.8670      2.7180      5.6620    -23.7222      5.6620    -33.7115    -67.7777
   2946.5000      1.8700      2.6010      1.8700      2.6010      4.9920    -22.5210      4.9920    -32.5130    -64.3458
   2947.0000      1.8150      2.6100      1.8150      2.6100      4.7870    -22.7474      4.7870    -32.7420    -64.9924
   2947.5000      1.7040      2.6360      1.7040      2.6360      4.7280    -22.6162      4.7280    -32.6135    -64.6176
   2948.0000      1.6870      2.6620      1.6870      2.6620      4.6470    -21.9175      4.6470    -31.9175    -62.6214
   2948.5000      1.7260      2.6880      1.7260      2.6880      4.5070    -22.1945      4.5070    -32.2265    -63.4129
   2949.0000      1.8650      2.6870      1.8650      2.6870      4.3440    -23.3635      4.3440    -33.4275    -66.7529
   2949.5000      1.9720      2.6480      1.9720      2.6480      4.3150    -26.2670      4.3150    -36.3630    -75.0486
   2950.0000      2.0530      2.6090      2.0530      2.6090      4.7330    -29.9320      4.7330    -40.0600    -85.5200
   2950.5000      2.0900      2.5630      2.0900      2.5630      5.2300    -30.1195      5.2300    -40.2795    -86.0557
   2951.0000      2.1280      2.5690      2.1280      2.5690      6.2280    -30.3070      6.2280    -40.4990    -86.5914
   2951.5000      2.1210      2.6340      2.1210      2.6340      9.2230    -31.2000      9.2230    -41.4240    -89.1429
   2952.0000      2.0590      2.6990      2.0590      2.6990      9.5210    -31.6715      9.5210    -41.9275    -90.4900
   2952.5000      1.9970      3.0300      1.9970      3.0300      9.6670    -32.1585      9.6670    -42.4465    -91.8814
   2953.0000      1.8990      3.0390      1.8990      3.0390      9.7450    -32.1930      9.7450    -42.5130    -91.9800
   2953.5000      1.8180      3.0330      1.8180      3.0330      9.2220    -31.5455      9.2220    -41.8975    -90.1300
   2954.0000      1.7360      2.9790      1.7360      2.9790      8.7800    -28.5310      8.7800    -38.9150    -81.5172
   2954.5000      1.6740      2.9250      1.6740      2.9250      6.9510    -25.3065      6.9510    -35.7225    -72.3043
   2955.0000      1.5930      2.7500      1.5930      2.7500      6.0240    -24.0110      6.0240    -34.4590    -68.6029
   2955.5000      1.5210      2.5740      1.5210      2.5740      5.2610    -23.2990      5.2610    -33.7790    -66.5686
   2956.0000      1.4360      2.2970      1.4360      2.2970      4.5290    -22.9915      4.5290    -33.5035    -65.6900
   2956.5000      1.4280      2.2260      1.4280      2.2260      4.3630    -22.7660      4.3630    -33.3100    -65.0457
   2957.0000      1.4200      2.1540      1.4200      2.1540      4.2820    -23.0265      4.2820    -33.6025    -65.7900
   2957.5000      1.5660      2.0990      1.5660      2.0990      4.2850    -24.3570      4.2850    -34.9650    -69.5914
   2958.0000      1.6350      2.1660      1.6350      2.1660      4.3500    -26.2870      4.3500    -36.9270    -75.1057
   2958.5000      1.7050      2.2410      1.7050      2.2410      4.4700    -27.6335      4.4700    -38.3055    -78.9529
   2959.0000      1.7990      2.3350      1.7990      2.3350      4.6060    -30.0660      4.6060    -40.7700    -85.9029
   2959.5000      1.8930      2.4360      1.8930      2.4360      5.1480    -31.6725      5.1480    -42.4085    -90.4929
   2960.0000      1.9480      2.4970      1.9480      2.4970      5.5480    -32.5005      5.5480    -43.2685    -92.8586
   2960.5000      1.9410      2.5590      1.9410      2.5590      5.8850    -33.1505      5.8850    -43.9505    -94.7157
   2961.0000      1.9350      2.5880      1.9350      2.5880      6.3820    -33.2645      6.3820    -44.0965    -95.0414
   2961.5000      1.8500      2.6170      1.8500      2.6170      6.6740    -33.2500      6.6740    -44.1140    -95.0000
   2962.0000      1.8280      2.5820      1.8280      2.5820      6.8500    -33.1700      6.8500    -44.0660    -94.7714
   2962.5000      1.8070      2.5480      1.8070      2.5480      6.9790    -33.0165      6.9790    -43.9445    -94.3329
   2963.0000      1.8000      2.3720      1.8000      2.3720      6.7550    -32.8630      6.7550    -43.8230    -93.8943
   2963.5000      1.8460      2.2740      1.8460      2.2740      6.5990    -31.5195      6.5990    -42.5115    -90.0557
   2964.0000      1.8810      2.1730      1.8810      2.1730      6.4910    -30.9205      6.4910    -41.9445    -88.3443
   2964.5000      2.1050      2.1570      2.1050      2.1570      6.5070    -30.5490      6.5070    -41.6050    -87.2829
   2965.0000      2.1860      2.1880      2.1860      2.1880      6.7380    -30.7290      6.7380    -41.8170    -87.7971
   2965.5000      2.3550      2.2180      2.3550      2.2180      7.1730    -31.0055      7.1730    -42.1255    -88.5871
   2966.0000      2.4260      2.5140      2.4260      2.5140      7.6310    -31.1195      7.6310    -42.2715    -88.9129
   2966.5000      2.4310      2.8130      2.4310      2.8130      8.2930    -31.1855      8.2930    -42.3695    -89.1014
   2967.0000      2.4350      2.9970      2.4350      2.9970      8.9270    -31.2515      8.9270    -42.4675    -89.2900
   2967.5000      2.4220      3.0850      2.4220      3.0850      9.1600    -31.3335      9.1600    -42.5815    -89.5243
   2968.0000      2.3630      3.1720      2.3630      3.1720      9.5790    -31.4155      9.5790    -42.6955    -89.7586
   2968.5000      2.1070      3.2060      2.1070      3.2060      9.6960    -31.6110      9.6960    -42.9230    -90.3172
   2969.0000      1.9180      3.2400      1.9180      3.2400      9.5430    -29.5665      9.5430    -40.9105    -84.4757
   2969.5000      1.7940      3.2040      1.7940      3.2040      9.4830    -30.0715      9.4830    -41.4475    -85.9186
   2970.0000      1.7420      2.7820      1.7420      2.7820      9.4220    -30.5765      9.4220    -41.9845    -87.3614
   2970.5000      1.7120      2.6910      1.7120      2.6910      8.2560    -39.6554      8.2560    -51.0954   -113.3011
   2971.0000      1.6990      2.5990      1.6990      2.5990      7.0730    -40.7025      7.0730    -52.1745   -116.2928
   2971.5000      1.6890      2.5750      1.6890      2.5750      6.7740    -42.6581      6.7740    -54.1621   -121.8803
   2972.0000      1.6790      2.5500      1.6790      2.5500      6.7610    -43.6472      6.7610    -55.1832   -124.7062
   2972.5000      1.6810      2.5780      1.6810      2.5780      7.1210    -44.3635      7.1210    -55.9315   -126.7530
   2973.0000      1.6820      2.6060      1.6820      2.6060      7.6280    -44.9282      7.6280    -56.5282   -128.3662
   2973.5000      1.7010      2.6340      1.7010      2.6340      8.1340    -45.2972      8.1340    -56.9292   -129.4206
   2974.0000      1.7370      2.6840      1.7370      2.6840      8.2540    -45.5175      8.2540    -57.1815   -130.0500
   2974.5000      1.7790      2.7340      1.7790      2.7340      8.3740    -44.7948      8.3740    -56.4908   -127.9853
   2975.0000      1.8320      2.8350      1.8320      2.8350      8.4290    -44.1179      8.4290    -55.8459   -126.0513
   2975.5000      1.8860      2.9140      1.8860      2.9140      8.4840    -43.2898      8.4840    -55.0498   -123.6851
   2976.0000      2.0410      2.9930      2.0410      2.9930      8.6400    -42.4256      8.6400    -54.2176   -121.2160
   2976.5000      2.1910      3.0550      2.1910      3.0550      9.0290    -41.5244      9.0290    -53.3484   -118.6411
   2977.0000      2.3270      3.1160      2.3270      3.1160      9.3900    -40.7249      9.3900    -52.5809   -116.3570
   2977.5000      2.4270      3.1710      2.4270      3.1710      9.5850    -39.9813      9.5850    -51.8693   -114.2323
