~V
VERS. 2.00: Ver 2.00
WRAP.   NO:        
~W
 STRT.FT 30:
 STOP.FT 4020:
 STEP.FT 0.5:
 NULL. -999.250000:
 COMP. Western Gulf (Chevron):Company
 WELL. KCL-SAN EMIDIO #3:Well
 FLD. :Field
 LOC. S27 T11N R22W:Location
 STAT. CA:State
 SRVC. :Service Company
 SON. :Service Order #
 DATE. :Log Date
 UWI. :Unique Well ID
~C
 DEPT.FT :
 LAT.OHMM :
 LN.OHMM :
 RD.OHMM :
 RM.OHMM :
 RS.OHMM :
 SBL.MV :
 SN.OHMM :
 SP.MV :
 SPN. :
~P
~A
# ...
   3983.0000      1.6820      2.1440      1.6820      2.1440      4.1820    -44.9000      4.1820    -54.9000   -128.2857
   3983.5000      1.6930      2.0660      1.6930      2.0660      4.0020    -43.1550      4.0020    -53.1550   -123.3000
   3984.0000      1.7540      1.9520      1.7540      1.9520      4.1160    -45.7550      4.1160    -55.7550   -130.7286
   3984.5000      1.7920      1.8730      1.7920      1.8730      4.3620    -46.9910      4.3620    -56.9910   -134.2600
   3985.0000      1.8310      1.8790      1.8310      1.8790      4.5470    -48.2280      4.5470    -58.2280   -137.7943
   3985.5000      1.8820      1.9440      1.8820      1.9440      4.1630    -48.2350      4.1630    -58.2350   -137.8143
   3986.0000      1.9340      2.0100      1.9340      2.0100      4.0290    -48.4020      4.0290    -58.4020   -138.2914
   3986.5000      1.9750      2.0760      1.9750      2.0760      4.3760    -48.5690      4.3760    -58.5690   -138.7686
   3987.0000      1.9940      2.1020      1.9940      2.1020      4.9480    -52.2400      4.9480    -62.2400   -149.2572
   3987.5000      2.0140      2.1270      2.0140      2.1270      5.1970    -53.9960      5.1970    -63.9960   -154.2743
   3988.0000      2.0390      2.1590      2.0390      2.1590      5.3270    -48.2310      5.3270    -58.2310   -137.8029
   3988.5000      2.0650      2.1910      2.0650      2.1910      5.2450    -42.9850      5.2450    -52.9850   -122.8143
   3989.0000      2.1220      2.1760      2.1220      2.1760      3.9550    -39.9420      3.9550    -49.9420   -114.1200
   3989.5000      2.1450      2.1610      2.1450      2.1610      3.8860    -40.9540      3.8860    -50.9540   -117.0114
   3990.0000      1.9460      2.1300      1.9460      2.1300      3.8890    -37.8140      3.8890    -47.8140   -108.0400
   3990.5000      1.8610      2.0980      1.8610      2.0980      3.7190    -30.5570      3.7190    -40.5570    -87.3057
   3991.0000      1.9260      2.0230      1.9260      2.0230      3.3450    -29.2010      3.3450    -39.2010    -83.4314
   3991.5000      1.9900      2.0160      1.9900      2.0160      3.0950    -43.3100      3.0950    -53.3100   -123.7429
   3992.0000      2.0160      2.0190      2.0160      2.0190      3.4910    -47.6280      3.4910    -57.6280   -136.0800
   3992.5000      1.9920      2.0700      1.9920      2.0700      4.2830    -49.7730      4.2830    -59.7730   -142.2086
   3993.0000      1.9690      2.1540      1.9690      2.1540      4.3130    -50.2010      4.3130    -60.2010   -143.4314
   3993.5000      1.9230      2.1850      1.9230      2.1850      4.3440    -49.7520      4.3440    -59.7520   -142.1486
   3994.0000      1.8930      2.2150      1.8930      2.2150      4.7300    -48.7860      4.7300    -58.7860   -139.3886
   3994.5000      1.8640      2.2660      1.8640      2.2660      4.8560    -48.1430      4.8560    -58.1430   -137.5515
   3995.0000      1.8240      2.3160      1.8240      2.3160      4.9330    -47.2400      4.9330    -57.2400   -134.9714
   3995.5000      1.8290      2.3660      1.8290      2.3660      4.9260    -45.3990      4.9260    -55.3990   -129.7114
   3996.0000      1.8330      2.4060      1.8330      2.4060      4.8020    -43.2650      4.8020    -53.2650   -123.6143
   3996.5000      1.8420      2.4460      1.8420      2.4460      4.5160    -41.1940      4.5160    -51.1940   -117.6971
   3997.0000      1.8530      2.4240      1.8530      2.4240      4.2260    -37.3430      4.2260    -47.3430   -106.6943
   3997.5000      1.8640      2.4020      1.8640      2.4020      4.0110    -36.4070      4.0110    -46.4070   -104.0200
   3998.0000      1.8670      2.3800      1.8670      2.3800      3.8940    -36.0240      3.8940    -46.0240   -102.9257
   3998.5000      1.8700      2.3410      1.8700      2.3410      3.8810    -38.9470      3.8810    -48.9470   -111.2771
   3999.0000      1.8510      2.3010      1.8510      2.3010      3.9870    -47.2850      3.9870    -57.2850   -135.1000
   3999.5000      1.8330      2.2840      1.8330      2.2840      4.1100    -54.5540      4.1100    -64.5540   -155.8686
   4000.0000      1.7920      2.2680      1.7920      2.2680      4.6170    -56.4720      4.6170    -66.4720   -161.3486
   4000.5000      1.7520      2.2600      1.7520      2.2600      4.8540    -55.3630      4.8540    -65.3630   -158.1800
   4001.0000      1.7240      2.2520      1.7240      2.2520      4.9680    -52.6310      4.9680    -62.6310   -150.3743
   4001.5000      1.6970      2.2490      1.6970      2.2490      4.4940    -48.6030      4.4940    -58.6030   -138.8657
   4002.0000      1.6710      2.2530      1.6710      2.2530      4.0140    -44.9320      4.0140    -54.9320   -128.3771
   4002.5000      1.6460      2.2560      1.6460      2.2560      4.3610    -44.0970      4.3610    -54.0970   -125.9914
   4003.0000      1.6260      2.2640      1.6260      2.2640      4.4690    -43.2620      4.4690    -53.2620   -123.6057
   4003.5000      1.6300      2.2720      1.6300      2.2720      4.4920    -41.1170      4.4920    -51.1170   -117.4772
   4004.0000      1.6370      2.2800      1.6370      2.2800      4.0250    -37.0230      4.0250    -47.0230   -105.7800
   4004.5000      1.6500      2.2900      1.6500      2.2900      3.8560    -36.5950      3.8560    -46.5950   -104.5572
   4005.0000      1.6640      2.3040      1.6640      2.3040      3.9250    -36.1660      3.9250    -46.1660   -103.3314
   4005.5000      1.6870      2.3190      1.6870      2.3190      3.9870    -33.9540      3.9870    -43.9540    -97.0114
   4006.0000      1.7100      2.3330      1.7100      2.3330      3.9930    -32.3250      3.9930    -42.3250    -92.3571
   4006.5000      1.7970      2.4080      1.7970      2.4080      3.4710    -29.8870      3.4710    -39.8870    -85.3914
   4007.0000      1.8530      2.4670      1.8530      2.4670      3.1270    -28.4210      3.1270    -38.4210    -81.2029
   4007.5000      1.9050      2.5390      1.9050      2.5390      3.2540    -27.1160      3.2540    -37.1160    -77.4743
   4008.0000      1.9580      2.6030      1.9580      2.6030      3.2640    -26.0390      3.2640    -36.0390    -74.3972
   4008.5000      2.1330      2.6660      2.1330      2.6660      3.2740    -25.6740      3.2740    -35.6740    -73.3543
   4009.0000      2.2380      2.7350      2.2380      2.7350      3.2710    -25.3100      3.2710    -35.3100    -72.3143
   4009.5000      2.2900      2.8200      2.2900      2.8200      3.3330    -25.4980      3.3330    -35.4980    -72.8514
   4010.0000      2.3430      2.9500      2.3430      2.9500      3.7850    -27.2070      3.7850    -37.2070    -77.7343
   4010.5000      2.3950      3.0270      2.3950      3.0270      4.3570    -28.8550      4.3570    -38.8550    -82.4429
   4011.0000      2.4470      3.1030      2.4470      3.1030      4.6690    -29.2350      4.6690    -39.2350    -83.5286
   4011.5000      2.4570      3.1720      2.4570      3.1720      4.7930    -30.0710      4.7930    -40.0710    -85.9171
   4012.0000      2.4610      3.2410      2.4610      3.2410      4.9430    -32.0730      4.9430    -42.0730    -91.6372
   4012.5000      2.4670      3.1840      2.4670      3.1840      5.1410    -32.7470      5.1410    -42.7470    -93.5629
   4013.0000      2.4740      3.1270      2.4740      3.1270      5.2490    -32.5440      5.2490    -42.5440    -92.9829
   4013.5000      2.4840      3.0890      2.4840      3.0890      5.0020    -32.3400      5.0020    -42.3400    -92.4000
   4014.0000      2.4950      3.0500      2.4950      3.0500      4.3530    -31.7170      4.3530    -41.7170    -90.6200
   4014.5000      2.5140      3.0180      2.5140      3.0180      4.0480    -31.0940      4.0480    -41.0940    -88.8400
   4015.0000      2.5370      3.0090      2.5370      3.0090      3.9930    -30.1810      3.9930    -40.1810    -86.2314
   4015.5000      2.5460      3.0010      2.5460      3.0010      4.2530    -29.9450      4.2530    -39.9450    -85.5571
   4016.0000      2.5540      2.9930      2.5540      2.9930      4.5980    -29.7100      4.5980    -39.7100    -84.8857
