~V
VERS. 2.00: Ver 2.00
WRAP.   NO:        
~W
 STRT.FT 30:
 STOP.FT 4020:
 STEP.FT 0.5:
 NULL. -999.250000:
 COMP. Western Gulf (Chevron):Company
 WELL. KCL-SAN EMIDIO #3:Well
 FLD. :Field
 LOC. S27 T11N R22W:Location
 STAT. CA:State
 SRVC. :Service Company
 SON. :Service Order #
 DATE. :Log Date
 UWI. :Unique Well ID
~C
 DEPT.FT :
 LAT.OHMM :
 LN.OHMM :
 RD.OHMM :
 RM.OHMM :
 RS.OHMM :
 SBL.MV :
 SN.OHMM :
 SP.MV :
 SPN. :
~P
~A
# ...
   2408.5000      2.6430      3.8700      2.6430      3.8700      3.9120     -9.4355      3.9120    -16.5485    -26.9584
   2409.0000      2.7850      3.9290      2.7850      3.9290      4.0370     -9.1443      4.0370    -16.2600    -26.1265
   2409.5000      2.8850      4.0420      2.8850      4.0420      4.1750    -11.6921      4.1750    -18.8105    -33.4060
   2410.0000      2.9300      4.0940      2.9300      4.0940      4.2590    -16.0054      4.2590    -23.1265    -45.7298
   2410.5000      2.9200      4.1450      2.9200      4.1450      4.3100    -18.6978      4.3100    -25.8215    -53.4222
   2411.0000      2.5330      3.8260      2.5330      3.8260      4.2940    -21.1631      4.2940    -28.2895    -60.4659
   2411.5000      2.1060      3.3380      2.1060      3.3380      3.9520    -22.7854      3.9520    -29.9145    -65.1012
   2412.0000      1.9660      3.0810      1.9660      3.0810      3.6980    -24.6677      3.6980    -31.7995    -70.4792
   2412.5000      1.8880      2.8720      1.8880      2.8720      3.5220    -22.6591      3.5220    -29.7935    -64.7402
   2413.0000      1.7630      2.8940      1.7630      2.8940      3.2580    -21.0394      3.2580    -28.1765    -60.1125
   2413.5000      1.7840      2.9520      1.7840      2.9520      3.0040    -17.9122      3.0040    -25.0520    -51.1777
   2414.0000      1.8050      3.0780      1.8050      3.0780      2.9580    -16.0655      2.9580    -23.2080    -45.9015
   2414.5000      2.0310      3.2460      2.0310      3.2460      3.1330    -13.1974      3.1330    -20.3425    -37.7067
   2415.0000      2.1120      3.3850      2.1120      3.3850      3.4050     -8.9842      3.4050    -16.1320    -25.6691
   2415.5000      2.1930      3.5570      2.1930      3.5570      3.5890     -8.7910      3.5890    -15.9415    -25.1171
   2416.0000      2.7180      3.7740      2.7180      3.7740      4.0660     -9.1978      4.0660    -16.3510    -26.2795
   2416.5000      2.9610      4.1860      2.9610      4.1860      4.3770    -10.9661      4.3770    -18.1220    -31.3318
   2417.0000      3.3270      4.5330      3.3270      4.5330      4.4940    -14.0480      4.4940    -21.2065    -40.1371
   2417.5000      3.6870      4.8960      3.6870      4.8960      4.6100    -11.7153      4.6100    -18.8765    -33.4723
   2418.0000      3.6320      5.0740      3.6320      5.0740      5.0740    -11.8296      5.0740    -18.9935    -33.7989
   2418.5000      3.3350      5.3040      3.3350      5.3040      5.3820    -12.8849      5.3820    -20.0515    -36.8141
   2419.0000      3.0060      5.4490      3.0060      5.4490      5.3460    -11.2013      5.3460    -18.3705    -32.0036
   2419.5000      2.7330      4.6980      2.7330      4.6980      4.8800     -9.5161      4.8800    -16.6880    -27.1888
   2420.0000      2.4530      4.1390      2.4530      4.1390      4.1750     -9.0479      4.1750    -16.2225    -25.8512
   2420.5000      2.3450      3.9760      2.3450      3.9760      3.8070     -9.0167      3.8070    -16.1940    -25.7621
   2421.0000      2.3570      3.8130      2.3570      3.8130      3.6890    -10.1046      3.6890    -17.2845    -28.8702
   2421.5000      2.3570      3.3740      2.3570      3.3740      3.6430    -11.4349      3.6430    -18.6175    -32.6711
   2422.0000      2.3500      2.9350      2.3500      2.9350      3.5970    -13.9002      3.5970    -21.0855    -39.7149
   2422.5000      2.2970      2.9690      2.2970      2.9690      3.5300    -15.3610      3.5300    -22.5490    -43.8887
   2423.0000      2.2410      3.0860      2.2410      3.0860      3.4630    -14.5359      3.4630    -21.7265    -41.5311
   2423.5000      2.1720      3.2380      2.1720      3.2380      3.3680    -13.4352      3.3680    -20.6285    -38.3863
   2424.0000      2.1620      3.2730      2.1620      3.2730      3.3410    -13.0305      3.3410    -20.2265    -37.2300
   2424.5000      2.2030      3.3080      2.2030      3.3080      3.3340    -13.1778      3.3340    -20.3765    -37.6510
   2425.0000      2.2380      3.3630      2.2380      3.3630      3.3670    -13.9737      3.3670    -21.1750    -39.9248
   2425.5000      2.2740      3.4850      2.2740      3.4850      3.4010    -14.9155      3.4010    -22.1195    -42.6157
   2426.0000      2.2790      3.6630      2.2790      3.6630      3.5270    -15.9868      3.5270    -23.1935    -45.6766
   2426.5000      2.2800      3.8970      2.2800      3.8970      3.5880    -15.5991      3.5880    -22.8085    -44.5690
   2427.0000      2.2810      3.9740      2.2810      3.9740      3.5840    -13.4290      3.5840    -20.6410    -38.3685
   2427.5000      2.2900      4.0580      2.2900      4.0580      3.5540    -13.1713      3.5540    -20.3860    -37.6322
   2428.0000      2.2910      4.1420      2.2910      4.1420      3.5340    -13.1401      3.5340    -20.3575    -37.5432
   2428.5000      2.2920      4.1950      2.2920      4.1950      3.5140    -12.9954      3.5140    -20.2155    -37.1298
   2429.0000      2.3050      4.2480      2.3050      4.2480      3.5560    -12.5913      3.5560    -19.8140    -35.9750
   2429.5000      2.3170      4.3210      2.3170      4.3210      3.5970    -12.2041      3.5970    -19.4295    -34.8688
   2430.0000      2.3360      4.2560      2.3360      4.2560      3.6940    -12.1569      3.6940    -19.3850    -34.7340
   2430.5000      2.3580      4.1770      2.3580      4.1770      3.7610    -12.4177      3.7610    -19.6485    -35.4792
   2431.0000      2.3800      4.0830      2.3800      4.0830      3.7770    -13.2296      3.7770    -20.4630    -37.7987
   2431.5000      2.4580      3.9680      2.4580      3.9680      3.7150    -14.5439      3.7150    -21.7800    -41.5540
   2432.0000      2.5350      3.9090      2.5350      3.9090      3.5840    -15.9882      3.5840    -23.2270    -45.6806
   2432.5000      2.6740      3.8500      2.6740      3.8500      3.5050    -17.0430      3.5050    -24.2845    -48.6944
   2433.0000      2.6150      3.8230      2.6150      3.8230      3.5210    -13.5594      3.5210    -20.8035    -38.7410
   2433.5000      2.4740      3.7970      2.4740      3.7970      3.5710    -11.2752      3.5710    -18.5220    -32.2148
   2434.0000      2.4150      3.7700      2.4150      3.7700      3.6210     -9.5910      3.6210    -16.8405    -27.4029
   2434.5000      2.3920      3.7560      2.3920      3.7560      3.6180     -9.1383      3.6180    -16.3905    -26.1095
   2435.0000      2.4120      3.7490      2.4120      3.7490      3.6160     -9.7397      3.6160    -16.9945    -27.8276
   2435.5000      2.4330      3.7420      2.4330      3.7420      3.6050     -9.9195      3.6050    -17.1770    -28.3414
   2436.0000      2.4600      3.7280      2.4600      3.7280      3.6110     -9.5808      3.6110    -16.8410    -27.3737
   2436.5000      2.4870      3.7110      2.4870      3.7110      3.6200     -9.4681      3.6200    -16.7310    -27.0518
   2437.0000      2.5230      3.6980      2.5230      3.6980      3.6360     -9.5669      3.6360    -16.8325    -27.3341
   2437.5000      2.5600      3.6970      2.5600      3.6970      3.6420    -10.7358      3.6420    -18.0040    -30.6736
   2438.0000      2.6570      3.6960      2.6570      3.6960      3.6090    -12.4231      3.6090    -19.6940    -35.4946
   2438.5000      2.7630      3.7280      2.7630      3.7280      3.5200    -14.6779      3.5200    -21.9515    -41.9369
   2439.0000      2.8310      3.7730      2.8310      3.7730      3.4450    -16.7542      3.4450    -24.0305    -47.8693
   2439.5000      2.8390      3.8150      2.8390      3.8150      3.4220    -15.4426      3.4220    -22.7215    -44.1216
   2440.0000      2.8460      3.8500      2.8460      3.8500      3.5440    -11.8619      3.5440    -19.1435    -33.8911
   2440.5000      2.8520      3.8850      2.8520      3.8850      3.6540    -10.8092      3.6540    -18.0935    -30.8835
   2441.0000      2.8740      3.9040      2.8740      3.9040      3.7220     -9.7245      3.7220    -17.0115    -27.7844
   2441.5000      2.8960      3.9230      2.8960      3.9230      3.7890     -9.4669      3.7890    -16.7565    -27.0482
