~V
VERS. 2.00: Ver 2.00
WRAP.   NO:        
~W
 STRT.FT 30:
 STOP.FT 4020:
 STEP.FT 0.5:
 NULL. -999.250000:
 COMP. Western Gulf (Chevron):Company
 WELL. KCL-SAN EMIDIO #3:Well
 FLD. :Field
 LOC. S27 T11N R22W:Location
 STAT. CA:State
 SRVC. :Service Company
 SON. :Service Order #
 DATE. :Log Date
 UWI. :Unique Well ID
~C
 DEPT.FT :
 LAT.OHMM :
 LN.OHMM :
 RD.OHMM :
 RM.OHMM :
 RS.OHMM :
 SBL.MV :
 SN.OHMM :
 SP.MV :
 SPN. :
~P
~A
# ...
   3179.0000      2.4050      3.6370      2.4050      3.6370      2.7630     -6.4326      2.7630    -19.2290    -18.3788
   3179.5000      2.3430      3.5360      2.3430      3.5360      3.0390     -6.4871      3.0390    -19.2800    -18.5347
   3180.0000      2.3490      3.4120      2.3490      3.4120      3.0930     -6.9777      3.0930    -19.7670    -19.9363
   3180.5000      2.3690      3.2200      2.3690      3.2200      3.1260    -11.0188      3.1260    -23.8045    -31.4823
   3181.0000      2.4070      3.1420      2.4070      3.1420      3.3240    -12.3854      3.3240    -25.1675    -35.3867
   3181.5000      2.5660      3.4210      2.5660      3.4210      3.6520    -13.3949      3.6520    -26.1735    -38.2712
   3182.0000      2.7870      3.6350      2.7870      3.6350      3.9500    -13.8045      3.9500    -26.5795    -39.4414
   3182.5000      3.0270      4.0470      3.0270      4.0470      4.3850    -14.0271      4.3850    -26.7985    -40.0774
   3183.0000      3.3580      4.3460      3.3580      4.3460      5.1710    -14.2501      5.1710    -27.0180    -40.7147
   3183.5000      3.8420      4.7650      3.8420      4.7650      5.8890    -14.3522      5.8890    -27.1165    -41.0063
   3184.0000      4.1700      4.9690      4.1700      4.9690      6.0840    -14.4538      6.0840    -27.2145    -41.2965
   3184.5000      4.4040      5.0980      4.4040      5.0980      6.2490    -14.4919      6.2490    -27.2490    -41.4053
   3185.0000      4.4230      5.1970      4.4230      5.1970      6.3070    -14.4319      6.3070    -27.1855    -41.2341
   3185.5000      4.4100      5.2616      4.4100      5.2616      6.3300    -13.8040      6.3300    -26.5540    -39.4400
   3186.0000      4.3510      5.2943      4.3510      5.2943      5.1370    -12.5116      5.1370    -25.2580    -35.7473
   3186.5000      3.9320      5.2268      3.9320      5.2268      4.0550    -10.3766      4.0550    -23.1195    -29.6476
   3187.0000      3.6390      4.7863      3.6390      4.7863      3.6260     -8.9057      3.6260    -21.6450    -25.4449
   3187.5000      3.5640      4.6869      3.5640      4.6869      3.2810     -6.9488      3.2810    -19.6845    -19.8537
   3188.0000      3.5150      4.6160      3.5150      4.6160      3.1020     -5.9804      3.1020    -18.7125    -17.0867
   3188.5000      3.4920      4.5583      3.4920      4.5583      3.0110     -5.8234      3.0110    -18.5520    -16.6384
   3189.0000      3.4620      4.5082      3.4620      4.5082      3.0300     -6.5895      3.0300    -19.3145    -18.8271
   3189.5000      3.4230      4.4276      3.4230      4.4276      3.0500     -9.8361      3.0500    -22.5575    -28.1031
   3190.0000      3.3870      4.0817      3.3870      4.0817      3.0710    -11.4781      3.0710    -24.1960    -32.7947
   3190.5000      3.3350      3.7220      3.3350      3.7220      3.0920    -12.6502      3.0920    -25.3645    -36.1435
   3191.0000      3.2890      3.4194      3.2890      3.4194      3.1320    -13.7243      3.1320    -26.4350    -39.2122
   3191.5000      3.2300      3.3290      3.2300      3.3290      3.1720    -14.4099      3.1720    -27.1170    -41.1710
   3192.0000      3.1850      3.2736      3.1850      3.2736      3.2110    -14.7059      3.2110    -27.4095    -42.0169
   3192.5000      3.1680      3.2383      3.1680      3.2383      3.2370    -11.1770      3.2370    -23.8770    -31.9343
   3193.0000      3.4670      3.3318      3.4670      3.3318      3.2100     -8.4581      3.2100    -21.1545    -24.1659
   3193.5000      3.9900      4.4124      3.9900      4.4124      3.0990     -6.9551      3.0990    -19.6480    -19.8718
   3194.0000      4.1000      4.6534      4.1000      4.6534      3.0500     -7.5592      3.0500    -20.2485    -21.5978
   3194.5000      4.1580      4.8105      4.1580      4.8105      3.1150     -8.3098      3.1150    -20.9955    -23.7422
   3195.0000      4.1800      4.9170      4.1800      4.9170      3.1800     -7.9734      3.1800    -20.6555    -22.7810
   3195.5000      4.1900      4.9691      4.1900      4.9691      3.2060     -7.6369      3.2060    -20.3155    -21.8198
   3196.0000      4.2000      4.8770      4.2000      4.8770      3.0950     -7.5120      3.0950    -20.1870    -21.4629
   3196.5000      4.0870      4.7283      4.0870      4.7283      3.1110     -7.3866      3.1110    -20.0580    -21.1045
   3197.0000      3.9750      4.5640      3.9750      4.5640      3.1270     -7.7326      3.1270    -20.4005    -22.0933
   3197.5000      3.7370      4.3365      3.7370      4.3365      3.2010     -7.9967      3.2010    -20.6610    -22.8478
   3198.0000      3.6850      4.2459      3.6850      4.2459      3.2290     -8.2283      3.2290    -20.8890    -23.5094
   3198.5000      3.6380      4.1297      3.6380      4.1297      3.2560     -7.6334      3.2560    -20.2905    -21.8096
   3199.0000      3.5910      3.9992      3.5910      3.9992      3.2140     -7.1999      3.2140    -19.8535    -20.5712
   3199.5000      3.5610      3.8622      3.5610      3.8622      3.1220     -6.9450      3.1220    -19.5950    -19.8429
   3200.0000      3.5320      3.7248      3.5320      3.7248      3.0770     -7.3546      3.0770    -20.0010    -21.0131
   3200.5000      3.4770      3.6319      3.4770      3.6319      3.1060     -9.5906      3.1060    -22.2335    -27.4018
   3201.0000      3.4350      3.5247      3.4350      3.5247      3.1360    -11.1132      3.1360    -23.7525    -31.7520
   3201.5000      3.4130      3.4122      3.4130      3.4122      3.2660    -12.3123      3.2660    -24.9480    -35.1780
   3202.0000      3.3900      3.3572      3.3900      3.3572      3.3290    -13.0239      3.3290    -25.6560    -37.2110
   3202.5000      3.3750      3.4895      3.3750      3.4895      3.3550    -13.7844      3.3550    -26.4130    -39.3841
   3203.0000      3.4160      3.5542      3.4160      3.5542      3.3620    -12.7625      3.3620    -25.3875    -36.4643
   3203.5000      3.4570      3.5580      3.4570      3.5580      3.3240    -11.8531      3.3240    -24.4745    -33.8659
   3204.0000      3.4990      3.5552      3.4990      3.5552      3.2850    -10.2961      3.2850    -22.9140    -29.4175
   3204.5000      3.5060      3.5613      3.5060      3.5613      3.2140     -9.6137      3.2140    -22.2280    -27.4678
   3205.0000      3.5130      3.5969      3.5130      3.5969      3.1430     -8.4453      3.1430    -21.0560    -24.1294
   3205.5000      3.5200      3.6580      3.5200      3.6580      3.1010     -7.2614      3.1010    -19.8685    -20.7467
   3206.0000      3.5210      3.7630      3.5210      3.7630      3.0740     -7.4054      3.0740    -20.0090    -21.1584
   3206.5000      3.5110      3.8528      3.5110      3.8528      3.0470     -9.6420      3.0470    -22.2420    -27.5486
   3207.0000      3.5020      3.9105      3.5020      3.9105      2.9760    -10.5001      2.9760    -23.0965    -30.0002
   3207.5000      3.4250      3.9303      3.4250      3.9303      2.9280    -10.6931      2.9280    -23.2860    -30.5518
   3208.0000      3.3110      3.8818      3.3110      3.8818      2.8910     -9.6872      2.8910    -22.2765    -27.6778
   3208.5000      3.1920      3.8233      3.1920      3.8233      2.8540     -7.8703      2.8540    -20.4560    -22.4865
   3209.0000      3.0650      3.7152      3.0650      3.7152      2.8310     -6.5884      2.8310    -19.1705    -18.8239
   3209.5000      3.0790      3.4865      3.0790      3.4865      2.8090     -5.3394      2.8090    -17.9180    -15.2555
   3210.0000      3.0920      3.4132      3.0920      3.4132      2.7980     -5.7105      2.7980    -18.2855    -16.3157
   3210.5000      3.1010      3.5019      3.1010      3.5019      2.7870     -6.0816      2.7870    -18.6530    -17.3759
   3211.0000      3.1100      3.6146      3.1100      3.6146      2.8000     -7.1026      2.8000    -19.6705    -20.2933
   3211.5000      3.0780      3.7082      3.0780      3.7082      2.8120     -7.6692      2.8120    -20.2335    -21.9120
   3212.0000      3.0460      3.7743      3.0460      3.7743      2.8250     -8.0163      2.8250    -20.5770    -22.9037
