~V
VERS. 2.00: Ver 2.00
WRAP.   NO:        
~W
 STRT.FT 30:
 STOP.FT 4020:
 STEP.FT 0.5:
 NULL. -999.250000:
 COMP. Western Gulf (Chevron):Company
 WELL. KCL-SAN EMIDIO #3:Well
 FLD. :Field
 LOC. S27 T11N R22W:Location
 STAT. CA:State
 SRVC. :Service Company
 SON. :Service Order #
 DATE. :Log Date
 UWI. :Unique Well ID
~C
 DEPT.FT :
 LAT.OHMM :
 LN.OHMM :
 RD.OHMM :
 RM.OHMM :
 RS.OHMM :
 SBL.MV :
 SN.OHMM :
 SP.MV :
 SPN. :
~P
~A
# ...
   2140.5000      2.3230      3.5710      2.3230      3.5710      3.6500    -14.0226      3.6500    -19.8960    -40.0647
   2141.0000      2.3890      3.5580      2.3890      3.5580      3.7290    -14.0251      3.7290    -19.8995    -40.0717
   2141.5000      2.5660      3.5440      2.5660      3.5440      3.8080    -13.9460      3.8080    -19.8215    -39.8458
   2142.0000      2.6430      3.5450      2.6430      3.5450      3.9160    -14.1605      3.9160    -20.0370    -40.4585
   2142.5000      2.7370      3.5460      2.7370      3.5460      4.0240    -14.3394      4.0240    -20.2170    -40.9698
   2143.0000      2.7930      3.6550      2.7930      3.6550      4.1750    -14.2029      4.1750    -20.0815    -40.5796
   2143.5000      2.8490      3.7070      2.8490      3.7070      3.9630    -14.0663      3.9630    -19.9460    -40.1895
   2144.0000      3.0210      3.7480      3.0210      3.7480      3.7450    -14.1678      3.7450    -20.0485    -40.4793
   2144.5000      3.1630      3.7640      3.1630      3.7640      3.6600    -14.7052      3.6600    -20.5870    -42.0149
   2145.0000      3.3110      3.7690      3.3110      3.7690      3.5290    -13.7022      3.5290    -19.5850    -39.1490
   2145.5000      3.4830      3.7690      3.4830      3.7690      3.4240    -12.3586      3.4240    -18.2425    -35.3103
   2146.0000      3.4920      3.7210      3.4920      3.7210      3.3720    -12.1180      3.3720    -18.0030    -34.6230
   2146.5000      3.4590      3.6740      3.4590      3.6740      3.5430    -12.2495      3.5430    -18.1355    -34.9985
   2147.0000      3.4160      3.5590      3.4160      3.5590      3.9650    -13.6949      3.9650    -19.5820    -39.1284
   2147.5000      3.3430      3.5510      3.3430      3.5510      4.1980    -16.1779      4.1980    -22.0660    -46.2225
   2148.0000      3.1410      3.5570      3.1410      3.5570      4.4280    -18.5628      4.4280    -24.4520    -53.0366
   2148.5000      3.0820      3.6700      3.0820      3.6700      4.5250    -20.2343      4.5250    -26.1245    -57.8122
   2149.0000      3.0190      3.7860      3.0190      3.7860      4.6000    -20.7562      4.6000    -26.6475    -59.3035
   2149.5000      3.0670      3.9220      3.0670      3.9220      4.6760    -20.5477      4.6760    -26.4400    -58.7076
   2150.0000      3.1250      4.0020      3.1250      4.0020      4.7010    -19.8536      4.7010    -25.7470    -56.7246
   2150.5000      3.1830      4.0490      3.1830      4.0490      4.6510    -18.3980      4.6510    -24.2925    -52.5658
   2151.0000      3.2500      4.0950      3.2500      4.0950      4.4940    -16.0855      4.4940    -21.9810    -45.9585
   2151.5000      3.3170      4.1290      3.3170      4.1290      4.2360    -15.9289      4.2360    -21.8255    -45.5112
   2152.0000      3.3570      4.1090      3.3570      4.1090      3.6990    -16.4209      3.6990    -22.3185    -46.9168
   2152.5000      3.3960      3.9970      3.3960      3.9970      3.4410    -16.8143      3.4410    -22.7130    -48.0409
   2153.0000      3.4100      3.9240      3.4100      3.9240      3.3880    -17.0953      3.3880    -22.9950    -48.8436
   2153.5000      3.4230      3.7870      3.4230      3.7870      3.4050    -16.6957      3.4050    -22.5965    -47.7020
   2154.0000      3.3280      3.6300      3.3280      3.6300      3.4220    -16.1172      3.4220    -22.0190    -46.0490
   2154.5000      3.1710      3.4530      3.1710      3.4530      3.4270    -15.8781      3.4270    -21.7810    -45.3660
   2155.0000      2.9230      3.3350      2.9230      3.3350      3.3610    -16.1920      3.3610    -22.0960    -46.2630
   2155.5000      2.7360      3.2940      2.7360      3.2940      3.3150    -16.3265      3.3150    -22.2315    -46.6471
   2156.0000      2.6670      3.2520      2.6670      3.2520      3.2680    -16.1039      3.2680    -22.0100    -46.0112
   2156.5000      2.5880      3.1890      2.5880      3.1890      3.1690    -15.3154      3.1690    -21.2225    -43.7582
   2157.0000      2.5090      3.1680      2.5090      3.1680      3.1420    -14.6068      3.1420    -20.5150    -41.7338
   2157.5000      2.4430      3.2320      2.4430      3.2320      3.2940    -13.7048      3.2940    -19.6140    -39.1565
   2158.0000      2.3830      3.2780      2.3830      3.2780      3.4000    -13.1742      3.4000    -19.0845    -37.6406
   2158.5000      2.3450      3.3240      2.3450      3.3240      3.5060    -12.9207      3.5060    -18.8320    -36.9162
   2159.0000      2.3070      3.3360      2.3070      3.3360      3.7070    -12.9811      3.7070    -18.8935    -37.0889
   2159.5000      2.3210      3.3430      2.3210      3.3430      3.8210    -13.0415      3.8210    -18.9550    -37.2616
   2160.0000      2.3620      3.3510      2.3620      3.3510      3.9350    -13.1680      3.9350    -19.0825    -37.6228
   2160.5000      2.4070      3.4790      2.4070      3.4790      4.0600    -13.2944      4.0600    -19.2100    -37.9841
   2161.0000      2.4590      3.5560      2.4590      3.5560      3.9390    -13.6749      3.9390    -19.5915    -39.0711
   2161.5000      2.5120      3.6430      2.5120      3.6430      3.6710    -14.7658      3.6710    -20.6835    -42.1881
   2162.0000      2.5940      3.7870      2.5940      3.7870      3.4920    -15.2573      3.4920    -21.1760    -43.5922
   2162.5000      2.6760      3.8840      2.6760      3.8840      3.4030    -15.5387      3.4030    -21.4585    -44.3963
   2163.0000      2.6730      3.9220      2.6730      3.9220      3.3760    -15.7537      3.3760    -21.6745    -45.0104
   2163.5000      2.6700      3.9600      2.6700      3.9600      3.4290    -16.9426      3.4290    -22.8645    -48.4074
   2164.0000      2.6230      4.0010      2.6230      4.0010      3.4820    -17.2885      3.4820    -23.2115    -49.3959
   2164.5000      2.6030      3.9480      2.6030      3.9480      3.5760    -17.1640      3.5760    -23.0880    -49.0400
   2165.0000      2.6020      3.8950      2.6020      3.8950      3.6710    -16.8999      3.6710    -22.8250    -48.2855
   2165.5000      2.6010      3.7540      2.6010      3.7540      3.7540    -16.6364      3.7540    -22.5625    -47.5325
   2166.0000      2.6220      3.6450      2.6220      3.6450      3.8370    -16.2388      3.8370    -22.1660    -46.3966
   2166.5000      2.6700      3.5700      2.6700      3.5700      3.8950    -16.1633      3.8950    -22.0915    -46.1808
   2167.0000      2.7270      3.5290      2.7270      3.5290      3.9160    -16.2642      3.9160    -22.1935    -46.4692
   2167.5000      2.8690      3.5400      2.8690      3.5400      3.9380    -17.7462      3.9380    -23.6765    -50.7033
   2168.0000      2.9850      3.5500      2.9850      3.5500      3.9460    -17.9136      3.9460    -23.8450    -51.1817
   2168.5000      3.3050      3.5750      3.3050      3.5750      3.9130    -18.0470      3.9130    -23.9795    -51.5630
   2169.0000      3.4600      3.6550      3.4600      3.6550      3.5710    -18.2795      3.5710    -24.2130    -52.2271
   2169.5000      3.5860      4.0340      3.5860      4.0340      3.2020    -18.0409      3.2020    -23.9755    -51.5455
   2170.0000      3.6950      4.4620      3.6950      4.4620      3.0290    -17.0584      3.0290    -22.9940    -48.7382
   2170.5000      3.7850      4.6490      3.7850      4.6490      2.9370    -15.6848      2.9370    -21.6215    -44.8138
   2171.0000      3.8130      4.7230      3.8130      4.7230      2.8650     -8.5893      2.8650    -14.5270    -24.5408
   2171.5000      3.8410      4.7280      3.8410      4.7280      2.9740     -8.0757      2.9740    -14.0145    -23.0735
   2172.0000      3.5610      4.6620      3.5610      4.6620      3.1770     -9.3452      3.1770    -15.2850    -26.7005
   2172.5000      3.3650      4.3260      3.3650      4.3260      3.2510     -9.4486      3.2510    -15.3895    -26.9960
   2173.0000      3.0970      4.0300      3.0970      4.0300      3.3250     -9.0650      3.3250    -15.0070    -25.9001
   2173.5000      2.8100      3.6840      2.8100      3.6840      3.4180     -8.3885      3.4180    -14.3315    -23.9671
