~V
VERS. 2.00: Ver 2.00
WRAP.   NO:        
~W
 STRT.FT 30:
 STOP.FT 4020:
 STEP.FT 0.5:
 NULL. -999.250000:
 COMP. Western Gulf (Chevron):Company
 WELL. KCL-SAN EMIDIO #3:Well
 FLD. :Field
 LOC. S27 T11N R22W:Location
 STAT. CA:State
 SRVC. :Service Company
 SON. :Service Order #
 DATE. :Log Date
 UWI. :Unique Well ID
~C
 DEPT.FT :
 LAT.OHMM :
 LN.OHMM :
 RD.OHMM :
 RM.OHMM :
 RS.OHMM :
 SBL.MV :
 SN.OHMM :
 SP.MV :
 SPN. :
~P
~A
# ...
   1604.5000      0.6580      1.5240      0.6580      1.5240      2.6330    -37.3921      2.6330    -42.1340   -106.8344
   1605.0000      0.6670      1.5640      0.6670      1.5640      2.6620    -38.4810      2.6620    -43.2240   -109.9457
   1605.5000      0.6660      1.6990      0.6660      1.6990      2.6720    -37.6904      2.6720    -42.4345   -107.6870
   1606.0000      0.6660      1.9580      0.6660      1.9580      2.6830    -36.3804      2.6830    -41.1255   -103.9440
   1606.5000      0.6580      1.9640      0.6580      1.9640      2.5680    -34.9408      2.5680    -39.6870    -99.8309
   1607.0000      0.6470      1.9390      0.6470      1.9390      2.4700    -33.4528      2.4700    -38.2000    -95.5793
   1607.5000      0.6380      1.9140      0.6380      1.9140      2.4620    -31.6417      2.4620    -36.3900    -90.4049
   1608.0000      0.6290      1.8450      0.6290      1.8450      2.5620    -30.9467      2.5620    -35.6960    -88.4190
   1608.5000      0.6050      1.7760      0.6050      1.7760      2.6020    -30.8526      2.6020    -35.6030    -88.1503
   1609.0000      0.5920      1.6480      0.5920      1.6480      2.6420    -36.0435      2.6420    -40.7950   -102.9816
   1609.5000      0.5780      1.6010      0.5780      1.6010      2.6600    -37.5705      2.6600    -42.3230   -107.3443
   1610.0000      0.5530      1.5580      0.5530      1.5580      2.5980    -38.7389      2.5980    -43.4925   -110.6827
   1610.5000      0.5270      1.5210      0.5270      1.5210      2.5360   -999.2500      2.5360   -999.2500   -999.2500
   1611.0000      0.5070      1.5030      0.5070      1.5030      2.4370   -999.2500      2.4370   -999.2500   -999.2500
   1611.5000      0.4950      1.4840      0.4950      1.4840      2.4360   -999.2500      2.4360   -999.2500   -999.2500
   1612.0000      0.4830      1.4590      0.4830      1.4590      2.4380   -999.2500      2.4380   -999.2500   -999.2500
   1612.5000      0.4780      1.4330      0.4780      1.4330      2.4410   -999.2500      2.4410   -999.2500   -999.2500
   1613.0000      0.4870      1.4230      0.4870      1.4230      2.4430   -999.2500      2.4430   -999.2500   -999.2500
   1613.5000      0.5870      1.4130      0.5870      1.4130      2.3770   -999.2500      2.3770   -999.2500   -999.2500
   1614.0000      0.8300      1.4010      0.8300      1.4010      2.3440   -999.2500      2.3440   -999.2500   -999.2500
   1614.5000      0.8650      1.4010      0.8650      1.4010      2.3430   -999.2500      2.3430   -999.2500   -999.2500
   1615.0000      0.9000      1.4000      0.9000      1.4000      2.3420   -999.2500      2.3420   -999.2500   -999.2500
   1615.5000      0.9570      1.3990      0.9570      1.3990      2.3410   -999.2500      2.3410   -999.2500   -999.2500
   1616.0000      1.0050      1.3950      1.0050      1.3950      2.3430   -999.2500      2.3430   -999.2500   -999.2500
   1616.5000      1.0560      1.3910      1.0560      1.3910      2.3590   -999.2500      2.3590   -999.2500   -999.2500
   1617.0000      1.1010      1.3880      1.1010      1.3880      2.4200   -999.2500      2.4200   -999.2500   -999.2500
   1617.5000      1.1330      1.3850      1.1330      1.3850      2.4740   -999.2500      2.4740   -999.2500   -999.2500
   1618.0000      1.1640      1.3820      1.1640      1.3820      2.5190   -999.2500      2.5190   -999.2500   -999.2500
   1618.5000      1.1440      1.3810      1.1440      1.3810      2.5640   -999.2500      2.5640   -999.2500   -999.2500
   1619.0000      1.1230      1.3800      1.1230      1.3800      2.5850   -999.2500      2.5850   -999.2500   -999.2500
   1619.5000      1.0970      1.3790      1.0970      1.3790      2.6070   -999.2500      2.6070   -999.2500   -999.2500
   1620.0000      1.0720      1.3780      1.0720      1.3780      2.5580   -999.2500      2.5580   -999.2500   -999.2500
   1620.5000      1.0460      1.3790      1.0460      1.3790      2.5080    -39.1318      2.5080    -43.9075   -111.8051
   1621.0000      1.0090      1.3800      1.0090      1.3800      2.4320    -45.8077      2.4320    -50.5845   -130.8792
   1621.5000      0.9890      1.3920      0.9890      1.3920      2.3990    -46.0785      2.3990    -50.8563   -131.6529
   1622.0000      0.9680      1.4020      0.9680      1.4020      2.3650    -46.3144      2.3650    -51.0933   -132.3268
   1622.5000      0.9490      1.4130      0.9490      1.4130      2.3650    -46.5095      2.3650    -51.2895   -132.8844
   1623.0000      0.9300      1.4340      0.9300      1.4340      2.3640    -46.6965      2.3640    -51.4775   -133.4185
   1623.5000      0.9110      1.4470      0.9110      1.4470      2.3750    -46.8483      2.3750    -51.6303   -133.8522
   1624.0000      0.8920      1.4540      0.8920      1.4540      2.3800    -46.9982      2.3800    -51.7813   -134.2806
   1624.5000      0.8730      1.4620      0.8730      1.4620      2.3840    -46.9272      2.3840    -51.7114   -134.0777
   1625.0000      0.8560      1.4350      0.8560      1.4350      2.3480    -45.4352      2.3480    -50.2205   -129.8150
   1625.5000      0.8390      1.4070      0.8390      1.4070      2.3110    -46.1830      2.3110    -50.9693   -131.9515
   1626.0000      0.8150      1.3820      0.8150      1.3820      2.3100    -46.4855      2.3100    -51.2728   -132.8157
   1626.5000      0.8080      1.3570      0.8080      1.3570      2.3280    -46.6088      2.3280    -51.3971   -133.1679
   1627.0000      0.8010      1.3380      0.8010      1.3380      2.3470    -46.3761      2.3470    -51.1656   -132.5032
   1627.5000      0.7940      1.3190      0.7940      1.3190      2.3690    -45.9429      2.3690    -50.7334   -131.2655
   1628.0000      0.7850      1.3060      0.7850      1.3060      2.3910    -45.5103      2.3910    -50.3019   -130.0295
   1628.5000      0.7760      1.2920      0.7760      1.2920      2.3740    -45.2316      2.3740    -50.0243   -129.2332
   1629.0000      0.7680      1.2780      0.7680      1.2780      2.3570    -39.6423      2.3570    -44.4360   -113.2638
   1629.5000      0.7630      1.2640      0.7630      1.2640      2.2970    -39.4828      2.2970    -44.2775   -112.8079
   1630.0000      0.7630      1.2600      0.7630      1.2600      2.2080    -39.3232      2.2080    -44.1190   -112.3521
   1630.5000      0.7520      1.2590      0.7520      1.2590      2.1560    -38.9717      2.1560    -43.7685   -111.3476
   1631.0000      0.7410      1.2580      0.7410      1.2580      2.1030    -38.4726      2.1030    -43.2705   -109.9218
   1631.5000      0.7310      1.2570      0.7310      1.2570      2.0970    -38.2001      2.0970    -42.9990   -109.1430
   1632.0000      0.7200      1.2560      0.7200      1.2560      2.0920    -37.5545      2.0920    -42.3545   -107.2986
   1632.5000      0.7200      1.2620      0.7200      1.2620      2.1360    -35.8724      2.1360    -40.6735   -102.4927
   1633.0000      0.7190      1.2590      0.7190      1.2590      2.1510    -33.7689      2.1510    -38.5710    -96.4825
   1633.5000      0.7190      1.2570      0.7190      1.2570      2.1670    -32.3283      2.1670    -37.1315    -92.3667
   1634.0000      0.7200      1.2430      0.7200      1.2430      2.0810    -31.4243      2.0810    -36.2285    -89.7837
   1634.5000      0.7220      1.2360      0.7220      1.2360      2.0250    -29.6287      2.0250    -34.4340    -84.6535
   1635.0000      0.7240      1.2280      0.7240      1.2280      1.9690    -28.2697      1.9690    -33.0760    -80.7705
   1635.5000      0.7400      1.2240      0.7400      1.2240      1.9520    -26.9271      1.9520    -31.7345    -76.9346
   1636.0000      0.7560      1.2200      0.7560      1.2200      1.9770    -25.2446      1.9770    -30.0530    -72.1273
   1636.5000      0.8050      1.2120      0.8050      1.2120      1.9960    -24.2590      1.9960    -29.0685    -69.3114
   1637.0000      0.8550      1.2120      0.8550      1.2120      2.0990    -23.3559      2.0990    -28.1665    -66.7313
   1637.5000      0.9270      1.2110      0.9270      1.2110      2.3610    -22.9209      2.3610    -27.7325    -65.4883
