~V
VERS. 2.00: Ver 2.00
WRAP.   NO:        
~W
 STRT.FT 30:
 STOP.FT 4020:
 STEP.FT 0.5:
 NULL. -999.250000:
 COMP. Western Gulf (Chevron):Company
 WELL. KCL-SAN EMIDIO #3:Well
 FLD. :Field
 LOC. S27 T11N R22W:Location
 STAT. CA:State
 SRVC. :Service Company
 SON. :Service Order #
 DATE. :Log Date
 UWI. :Unique Well ID
~C
 DEPT.FT :
 LAT.OHMM :
 LN.OHMM :
 RD.OHMM :
 RM.OHMM :
 RS.OHMM :
 SBL.MV :
 SN.OHMM :
 SP.MV :
 SPN. :
~P
~A
# ...
   1068.5000      0.7010      1.1990      0.7010      1.1990      3.1410    -11.5359      3.1410    -15.1465    -32.9598
   1069.0000      0.7690      1.2270      0.7690      1.2270      3.1760    -11.7734      3.1760    -15.3850    -33.6383
   1069.5000      0.8370      1.2520      0.8370      1.2520      3.1110    -12.0108      3.1110    -15.6235    -34.3167
   1070.0000      0.9040      1.3710      0.9040      1.3710      3.0450    -12.0968      3.0450    -15.7105    -34.5622
   1070.5000      1.1890      1.5300      1.1890      1.5300      2.5050    -11.8572      2.5050    -15.4720    -33.8778
   1071.0000      1.5840      1.8540      1.5840      1.8540      2.3700    -11.7297      2.3700    -15.3455    -33.5133
   1071.5000      2.0770      2.2560      2.0770      2.2560      2.3700    -13.4196      2.3700    -17.0365    -38.3418
   1072.0000      3.7400      2.7910      3.7400      2.7910      2.2580    -14.4921      2.2580    -18.1100    -41.4059
   1072.5000      4.6030      3.8850      4.6030      3.8850      2.0520    -15.3380      2.0520    -18.9570    -43.8229
   1073.0000      5.2030      4.1570      5.2030      4.1570      1.9570    -16.1049      1.9570    -19.7250    -46.0141
   1073.5000      5.0010      4.4550      5.0010      4.4550      1.8950    -16.2689      1.8950    -19.8900    -46.4825
   1074.0000      5.4940      4.5420      5.4940      4.5420      1.8570    -15.6258      1.8570    -19.2480    -44.6452
   1074.5000      5.7920      4.4400      5.7920      4.4400      1.8190    -15.2223      1.8190    -18.8455    -43.4922
   1075.0000      5.9890      4.1470      5.9890      4.1470      1.7870    -14.8362      1.7870    -18.4605    -42.3892
   1075.5000      5.2050      3.6820      5.2050      3.6820      1.7550    -14.7107      1.7550    -18.3360    -42.0305
   1076.0000      2.6150      3.2030      2.6150      3.2030      1.7300    -15.5886      1.7300    -19.2150    -44.5389
   1076.5000      1.8410      2.1720      1.8410      2.1720      1.7050    -17.6021      1.7050    -21.2295    -50.2916
   1077.0000      1.3200      1.3500      1.3200      1.3500      1.6740    -17.6610      1.6740    -21.2895    -50.4600
   1077.5000      0.9820      1.0330      0.9820      1.0330      1.6590    -17.7200      1.6590    -21.3495    -50.6284
   1078.0000      0.7760      0.8080      0.7760      0.8080      1.6430    -16.8349      1.6430    -20.4655    -48.0997
   1078.5000      0.6350      0.6940      0.6350      0.6940      1.6330    -16.6098      1.6330    -20.2415    -47.4567
   1079.0000      0.5340      0.6210      0.5340      0.6210      1.6230    -16.3843      1.6230    -20.0170    -46.8122
   1079.5000      0.4780      0.6730      0.4780      0.6730      1.6120    -16.2987      1.6120    -19.9325    -46.5678
   1080.0000      0.3690      0.7920      0.3690      0.7920      1.6010    -16.2132      1.6010    -19.8480    -46.3234
   1080.5000      0.3300      0.9370      0.3300      0.9370      1.6120    -16.7381      1.6120    -20.3740    -47.8232
   1081.0000      0.2960      1.0630      0.2960      1.0630      1.6220    -17.5346      1.6220    -21.1715    -50.0987
   1081.5000      0.2630      1.3640      0.2630      1.3640      1.6530    -17.9430      1.6530    -21.5810    -51.2657
   1082.0000      0.2100      1.5740      0.2100      1.5740      1.6640    -17.7685      1.6640    -21.4075    -50.7670
   1082.5000      0.1800      1.6550      0.1800      1.6550      1.6750    -17.6104      1.6750    -21.2505    -50.3154
   1083.0000      0.1630      1.7650      0.1630      1.7650      1.6850    -17.5328      1.6850    -21.1740    -50.0938
   1083.5000      0.1460      1.8940      0.1460      1.8940      1.6960    -17.5188      1.6960    -21.1610    -50.0537
   1084.0000      0.1020      1.9770      0.1020      1.9770      1.7070    -17.6367      1.7070    -21.2800    -50.3906
   1084.5000      0.0820      1.9890      0.0820      1.9890      1.7150    -18.2057      1.7150    -21.8500    -52.0162
   1085.0000      0.0680      1.9690      0.0680      1.9690      1.7230    -19.0531      1.7230    -22.6985    -54.4375
   1085.5000      0.0640      1.9290      0.0640      1.9290      1.8870    -18.9756      1.8870    -22.6220    -54.2159
   1086.0000      0.0720      1.8270      0.0720      1.8270      2.0480    -18.7355      2.0480    -22.3830    -53.5300
   1086.5000      0.0790      1.7230      0.0790      1.7230      2.1390    -18.4305      2.1390    -22.0790    -52.6584
   1087.0000      0.0910      1.5790      0.0910      1.5790      2.3230    -18.0614      2.3230    -21.7110    -51.6040
   1087.5000      0.0960      1.5260      0.0960      1.5260      2.3970    -17.8378      2.3970    -21.4885    -50.9653
   1088.0000      0.1020      1.4820      0.1020      1.4820      2.4060    -17.6468      2.4060    -21.2985    -50.4194
   1088.5000      0.1080      1.4370      0.1080      1.4370      2.3300    -17.6162      2.3300    -21.2690    -50.3321
   1089.0000      0.1150      1.4130      0.1150      1.4130      2.2410    -18.0742      2.2410    -21.7280    -51.6405
   1089.5000      0.1230      1.4220      0.1230      1.4220      2.0650    -19.1966      2.0650    -22.8515    -54.8475
   1090.0000      0.1600      1.4830      0.1600      1.4830      1.9050    -19.5881      1.9050    -23.2440    -55.9659
   1090.5000      0.3120      1.7260      0.3120      1.7260      1.8130    -19.2665      1.8130    -22.9235    -55.0472
   1091.0000      1.2760      1.9520      1.2760      1.9520      1.7540    -18.8720      1.7540    -22.5300    -53.9199
   1091.5000      1.9800      2.2600      1.9800      2.2600      1.6950    -18.4774      1.6950    -22.1365    -52.7926
   1092.0000      2.9870      2.8500      2.9870      2.8500      1.6350    -18.0298      1.6350    -21.6900    -51.5138
   1092.5000      3.3460      3.1650      3.3460      3.1650      1.6140    -18.2258      1.6140    -21.8870    -52.0737
   1093.0000      3.9430      3.3620      3.9430      3.3620      1.6140    -18.4217      1.6140    -22.0840    -52.6335
   1093.5000      4.4750      3.4490      4.4750      3.4490      1.6550    -19.2222      1.6550    -22.8855    -54.9205
   1094.0000      4.5160      3.3210      4.5160      3.3210      1.6960    -19.2091      1.6960    -22.8735    -54.8832
   1094.5000      2.3390      2.0530      2.3390      2.0530      1.7380    -18.0611      1.7380    -21.7265    -51.6031
   1095.0000      1.4410      1.5360      1.4410      1.5360      1.7760    -16.2980      1.7760    -19.9645    -46.5657
   1095.5000      1.2260      1.2100      1.2260      1.2100      1.8140    -15.0860      1.8140    -18.7535    -43.1027
   1096.0000      1.0860      1.0430      1.0860      1.0430      1.8940    -14.3584      1.8940    -18.0270    -41.0240
   1096.5000      0.8830      0.9090      0.8830      0.9090      1.9230    -13.3583      1.9230    -17.0280    -38.1667
   1097.0000      0.8110      0.8240      0.8110      0.8240      1.9420    -12.9713      1.9420    -16.6420    -37.0608
   1097.5000      0.7390      0.7760      0.7390      0.7760      1.9600    -12.5842      1.9600    -16.2560    -35.9550
   1098.0000      0.7090      0.7280      0.7090      0.7280      1.9590    -12.2647      1.9590    -15.9375    -35.0419
   1098.5000      0.6790      0.6850      0.6790      0.6850      1.9580    -12.1061      1.9580    -15.7800    -34.5889
   1099.0000      0.7120      0.6710      0.7120      0.6710      1.9570    -12.0756      1.9570    -15.7505    -34.5016
   1099.5000      0.7450      0.7160      0.7450      0.7160      1.9580    -12.0455      1.9580    -15.7215    -34.4157
   1100.0000      0.7730      0.9190      0.7730      0.9190      1.9590    -12.0810      1.9590    -15.7580    -34.5170
   1100.5000      0.7870      1.3250      0.7870      1.3250      1.9640    -12.1164      1.9640    -15.7945    -34.6183
   1101.0000      0.8010      1.5580      0.8010      1.5580      1.9640    -12.2723      1.9640    -15.9515    -35.0638
   1101.5000      0.8160      1.7000      0.8160      1.7000      1.8950    -12.4288      1.8950    -16.1090    -35.5108
