~V
VERS. 2.00: Ver 2.00
WRAP.   NO:        
~W
 STRT.FT 20:
 STOP.FT 3810:
 STEP.FT 0.5:
 NULL. -999.250000:
 COMP. Western Gulf (Chevron):Company
 WELL. KCL-SAN EMIDIO #4:Well
 FLD. :Field
 LOC. S19 T11N R22W:Location
 STAT. CA:State
 SRVC. :Service Company
 SON. :Service Order #
 DATE. :Log Date
 UWI. 2025000:Unique Well ID
~C
 DEPT.FT :
 A10".OHMM :
 AO8..OHMM :
 LTHE. :
 MM. :
 PHES. :
 PHMX. :
 PHTS. :
 PHZC. :
 RM.OHMM :
 ROS. :
 RS.OHMM :
 SBL.MV :
 SCLN. :
 SP.MV :
 SPN. :
 VCDS. :
 VCLY. :
 VCWS. :
 VSHS. :
~P
~A
# ...
   2195.5000     16.9410      2.2698      1.0000      2.7641      0.0000      0.1599      0.3732      0.4197      2.2698      2.6520     16.9410     -0.3759    -42.4250     -8.1090     -0.9399      0.2445      0.4889      0.4889      1.0000
   2196.0000     16.9410      2.2780      1.0000      2.7630      0.0000      0.1601      0.3736      0.4203      2.2780      2.6441     16.9410     -0.4593    -42.4250     -8.1930     -1.1481      0.2432      0.4865      0.4865      1.0000
   2196.5000     17.4340      2.2862      1.0000      2.7585      0.0000      0.1605      0.3752      0.4230      2.2862      2.6129     17.4340     -0.7926    -42.4250     -8.5270     -1.9814      0.2383      0.4766      0.4766      1.0000
   2197.0000     17.9280      2.2944      1.0000      2.7528      0.0000      0.1611      0.3773      0.4263      2.2944      2.5749     17.9280     -1.2089    -42.4250     -8.9440     -3.0222      0.2322      0.4644      0.4644      1.0000
   2197.5000     18.0920      2.3026      1.0000      2.7483      0.0000      0.1616      0.3789      0.4289      2.3026      2.5451     18.0920     -1.5422    -42.4250     -9.2780     -3.8555      0.2273      0.4546      0.4546      1.0000
   2198.0000     18.2560      2.3027      1.0000      2.7442      0.0000      0.1620      0.3804      0.4313      2.3027      2.5191     18.2560     -1.7915    -42.4250     -9.5280     -4.4788      0.2229      0.4458      0.4458      1.0000
   2198.5000     19.0790      2.3027      1.0000      2.7391      0.0000      0.1626      0.3822      0.4342      2.3027      2.4868     19.0790     -2.0418    -42.4250     -9.7790     -5.1046      0.2174      0.4348      0.4348      1.0000
   2199.0000     20.2310      2.3136      1.0000      2.7357      0.0000      0.1629      0.3834      0.4362      2.3136      2.4657     20.2310     -2.2081    -42.4250     -9.9460     -5.5204      0.2137      0.4274      0.4274      1.0000
   2199.5000     21.0530      2.3246      1.0000      2.7340      0.0000      0.1631      0.3840      0.4372      2.3246      2.4553     21.0530     -2.2915    -42.4250    -10.0300     -5.7287      0.2119      0.4237      0.4237      1.0000
   2200.0000     21.7950      2.3384      1.0000      2.7323      0.0000      0.1633      0.3846      0.4382      2.3384      2.4449     21.7950     -2.3748    -42.4250    -10.1140     -5.9370      0.2100      0.4200      0.4200      1.0000
   2200.5000     22.5360      2.3523      1.0000      2.7306      0.0000      0.1635      0.3852      0.4392      2.3523      2.4347     22.5360     -2.4571    -42.4250    -10.1970     -6.1427      0.2082      0.4164      0.4164      1.0000
   2201.0000     23.6910      2.3691      1.0000      2.7298      0.0000      0.1636      0.3855      0.4396      2.3691      2.4298     23.6910     -2.4974    -42.4250    -10.2380     -6.2435      0.2073      0.4146      0.4146      1.0000
   2201.5000     24.6810      2.3859      1.0000      2.7290      0.0000      0.1637      0.3857      0.4401      2.3859      2.4248     24.6810     -2.5377    -42.4250    -10.2790     -6.3443      0.2064      0.4128      0.4128      1.0000
   2202.0000     25.8360      2.4027      1.0000      2.7273      0.0000      0.1638      0.3863      0.4411      2.4027      2.4149     25.8360     -2.6190    -42.4250    -10.3610     -6.5476      0.2046      0.4092      0.4092      1.0000
   2202.5000     27.1550      2.4359      1.0000      2.7274      0.0000      0.1638      0.3863      0.4410      2.4359      2.4151     27.1550     -2.6174    -42.4250    -10.3600     -6.5434      0.2047      0.4093      0.4093      1.0000
   2203.0000     28.6380      2.4609      1.0000      2.7257      0.0000      0.1640      0.3869      0.4420      2.4609      2.4052     28.6380     -2.6987    -42.4250    -10.4420     -6.7467      0.2029      0.4057      0.4057      1.0000
   2203.5000     29.3000      2.4858      1.0000      2.7240      0.0000      0.1642      0.3875      0.4430      2.4858      2.3953     29.3000     -2.7810    -42.4250    -10.5250     -6.9525      0.2010      0.4021      0.4021      1.0000
   2204.0000     30.4540      2.5849      1.0000      2.7224      0.0000      0.1643      0.3880      0.4439      2.5849      2.3857     30.4540     -2.8623    -42.4250    -10.6070     -7.1558      0.1992      0.3985      0.3985      1.0000
   2204.5000     32.7600      2.6839      1.0000      2.7207      0.0000      0.1645      0.3886      0.4449      2.6839      2.3759     32.7600     -2.9446    -42.4250    -10.6900     -7.3615      0.1974      0.3949      0.3949      1.0000
   2205.0000     33.9150      2.7829      1.0000      2.7190      0.0000      0.1647      0.3892      0.4458      2.7829      2.3664     33.9150     -3.0259    -42.4250    -10.7720     -7.5648      0.1956      0.3913      0.3913      1.0000
   2205.5000     35.2340      2.8819      1.0000      2.7174      0.0000      0.1649      0.3898      0.4468      2.8819      2.3568     35.2340     -3.1083    -42.4250    -10.8550     -7.7706      0.1938      0.3876      0.3876      1.0000
   2206.0000     35.5660      2.9151      1.0000      2.7174      0.0000      0.1649      0.3898      0.4468      2.9151      2.3569     35.5660     -3.1066    -42.4250    -10.8540     -7.7664      0.1939      0.3877      0.3877      1.0000
   2206.5000     35.8980      2.9648      1.0000      2.7174      0.0000      0.1649      0.3897      0.4468      2.9648      2.3571     35.8980     -3.1049    -42.4250    -10.8530     -7.7622      0.1939      0.3878      0.3878      1.0000
   2207.0000     36.3950      3.0145      1.0000      2.7175      0.0000      0.1649      0.3897      0.4467      3.0145      2.3572     36.3950     -3.1032    -42.4250    -10.8520     -7.7580      0.1939      0.3879      0.3879      1.0000
   2207.5000     36.8920      3.0806      1.0000      2.7141      0.0000      0.1652      0.3909      0.4487      3.0806      2.3382     36.8920     -3.2685    -42.4250    -11.0180     -8.1713      0.1903      0.3805      0.3805      1.0000
   2208.0000     37.3880      3.1467      1.0000      2.7141      0.0000      0.1652      0.3909      0.4487      3.1467      2.3383     37.3880     -3.2668    -42.4250    -11.0170     -8.1671      0.1903      0.3806      0.3806      1.0000
   2208.5000     37.8850      3.3280      1.0000      2.7125      0.0000      0.1654      0.3915      0.4496      3.3280      2.3291     37.8850     -3.3481    -42.4250    -11.0990     -8.3704      0.1885      0.3770      0.3770      1.0000
   2209.0000     38.3820      3.4434      1.0000      2.7125      0.0000      0.1654      0.3914      0.4496      3.4434      2.3292     38.3820     -3.3465    -42.4250    -11.0980     -8.3661      0.1886      0.3771      0.3771      1.0000
   2209.5000     40.0300      3.5260      1.0000      2.7125      0.0000      0.1654      0.3914      0.4496      3.5260      2.3293     40.0300     -3.3458    -42.4250    -11.0980     -8.3644      0.1886      0.3771      0.3771      1.0000
   2210.0000     41.5130      3.6086      1.0000      2.7126      0.0000      0.1654      0.3914      0.4495      3.6086      2.3294     41.5130     -3.3441    -42.4250    -11.0970     -8.3602      0.1886      0.3772      0.3772      1.0000
   2210.5000     42.9970      3.6747      1.0000      2.7126      0.0000      0.1654      0.3914      0.4495      3.6747      2.3296     42.9970     -3.3424    -42.4250    -11.0960     -8.3560      0.1886      0.3773      0.3773      1.0000
   2211.0000     42.0140      3.7737      1.0000      2.7143      0.0000      0.1652      0.3907      0.4485      3.7737      2.3392     42.0140     -3.2577    -42.4250    -11.0120     -8.1443      0.1905      0.3810      0.3810      1.0000
   2211.5000     39.7140      3.8234      1.0000      2.7160      0.0000      0.1650      0.3901      0.4475      3.8234      2.3488     39.7140     -3.1730    -42.4250    -10.9280     -7.9326      0.1924      0.3848      0.3848      1.0000
   2212.0000     38.5660      3.8566      1.0000      2.7161      0.0000      0.1650      0.3901      0.4474      3.8566      2.3490     38.5660     -3.1714    -42.4250    -10.9270     -7.9284      0.1924      0.3848      0.3848      1.0000
