~V
VERS. 2.00: Ver 2.00
WRAP.   NO:        
~W
 STRT.FT 20:
 STOP.FT 3810:
 STEP.FT 0.5:
 NULL. -999.250000:
 COMP. Western Gulf (Chevron):Company
 WELL. KCL-SAN EMIDIO #4:Well
 FLD. :Field
 LOC. S19 T11N R22W:Location
 STAT. CA:State
 SRVC. :Service Company
 SON. :Service Order #
 DATE. :Log Date
 UWI. 2025000:Unique Well ID
~C
 DEPT.FT :
 A10".OHMM :
 AO8..OHMM :
 LTHE. :
 MM. :
 PHES. :
 PHMX. :
 PHTS. :
 PHZC. :
 RM.OHMM :
 ROS. :
 RS.OHMM :
 SBL.MV :
 SCLN. :
 SP.MV :
 SPN. :
 VCDS. :
 VCLY. :
 VCWS. :
 VSHS. :
~P
~A
# ...
   1006.0000      2.5813      2.5800      1.4922      2.7451      0.0000   -999.2500      0.2328      0.2852      2.5800   -999.2500      2.5813     -9.4153    -65.5000    -16.5490    -23.5381      0.2149      0.4477      0.4477      1.4922
   1006.5000      2.5766      2.6034      1.4796      2.7433      0.0000   -999.2500      0.2308      0.2855      2.6034   -999.2500      2.5766     -9.5095    -65.5000    -16.6470    -23.7738      0.2131      0.4439      0.4439      1.4796
   1007.0000      2.5309      2.6267      1.4739      2.7425      0.0000   -999.2500      0.2299      0.2857      2.6267   -999.2500      2.5309     -9.5528    -65.5000    -16.6940    -23.8819      0.2122      0.4422      0.4422      1.4739
   1007.5000      2.4653      2.6666      1.4680      2.7417      0.0000   -999.2500      0.2290      0.2859      2.6666   -999.2500      2.4653     -9.5970    -65.5000    -16.7420    -23.9925      0.2114      0.4404      0.4404      1.4680
   1008.0000      2.4325      2.6766      1.4556      2.7400      0.0000   -999.2500      0.2271      0.2863      2.6766   -999.2500      2.4325     -9.6892    -65.5000    -16.8380    -24.2231      0.2096      0.4367      0.4367      1.4556
   1008.5000      2.3535      2.7065      1.4565      2.7401      0.0000   -999.2500      0.2272      0.2862      2.7065   -999.2500      2.3535     -9.6825    -65.5000    -16.8350    -24.2062      0.2097      0.4370      0.4370      1.4565
   1009.0000      2.2780      2.7167      1.4618      2.7409      0.0000   -999.2500      0.2280      0.2861      2.7167   -999.2500      2.2780     -9.6427    -65.5000    -16.7990    -24.1069      0.2105      0.4386      0.4386      1.4618
   1009.5000      2.1958      2.7105      1.4670      2.7416      0.0000   -999.2500      0.2289      0.2859      2.7105   -999.2500      2.1958     -9.6040    -65.5000    -16.7640    -24.0100      0.2113      0.4401      0.4401      1.4670
   1010.0000      2.1102      2.6843      1.4790      2.7432      0.0000   -999.2500      0.2307      0.2855      2.6843   -999.2500      2.1102     -9.5142    -65.5000    -16.6780    -23.7856      0.2130      0.4437      0.4437      1.4790
   1010.5000      2.0313      2.5988      1.4910      2.7449      0.0000   -999.2500      0.2326      0.2852      2.5988   -999.2500      2.0313     -9.4245    -65.5000    -16.5920    -23.5612      0.2147      0.4473      0.4473      1.4910
   1011.0000      1.9623      2.5431      1.5304      2.7504      0.0000   -999.2500      0.2387      0.2840      2.5431   -999.2500      1.9623     -9.0158    -65.5000    -16.1870    -22.5394      0.2204      0.4591      0.4591      1.5304
   1011.5000      1.8867      2.5071      1.5697      2.7558      0.0000   -999.2500      0.2449      0.2828      2.5071   -999.2500      1.8867     -8.5750    -65.5000    -15.7500    -21.4375      0.2260      0.4709      0.4709      1.5697
   1012.0000      1.8540      2.4810      1.5850      2.7579      0.0000   -999.2500      0.2473      0.2823      2.4810   -999.2500      1.8540     -8.4023    -65.5000    -15.5810    -21.0056      0.2282      0.4755      0.4755      1.5850
   1012.5000      1.8214      2.4582      1.5945      2.7592      0.0000   -999.2500      0.2487      0.2820      2.4582   -999.2500      1.8214     -8.2955    -65.5000    -15.4780    -20.7388      0.2296      0.4784      0.4784      1.5945
   1013.0000      1.7821      2.4387      1.6011      2.7602      0.0000   -999.2500      0.2498      0.2818      2.4387   -999.2500      1.7821     -8.2218    -65.5000    -15.4080    -20.5544      0.2306      0.4803      0.4803      1.6011
   1013.5000      1.7725      2.4224      1.5928      2.7590      0.0000   -999.2500      0.2485      0.2821      2.4224   -999.2500      1.7725     -8.3150    -65.5000    -15.5050    -20.7875      0.2294      0.4778      0.4778      1.5928
   1014.0000      1.7564      2.4061      1.5756      2.7566      0.0000   -999.2500      0.2458      0.2826      2.4061   -999.2500      1.7564     -8.5082    -65.5000    -15.7020    -21.2706      0.2269      0.4727      0.4727      1.5756
   1014.5000      1.7402      2.3703      1.5317      2.7505      0.0000   -999.2500      0.2389      0.2839      2.3703   -999.2500      1.7402     -9.0015    -65.5000    -16.1990    -22.5037      0.2206      0.4595      0.4595      1.5317
   1015.0000      1.7241      2.3475      1.5144      2.7481      0.0000   -999.2500      0.2362      0.2844      2.3475   -999.2500      1.7241     -9.1957    -65.5000    -16.3970    -22.9894      0.2181      0.4543      0.4543      1.5144
   1015.5000      1.7095      2.3312      1.5060      2.7470      0.0000   -999.2500      0.2349      0.2847      2.3312   -999.2500      1.7095     -9.2900    -65.5000    -16.4950    -23.2250      0.2169      0.4518      0.4518      1.5060
   1016.0000      1.6949      2.3019      1.4965      2.7457      0.0000   -999.2500      0.2335      0.2849      2.3019   -999.2500      1.6949     -9.3832    -65.5000    -16.5920    -23.4581      0.2155      0.4490      0.4490      1.4965
   1016.5000      1.6756      2.2890      1.4842      2.7440      0.0000   -999.2500      0.2315      0.2853      2.2890   -999.2500      1.6756     -9.4755    -65.5000    -16.6880    -23.6888      0.2137      0.4453      0.4453      1.4842
   1017.0000      1.6562      2.2825      1.4807      2.7435      0.0000   -999.2500      0.2310      0.2854      2.2825   -999.2500      1.6562     -9.5018    -65.5000    -16.7180    -23.7544      0.2132      0.4442      0.4442      1.4807
   1017.5000      1.6532      2.2729      1.4770      2.7430      0.0000   -999.2500      0.2304      0.2855      2.2729   -999.2500      1.6532     -9.5290    -65.5000    -16.7490    -23.8225      0.2127      0.4431      0.4431      1.4770
   1018.0000      1.6501      2.2731      1.4779      2.7431      0.0000   -999.2500      0.2306      0.2855      2.2731   -999.2500      1.6501     -9.5223    -65.5000    -16.7460    -23.8056      0.2128      0.4434      0.4434      1.4779
   1018.5000      1.6440      2.2733      1.4878      2.7445      0.0000   -999.2500      0.2321      0.2852      2.2733   -999.2500      1.6440     -9.4485    -65.5000    -16.6760    -23.6213      0.2142      0.4463      0.4463      1.4878
   1019.0000      1.6412      2.2672      1.5014      2.7463      0.0000   -999.2500      0.2342      0.2848      2.2672   -999.2500      1.6412     -9.3418    -65.5000    -16.5730    -23.3544      0.2162      0.4504      0.4504      1.5014
   1019.5000      1.6415      2.2576      1.5227      2.7493      0.0000   -999.2500      0.2375      0.2841      2.2576   -999.2500      1.6415     -9.1020    -65.5000    -16.3370    -22.7550      0.2193      0.4568      0.4568      1.5227
   1020.0000      1.6369      2.2479      1.5352      2.7510      0.0000   -999.2500      0.2395      0.2837      2.2479   -999.2500      1.6369     -8.9622    -65.5000    -16.2010    -22.4056      0.2211      0.4606      0.4606      1.5352
   1020.5000      1.6322      2.2351      1.5566      2.7540      0.0000   -999.2500      0.2428      0.2831      2.2351   -999.2500      1.6322     -8.7215    -65.5000    -15.9640    -21.8037      0.2242      0.4670      0.4670      1.5566
   1021.0000      1.6393      2.2353      1.5601      2.7545      0.0000   -999.2500      0.2434      0.2830      2.2353   -999.2500      1.6393     -8.6828    -65.5000    -15.9290    -21.7069      0.2246      0.4680      0.4680      1.5601
   1021.5000      1.6428      2.2390      1.5635      2.7549      0.0000   -999.2500      0.2439      0.2829      2.2390   -999.2500      1.6428     -8.6440    -65.5000    -15.8940    -21.6100      0.2251      0.4691      0.4691      1.5635
   1022.0000      1.6465      2.2426      1.5554      2.7538      0.0000   -999.2500      0.2426      0.2831      2.2426   -999.2500      1.6465     -8.7353    -65.5000    -15.9890    -21.8381      0.2240      0.4666      0.4666      1.5554
   1022.5000      1.6467      2.2428      1.5471      2.7527      0.0000   -999.2500      0.2413      0.2834      2.2428   -999.2500      1.6467     -8.8285    -65.5000    -16.0860    -22.0713      0.2228      0.4641      0.4641      1.5471
