~V
VERS. 2.00: Ver 2.00
WRAP.   NO:        
~W
 STRT.FT 20:
 STOP.FT 3810:
 STEP.FT 0.5:
 NULL. -999.250000:
 COMP. Western Gulf (Chevron):Company
 WELL. KCL-SAN EMIDIO #4:Well
 FLD. :Field
 LOC. S19 T11N R22W:Location
 STAT. CA:State
 SRVC. :Service Company
 SON. :Service Order #
 DATE. :Log Date
 UWI. 2025000:Unique Well ID
~C
 DEPT.FT :
 A10".OHMM :
 AO8..OHMM :
 LTHE. :
 MM. :
 PHES. :
 PHMX. :
 PHTS. :
 PHZC. :
 RM.OHMM :
 ROS. :
 RS.OHMM :
 SBL.MV :
 SCLN. :
 SP.MV :
 SPN. :
 VCDS. :
 VCLY. :
 VCWS. :
 VSHS. :
~P
~A
# ...
    870.0000      1.6815      2.0930      2.0367      2.8205      0.0000   -999.2500      0.3177      0.2715      2.0930   -999.2500      1.6815     -3.3303    -65.5000     -9.4440     -8.3256      0.2933      0.6110      0.6110      2.0367
    870.5000      1.6851      2.1065      2.0730      2.8255      0.0000   -999.2500      0.3234      0.2704      2.1065   -999.2500      1.6851     -2.9235    -65.5000     -9.0410     -7.3088      0.2985      0.6219      0.6219      2.0730
    871.0000      1.6853      2.1067      2.1032      2.8297      0.0000   -999.2500      0.3281      0.2695      2.1067   -999.2500      1.6853     -2.5838    -65.5000     -8.7050     -6.4594      0.3029      0.6310      0.6310      2.1032
    871.5000      1.6888      2.1004      2.1305      2.8335      0.0000   -999.2500      0.3324      0.2687      2.1004   -999.2500      1.6888     -2.2770    -65.5000     -8.4020     -5.6925      0.3068      0.6392      0.6392      2.1305
    872.0000      1.6891      2.0875      2.1460      2.8356      0.0000   -999.2500      0.3348      0.2682      2.0875   -999.2500      1.6891     -2.1033    -65.5000     -8.2320     -5.2581      0.3090      0.6438      0.6438      2.1460
    872.5000      1.6860      2.0811      2.1510      2.8363      0.0000   -999.2500      0.3356      0.2680      2.0811   -999.2500      1.6860     -2.0475    -65.5000     -8.1800     -5.1188      0.3097      0.6453      0.6453      2.1510
    873.0000      1.6796      2.0714      2.1560      2.8370      0.0000   -999.2500      0.3363      0.2679      2.0714   -999.2500      1.6796     -1.9918    -65.5000     -8.1280     -4.9794      0.3105      0.6468      0.6468      2.1560
    873.5000      1.6764      2.0618      2.1389      2.8346      0.0000   -999.2500      0.3337      0.2684      2.0618   -999.2500      1.6764     -2.1830    -65.5000     -8.3230     -5.4575      0.3080      0.6417      0.6417      2.1389
    874.0000      1.6734      2.0556      2.1336      2.8339      0.0000   -999.2500      0.3328      0.2685      2.0556   -999.2500      1.6734     -2.2422    -65.5000     -8.3860     -5.6056      0.3072      0.6401      0.6401      2.1336
    874.5000      1.6637      2.0525      2.1312      2.8336      0.0000   -999.2500      0.3325      0.2686      2.0525   -999.2500      1.6637     -2.2695    -65.5000     -8.4170     -5.6737      0.3069      0.6394      0.6394      2.1312
    875.0000      1.6540      2.0529      2.1258      2.8328      0.0000   -999.2500      0.3316      0.2687      2.0529   -999.2500      1.6540     -2.3298    -65.5000     -8.4810     -5.8244      0.3061      0.6378      0.6378      2.1258
    875.5000      1.6492      2.0530      2.1205      2.8321      0.0000   -999.2500      0.3308      0.2689      2.0530   -999.2500      1.6492     -2.3900    -65.5000     -8.5450     -5.9750      0.3053      0.6361      0.6361      2.1205
    876.0000      1.6445      2.0633      2.1181      2.8317      0.0000   -999.2500      0.3304      0.2689      2.0633   -999.2500      1.6445     -2.4173    -65.5000     -8.5760     -6.0431      0.3050      0.6354      0.6354      2.1181
    876.5000      1.6317      2.0667      2.1156      2.8314      0.0000   -999.2500      0.3300      0.2690      2.0667   -999.2500      1.6317     -2.4445    -65.5000     -8.6070     -6.1113      0.3047      0.6347      0.6347      2.1156
    877.0000      1.6252      2.0704      2.1251      2.8327      0.0000   -999.2500      0.3315      0.2687      2.0704   -999.2500      1.6252     -2.3377    -65.5000     -8.5040     -5.8444      0.3060      0.6375      0.6375      2.1251
    877.5000      1.6205      2.0806      2.1346      2.8340      0.0000   -999.2500      0.3330      0.2684      2.0806   -999.2500      1.6205     -2.2310    -65.5000     -8.4010     -5.5775      0.3074      0.6404      0.6404      2.1346
    878.0000      1.6157      2.0807      2.1041      2.8298      0.0000   -999.2500      0.3282      0.2693      2.0807   -999.2500      1.6157     -2.5743    -65.5000     -8.7480     -6.4356      0.3030      0.6312      0.6312      2.1041
    878.5000      1.6110      2.0792      2.0736      2.8256      0.0000   -999.2500      0.3235      0.2702      2.0792   -999.2500      1.6110     -2.9165    -65.5000     -9.0940     -7.2913      0.2986      0.6221      0.6221      2.0736
    879.0000      1.6062      2.0778      2.0593      2.8236      0.0000   -999.2500      0.3213      0.2706      2.0778   -999.2500      1.6062     -3.0768    -65.5000     -9.2580     -7.6919      0.2965      0.6178      0.6178      2.0593
    879.5000      1.5998      2.0764      2.0510      2.8224      0.0000   -999.2500      0.3200      0.2709      2.0764   -999.2500      1.5998     -3.1700    -65.5000     -9.3550     -7.9250      0.2953      0.6153      0.6153      2.0510
    880.0000      1.5934      2.0751      2.0278      2.8192      0.0000   -999.2500      0.3163      0.2716      2.0751   -999.2500      1.5934     -3.4303    -65.5000     -9.6190     -8.5756      0.2920      0.6084      0.6084      2.0278
    880.5000      1.5905      2.0689      2.0106      2.8169      0.0000   -999.2500      0.3137      0.2721      2.0689   -999.2500      1.5905     -3.6235    -65.5000     -9.8160     -9.0588      0.2895      0.6032      0.6032      2.0106
    881.0000      1.5907      2.0609      1.9994      2.8153      0.0000   -999.2500      0.3119      0.2724      2.0609   -999.2500      1.5907     -3.7498    -65.5000     -9.9460     -9.3744      0.2879      0.5998      0.5998      1.9994
    881.5000      1.5909      2.0528      2.0028      2.8158      0.0000   -999.2500      0.3124      0.2723      2.0528   -999.2500      1.5909     -3.7110    -65.5000     -9.9110     -9.2775      0.2884      0.6009      0.6009      2.0028
    882.0000      1.5911      2.0433      2.0064      2.8163      0.0000   -999.2500      0.3130      0.2722      2.0433   -999.2500      1.5911     -3.6713    -65.5000     -9.8750     -9.1781      0.2889      0.6019      0.6019      2.0064
    882.5000      1.5948      2.0403      2.0041      2.8160      0.0000   -999.2500      0.3126      0.2722      2.0403   -999.2500      1.5948     -3.6965    -65.5000     -9.9040     -9.2413      0.2886      0.6012      0.6012      2.0041
    883.0000      1.6048      2.0405      2.0062      2.8162      0.0000   -999.2500      0.3130      0.2722      2.0405   -999.2500      1.6048     -3.6738    -65.5000     -9.8850     -9.1844      0.2889      0.6018      0.6018      2.0062
    883.5000      1.6149      2.0406      2.0082      2.8165      0.0000   -999.2500      0.3133      0.2721      2.0406   -999.2500      1.6149     -3.6510    -65.5000     -9.8660     -9.1275      0.2892      0.6025      0.6025      2.0082
    884.0000      1.6351      2.0377      2.0102      2.8168      0.0000   -999.2500      0.3136      0.2720      2.0377   -999.2500      1.6351     -3.6283    -65.5000     -9.8470     -9.0706      0.2895      0.6031      0.6031      2.0102
    884.5000      1.6552      2.0281      2.0123      2.8171      0.0000   -999.2500      0.3139      0.2719      2.0281   -999.2500      1.6552     -3.6045    -65.5000     -9.8270     -9.0112      0.2898      0.6037      0.6037      2.0123
    885.0000      1.6653      2.0234      2.0071      2.8164      0.0000   -999.2500      0.3131      0.2721      2.0234   -999.2500      1.6653     -3.6628    -65.5000     -9.8890     -9.1569      0.2890      0.6021      0.6021      2.0071
    885.5000      1.6754      2.0186      2.0076      2.8164      0.0000   -999.2500      0.3132      0.2721      2.0186   -999.2500      1.6754     -3.6570    -65.5000     -9.8870     -9.1425      0.2891      0.6023      0.6023      2.0076
    886.0000      1.6823      2.0156      2.0082      2.8165      0.0000   -999.2500      0.3133      0.2720      2.0156   -999.2500      1.6823     -3.6513    -65.5000     -9.8850     -9.1281      0.2892      0.6024      0.6024      2.0082
    886.5000      1.6891      2.0125      2.0060      2.8162      0.0000   -999.2500      0.3129      0.2721      2.0125   -999.2500      1.6891     -3.6755    -65.5000     -9.9130     -9.1888      0.2889      0.6018      0.6018      2.0060
