~V
VERS. 2.00: Ver 2.00
WRAP.   NO:        
~W
 STRT.FT 20:
 STOP.FT 3810:
 STEP.FT 0.5:
 NULL. -999.250000:
 COMP. Western Gulf (Chevron):Company
 WELL. KCL-SAN EMIDIO #4:Well
 FLD. :Field
 LOC. S19 T11N R22W:Location
 STAT. CA:State
 SRVC. :Service Company
 SON. :Service Order #
 DATE. :Log Date
 UWI. 2025000:Unique Well ID
~C
 DEPT.FT :
 A10".OHMM :
 AO8..OHMM :
 LTHE. :
 MM. :
 PHES. :
 PHMX. :
 PHTS. :
 PHZC. :
 RM.OHMM :
 ROS. :
 RS.OHMM :
 SBL.MV :
 SCLN. :
 SP.MV :
 SPN. :
 VCDS. :
 VCLY. :
 VCWS. :
 VSHS. :
~P
~A
# ...
   1804.5000     25.6730      4.7877      1.0000      2.7692      0.0000      0.1610      0.3809      0.4253      4.7877      2.7421     25.6730      0.5798    -79.0481     -6.6180      1.4495      0.2500      0.5000      0.5000      1.0000
   1805.0000     25.0170      4.7714      1.0000      2.7692      0.0000      0.1610      0.3809      0.4253      4.7714      2.7420     25.0170      0.5805    -77.0135     -6.6180      1.4512      0.2500      0.5000      0.5000      1.0000
   1805.5000     24.6890      4.7222      1.0000      2.7692      0.0000      0.1610      0.3809      0.4253      4.7222      2.7419     24.6890      0.5812    -74.9789     -6.6180      1.4529      0.2500      0.5000      0.5000      1.0000
   1806.0000     24.3620      4.6730      1.0000      2.7692      0.0000      0.1610      0.3809      0.4253      4.6730      2.7418     24.3620      0.6649    -72.9442     -6.5350      1.6622      0.2500      0.5000      0.5000      1.0000
   1806.5000     24.0350      4.6074      1.0000      2.7692      0.0000      0.1610      0.3808      0.4253      4.6074      2.7418     24.0350      0.6655    -70.9096     -6.5350      1.6639      0.2500      0.5000      0.5000      1.0000
   1807.0000     23.7070      4.5747      1.0000      2.7692      0.0000      0.1610      0.3808      0.4252      4.5747      2.7417     23.7070      0.6662    -68.8750     -6.5350      1.6656      0.2500      0.5000      0.5000      1.0000
   1807.5000     23.7090      4.5419      1.0000      2.7692      0.0000      0.1610      0.3808      0.4252      4.5419      2.7416     23.7090      0.6669    -66.8404     -6.5350      1.6673      0.2500      0.5000      0.5000      1.0000
   1808.0000     23.7110      4.4928      1.0000      2.7692      0.0000      0.1609      0.3808      0.4252      4.4928      2.7415     23.7110      0.6676    -64.8058     -6.5350      1.6690      0.2500      0.5000      0.5000      1.0000
   1808.5000     23.7120      4.4600      1.0000      2.7692      0.0000      0.1609      0.3808      0.4252      4.4600      2.7414     23.7120      0.6683    -62.7712     -6.5350      1.6707      0.2500      0.5000      0.5000      1.0000
   1809.0000     23.8780      4.4273      1.0000      2.7692      0.0000      0.1609      0.3808      0.4252      4.4273      2.7413     23.8780      0.6690    -60.7366     -6.5350      1.6724      0.2500      0.5000      0.5000      1.0000
   1809.5000     23.8800      4.3946      1.0000      2.7692      0.0000      0.1609      0.3808      0.4252      4.3946      2.7413     23.8800      0.6697    -58.7019     -6.5350      1.6741      0.2500      0.5000      0.5000      1.0000
   1810.0000     24.0460      4.3618      1.0000      2.7692      0.0000      0.1609      0.3808      0.4252      4.3618      2.7412     24.0460      0.6283    -56.6673     -6.5770      1.5708      0.2500      0.5000      0.5000      1.0000
   1810.5000     24.2120      4.2962      1.0000      2.7692      0.0000      0.1609      0.3807      0.4252      4.2962      2.7411     24.2120      0.5880    -54.6327     -6.6180      1.4701      0.2500      0.5000      0.5000      1.0000
   1811.0000     25.0360      4.2142      1.0000      2.7692      0.0000      0.1609      0.3807      0.4252      4.2142      2.7410     25.0360      0.5047    -52.5981     -6.7020      1.2618      0.2500      0.5000      0.5000      1.0000
   1811.5000     25.5310      4.1979      1.0000      2.7692      0.0000      0.1609      0.3807      0.4251      4.1979      2.7409     25.5310      0.4224    -50.5635     -6.7850      1.0560      0.2500      0.5000      0.5000      1.0000
   1812.0000     25.8620      4.1652      1.0000      2.7692      0.0000      0.1609      0.3807      0.4251      4.1652      2.7409     25.8620      0.1741    -48.5289     -7.0340      0.4352      0.2500      0.5000      0.5000      1.0000
   1812.5000     26.8500      4.1489      1.0000      2.7692      0.0000      0.1609      0.3807      0.4251      4.1489      2.7408     26.8500      0.0908    -46.4943     -7.1180      0.2269      0.2500      0.5000      0.5000      1.0000
   1813.0000     27.6740      4.1326      1.0000      2.7692      0.0000      0.1609      0.3807      0.4251      4.1326      2.7407     27.6740      0.0084    -44.4596     -7.2010      0.0211      0.2500      0.5000      0.5000      1.0000
   1813.5000     28.8270      4.1328      1.0000      2.7682      0.0000      0.1610      0.3810      0.4257      4.1328      2.7331     28.8270     -0.0739    -42.4250     -7.2840     -0.1847      0.2489      0.4978      0.4978      1.0000
   1814.0000     29.9800      4.1329      1.0000      2.7648      0.0000      0.1614      0.3823      0.4277      4.1329      2.7080     29.9800     -0.3232    -42.4250     -7.5340     -0.8080      0.2452      0.4905      0.4905      1.0000
   1814.5000     30.8040      4.1331      1.0000      2.7637      0.0000      0.1615      0.3827      0.4283      4.1331      2.6997     30.8040     -0.4055    -42.4250     -7.6170     -1.0138      0.2440      0.4881      0.4881      1.0000
   1815.0000     32.9440      4.1826      1.0000      2.7626      0.0000      0.1616      0.3830      0.4290      4.1826      2.6914     32.9440     -0.4878    -42.4250     -7.7000     -1.2195      0.2428      0.4856      0.4856      1.0000
   1815.5000     34.9200      4.2485      1.0000      2.7603      0.0000      0.1619      0.3839      0.4303      4.2485      2.6750     34.9200     -0.6541    -42.4250     -7.8670     -1.6353      0.2404      0.4807      0.4807      1.0000
   1816.0000     36.2370      4.3309      1.0000      2.7603      0.0000      0.1619      0.3838      0.4302      4.3309      2.6750     36.2370     -0.6534    -42.4250     -7.8670     -1.6336      0.2404      0.4807      0.4807      1.0000
   1816.5000     37.8840      4.4298      1.0000      2.7581      0.0000      0.1621      0.3846      0.4316      4.4298      2.6588     37.8840     -0.8188    -42.4250     -8.0330     -2.0469      0.2379      0.4759      0.4759      1.0000
   1817.0000     38.8720      4.5944      1.0000      2.7570      0.0000      0.1622      0.3850      0.4322      4.5944      2.6508     38.8720     -0.9011    -42.4250     -8.1160     -2.2527      0.2367      0.4735      0.4735      1.0000
   1817.5000     40.3540      4.7262      1.0000      2.7525      0.0000      0.1627      0.3867      0.4348      4.7262      2.6191     40.3540     -1.2334    -42.4250     -8.4490     -3.0835      0.2318      0.4637      0.4637      1.0000
   1818.0000     41.3420      4.8415      1.0000      2.7513      0.0000      0.1628      0.3871      0.4355      4.8415      2.6111     41.3420     -1.3167    -42.4250     -8.5330     -3.2918      0.2306      0.4612      0.4612      1.0000
   1818.5000     42.1660      5.0554      1.0000      2.7437      0.0000      0.1636      0.3898      0.4399      5.0554      2.5596     42.1660     -1.8150    -42.4250     -9.0320     -4.5376      0.2224      0.4448      0.4448      1.0000
   1819.0000     45.6220      5.1707      1.0000      2.7319      0.0000      0.1649      0.3940      0.4468      5.1707      2.4821     45.6220     -2.3973    -42.4250     -9.6150     -5.9934      0.2095      0.4190      0.4190      1.0000
   1819.5000     48.4200      5.5656      1.0000      2.7166      0.0000      0.1665      0.3995      0.4558      5.5656      2.3883     48.4200     -3.1457    -42.4250    -10.3640     -7.8641      0.1930      0.3860      0.3860      1.0000
   1820.0000     53.3550      5.7467      1.0000      2.7047      0.0000      0.1678      0.4037      0.4627      5.7467      2.3194     53.3550     -3.7280    -42.4250    -10.9470     -9.3199      0.1801      0.3602      0.3602      1.0000
   1820.5000     56.6470      5.9607      1.0000      2.6858      0.0000      0.1685      0.4061      0.4666      5.9607      2.2566     56.6470     -4.0603    -42.4250    -11.2800    -10.1507      0.1728      0.3456      0.3456      1.0000
   1821.0000     58.2930      6.0596      1.0000      2.6505      0.0000      0.1690      0.4078      0.4696      6.0596      2.1698     58.2930     -4.3096    -42.4250    -11.5300    -10.7740      0.1673      0.3345      0.3345      1.0000
