~V
VERS. 2.00: Ver 2.00
WRAP.   NO:        
~W
 STRT.FT 20:
 STOP.FT 3810:
 STEP.FT 0.5:
 NULL. -999.250000:
 COMP. Western Gulf (Chevron):Company
 WELL. KCL-SAN EMIDIO #4:Well
 FLD. :Field
 LOC. S19 T11N R22W:Location
 STAT. CA:State
 SRVC. :Service Company
 SON. :Service Order #
 DATE. :Log Date
 UWI. 2025000:Unique Well ID
~C
 DEPT.FT :
 A10".OHMM :
 AO8..OHMM :
 LTHE. :
 MM. :
 PHES. :
 PHMX. :
 PHTS. :
 PHZC. :
 RM.OHMM :
 ROS. :
 RS.OHMM :
 SBL.MV :
 SCLN. :
 SP.MV :
 SPN. :
 VCDS. :
 VCLY. :
 VCWS. :
 VSHS. :
~P
~A
# ...
   1923.5000     20.0760      2.7806      1.0000      2.7398      0.0000      0.1636      0.3887      0.4399      2.7806      2.5200     20.0760     -2.0093    -42.4250     -9.3700     -5.0232      0.2181      0.4362      0.4362      1.0000
   1924.0000     20.2370      2.7803      1.0000      2.7398      0.0000      0.1636      0.3886      0.4399      2.7803      2.5202     20.2370     -2.0066    -42.4250     -9.3680     -5.0165      0.2182      0.4363      0.4363      1.0000
   1924.5000     20.3980      2.7800      1.0000      2.7365      0.0000      0.1640      0.3898      0.4418      2.7800      2.4987     20.3980     -2.1709    -42.4250     -9.5330     -5.4273      0.2145      0.4291      0.4291      1.0000
   1925.0000     20.8880      2.7796      1.0000      2.7365      0.0000      0.1640      0.3898      0.4418      2.7796      2.4988     20.8880     -2.1692    -42.4250     -9.5320     -5.4231      0.2146      0.4291      0.4291      1.0000
   1925.5000     21.2140      2.7793      1.0000      2.7349      0.0000      0.1641      0.3904      0.4427      2.7793      2.4883     21.2140     -2.2496    -42.4250     -9.6130     -5.6239      0.2128      0.4256      0.4256      1.0000
   1926.0000     22.0330      2.7790      1.0000      2.7332      0.0000      0.1643      0.3909      0.4437      2.7790      2.4778     22.0330     -2.3309    -42.4250     -9.6950     -5.8272      0.2110      0.4220      0.4220      1.0000
   1926.5000     22.3590      2.7786      1.0000      2.7299      0.0000      0.1647      0.3921      0.4456      2.7786      2.4570     22.3590     -2.4942    -42.4250     -9.8590     -6.2355      0.2074      0.4148      0.4148      1.0000
   1927.0000     22.9310      2.7783      1.0000      2.7265      0.0000      0.1650      0.3933      0.4476      2.7783      2.4363     22.9310     -2.6585    -42.4250    -10.0240     -6.6462      0.2038      0.4075      0.4075      1.0000
   1927.5000     23.5030      2.7779      1.0000      2.7249      0.0000      0.1652      0.3939      0.4485      2.7779      2.4261     23.5030     -2.7398    -42.4250    -10.1060     -6.8495      0.2020      0.4039      0.4039      1.0000
   1928.0000     24.4870      2.7777      1.0000      2.7198      0.0000      0.1657      0.3957      0.4515      2.7777      2.3958     24.4870     -2.9871    -42.4250    -10.3540     -7.4678      0.1965      0.3930      0.3930      1.0000
   1928.5000     24.8130      2.7938      1.0000      2.7165      0.0000      0.1661      0.3969      0.4534      2.7938      2.3760     24.8130     -3.1514    -42.4250    -10.5190     -7.8786      0.1929      0.3857      0.3857      1.0000
   1929.0000     25.4670      2.7934      1.0000      2.7148      0.0000      0.1663      0.3974      0.4544      2.7934      2.3663     25.4670     -3.2328    -42.4250    -10.6010     -8.0819      0.1911      0.3821      0.3821      1.0000
   1929.5000     26.2860      2.8260      1.0000      2.7132      0.0000      0.1664      0.3980      0.4553      2.8260      2.3567     26.2860     -3.3131    -42.4250    -10.6820     -8.2827      0.1893      0.3786      0.3786      1.0000
   1930.0000     26.9410      2.8421      1.0000      2.7115      0.0000      0.1666      0.3986      0.4563      2.8421      2.3471     26.9410     -3.3944    -42.4250    -10.7640     -8.4860      0.1875      0.3750      0.3750      1.0000
   1930.5000     27.7600      2.8418      1.0000      2.7082      0.0000      0.1670      0.3998      0.4582      2.8418      2.3280     27.7600     -3.5587    -42.4250    -10.9290     -8.8968      0.1839      0.3677      0.3677      1.0000
   1931.0000     28.5790      2.8744      1.0000      2.7065      0.0000      0.1671      0.4003      0.4592      2.8744      2.3187     28.5790     -3.6390    -42.4250    -11.0100     -9.0976      0.1821      0.3642      0.3642      1.0000
   1931.5000     29.3980      2.8740      1.0000      2.7049      0.0000      0.1673      0.4009      0.4602      2.8740      2.3094     29.3980     -3.7203    -42.4250    -11.0920     -9.3008      0.1803      0.3606      0.3606      1.0000
   1932.0000     29.7240      2.9066      1.0000      2.6989      0.0000      0.1678      0.4027      0.4631      2.9066      2.2796     29.7240     -3.9677    -42.4250    -11.3400     -9.9191      0.1748      0.3496      0.3496      1.0000
   1932.5000     29.8850      2.9392      1.0000      2.6756      0.0000      0.1682      0.4038      0.4650      2.9392      2.2210     29.8850     -4.1320    -42.4250    -11.5050    -10.3299      0.1712      0.3424      0.3424      1.0000
   1933.0000     30.2110      2.9717      1.0000      2.6289      0.0000      0.1689      0.4062      0.4690      2.9717      2.1088     30.2110     -4.4623    -42.4250    -11.8360    -11.1557      0.1639      0.3278      0.3278      1.0000
   1933.5000     30.3720      2.9879      1.0000      2.6174      0.0000      0.1691      0.4068      0.4699      2.9879      2.0822     30.3720     -4.5436    -42.4250    -11.9180    -11.3590      0.1621      0.3242      0.3242      1.0000
   1934.0000     30.3690      3.0369      1.0000      2.5707      0.0000      0.1698      0.4091      0.4739      3.0369      1.9787     30.3690     -4.8739    -42.4250    -12.2490    -12.1848      0.1548      0.3096      0.3096      1.0000
   1934.5000     30.3650      3.0365      1.0000      2.5475      0.0000      0.1701      0.4103      0.4758      3.0365      1.9295     30.3650     -5.0382    -42.4250    -12.4140    -12.5956      0.1512      0.3023      0.3023      1.0000
   1935.0000     29.8690      2.9869      1.0000      2.5361      0.0000      0.1703      0.4108      0.4768      2.9869      1.9060     29.8690     -5.1185    -42.4250    -12.4950    -12.7964      0.1494      0.2988      0.2988      0.9959
   1935.5000     29.2070      2.9372      1.0000      2.5363      0.0000      0.1703      0.4108      0.4767      2.9372      1.9065     29.2070     -5.1169    -42.4250    -12.4940    -12.7922      0.1494      0.2989      0.2989      0.9962
   1936.0000     28.8750      2.8711      1.0000      2.5367      0.0000      0.1703      0.4108      0.4767      2.8711      1.9072     28.8750     -5.1142    -42.4250    -12.4920    -12.7854      0.1495      0.2990      0.2990      0.9966
   1936.5000     28.5430      2.7885      1.0000      2.5488      0.0000      0.1701      0.4101      0.4757      2.7885      1.9322     28.5430     -5.0285    -42.4250    -12.4070    -12.5712      0.1514      0.3028      0.3028      1.0000
   1937.0000     27.8820      2.7553      1.0000      2.5727      0.0000      0.1698      0.4089      0.4736      2.7553      1.9827     27.8820     -4.8598    -42.4250    -12.2390    -12.1495      0.1551      0.3102      0.3102      1.0000
   1937.5000     27.3850      2.6563      1.0000      2.5848      0.0000      0.1696      0.4083      0.4726      2.6563      2.0090     27.3850     -4.7741    -42.4250    -12.1540    -11.9353      0.1570      0.3140      0.3140      1.0000
   1938.0000     26.7240      2.5573      1.0000      2.5969      0.0000      0.1694      0.4077      0.4716      2.5573      2.0357     26.7240     -4.6884    -42.4250    -12.0690    -11.7211      0.1589      0.3178      0.3178      1.0000
   1938.5000     26.0630      2.5076      1.0000      2.6208      0.0000      0.1690      0.4065      0.4695      2.5076      2.0896     26.0630     -4.5198    -42.4250    -11.9010    -11.2994      0.1626      0.3252      0.3252      1.0000
   1939.0000     25.2370      2.4086      1.0000      2.6329      0.0000      0.1688      0.4058      0.4685      2.4086      2.1176     25.2370     -4.4341    -42.4250    -11.8160    -11.0852      0.1645      0.3290      0.3290      1.0000
   1939.5000     24.2470      2.3260      1.0000      2.6568      0.0000      0.1685      0.4046      0.4665      2.3260      2.1742     24.2470     -4.2654    -42.4250    -11.6480    -10.6635      0.1682      0.3365      0.3365      1.0000
   1940.0000     23.4210      2.2599      1.0000      2.6806      0.0000      0.1681      0.4034      0.4645      2.2599      2.2327     23.4210     -4.0967    -42.4250    -11.4800    -10.2418      0.1720      0.3439      0.3439      1.0000
