~V
VERS. 2.00: Ver 2.00
WRAP.   NO:        
~W
 STRT.FT 20:
 STOP.FT 3810:
 STEP.FT 0.5:
 NULL. -999.250000:
 COMP. Western Gulf (Chevron):Company
 WELL. KCL-SAN EMIDIO #4:Well
 FLD. :Field
 LOC. S19 T11N R22W:Location
 STAT. CA:State
 SRVC. :Service Company
 SON. :Service Order #
 DATE. :Log Date
 UWI. 2025000:Unique Well ID
~C
 DEPT.FT :
 A10".OHMM :
 AO8..OHMM :
 LTHE. :
 MM. :
 PHES. :
 PHMX. :
 PHTS. :
 PHZC. :
 RM.OHMM :
 ROS. :
 RS.OHMM :
 SBL.MV :
 SCLN. :
 SP.MV :
 SPN. :
 VCDS. :
 VCLY. :
 VCWS. :
 VSHS. :
~P
~A
# ...
    751.0000      1.6900      1.8880      1.9012      2.8017      0.0000   -999.2500      0.2966      0.2779      1.8880   -999.2500      1.6900     -4.8518    -65.5000    -10.0730    -12.1294      0.2738      0.5704      0.5704      1.9012
    751.5000      1.6903      1.8883      1.9197      2.8043      0.0000   -999.2500      0.2995      0.2774      1.8883   -999.2500      1.6903     -4.6450    -65.5000     -9.8700    -11.6125      0.2764      0.5759      0.5759      1.9197
    752.0000      1.6905      1.8854      1.9321      2.8060      0.0000   -999.2500      0.3014      0.2770      1.8854   -999.2500      1.6905     -4.5052    -65.5000     -9.7340    -11.2631      0.2782      0.5796      0.5796      1.9321
    752.5000      1.6908      1.8825      1.9356      2.8065      0.0000   -999.2500      0.3019      0.2769      1.8825   -999.2500      1.6908     -4.4665    -65.5000     -9.6990    -11.1663      0.2787      0.5807      0.5807      1.9356
    753.0000      1.6910      1.8731      1.9331      2.8061      0.0000   -999.2500      0.3016      0.2769      1.8731   -999.2500      1.6910     -4.4937    -65.5000     -9.7300    -11.2344      0.2784      0.5799      0.5799      1.9331
    753.5000      1.6963      1.8734      1.9308      2.8058      0.0000   -999.2500      0.3012      0.2770      1.8734   -999.2500      1.6963     -4.5200    -65.5000     -9.7600    -11.3000      0.2780      0.5792      0.5792      1.9308
    754.0000      1.7017      1.8704      1.9137      2.8034      0.0000   -999.2500      0.2985      0.2775      1.8704   -999.2500      1.7017     -4.7123    -65.5000     -9.9560    -11.7806      0.2756      0.5741      0.5741      1.9137
    754.5000      1.7019      1.8674      1.8965      2.8010      0.0000   -999.2500      0.2958      0.2780      1.8674   -999.2500      1.7019     -4.9055    -65.5000    -10.1530    -12.2638      0.2731      0.5689      0.5689      1.8965
    755.0000      1.7021      1.8646      1.8851      2.7995      0.0000   -999.2500      0.2941      0.2783      1.8646   -999.2500      1.7021     -5.0328    -65.5000    -10.2840    -12.5819      0.2715      0.5655      0.5655      1.8851
    755.5000      1.7058      1.8584      1.8709      2.7975      0.0000   -999.2500      0.2919      0.2788      1.8584   -999.2500      1.7058     -5.1920    -65.5000    -10.4470    -12.9800      0.2694      0.5613      0.5613      1.8709
    756.0000      1.7095      1.8521      1.8655      2.7968      0.0000   -999.2500      0.2910      0.2789      1.8521   -999.2500      1.7095     -5.2533    -65.5000    -10.5120    -13.1331      0.2686      0.5596      0.5596      1.8655
    756.5000      1.7098      1.8492      1.8454      2.7940      0.0000   -999.2500      0.2879      0.2795      1.8492   -999.2500      1.7098     -5.4785    -65.5000    -10.7410    -13.6963      0.2657      0.5536      0.5536      1.8454
    757.0000      1.7101      1.8463      1.8430      2.7936      0.0000   -999.2500      0.2875      0.2796      1.8463   -999.2500      1.7101     -5.5058    -65.5000    -10.7720    -13.7644      0.2654      0.5529      0.5529      1.8430
    757.5000      1.7103      1.8416      1.8465      2.7941      0.0000   -999.2500      0.2881      0.2795      1.8416   -999.2500      1.7103     -5.4660    -65.5000    -10.7360    -13.6650      0.2659      0.5540      0.5540      1.8465
    758.0000      1.7089      1.8369      1.8471      2.7942      0.0000   -999.2500      0.2882      0.2794      1.8369   -999.2500      1.7089     -5.4593    -65.5000    -10.7330    -13.6481      0.2660      0.5541      0.5541      1.8471
    758.5000      1.7075      1.8340      1.8448      2.7939      0.0000   -999.2500      0.2878      0.2795      1.8340   -999.2500      1.7075     -5.4855    -65.5000    -10.7630    -13.7137      0.2657      0.5534      0.5534      1.8448
    759.0000      1.7029      1.8311      1.8483      2.7944      0.0000   -999.2500      0.2883      0.2794      1.8311   -999.2500      1.7029     -5.4458    -65.5000    -10.7270    -13.6144      0.2662      0.5545      0.5545      1.8483
    759.5000      1.6982      1.8250      1.8563      2.7955      0.0000   -999.2500      0.2896      0.2791      1.8250   -999.2500      1.6982     -5.3560    -65.5000    -10.6410    -13.3900      0.2673      0.5569      0.5569      1.8563
    760.0000      1.6919      1.8254      1.8643      2.7966      0.0000   -999.2500      0.2908      0.2789      1.8254   -999.2500      1.6919     -5.2663    -65.5000    -10.5550    -13.1656      0.2685      0.5593      0.5593      1.8643
    760.5000      1.6855      1.8257      1.8679      2.7971      0.0000   -999.2500      0.2914      0.2788      1.8257   -999.2500      1.6855     -5.2265    -65.5000    -10.5190    -13.0662      0.2690      0.5604      0.5604      1.8679
    761.0000      1.6827      1.8259      1.8715      2.7976      0.0000   -999.2500      0.2920      0.2786      1.8259   -999.2500      1.6827     -5.1858    -65.5000    -10.4820    -12.9644      0.2695      0.5614      0.5614      1.8715
    761.5000      1.6830      1.8232      1.8989      2.8014      0.0000   -999.2500      0.2962      0.2778      1.8232   -999.2500      1.6830     -4.8780    -65.5000    -10.1780    -12.1950      0.2734      0.5697      0.5697      1.8989
    762.0000      1.6832      1.8268      1.9114      2.8031      0.0000   -999.2500      0.2982      0.2774      1.8268   -999.2500      1.6832     -4.7382    -65.5000    -10.0420    -11.8456      0.2752      0.5734      0.5734      1.9114
    762.5000      1.6835      1.8206      1.9178      2.8040      0.0000   -999.2500      0.2992      0.2772      1.8206   -999.2500      1.6835     -4.6655    -65.5000     -9.9730    -11.6637      0.2762      0.5753      0.5753      1.9178
    763.0000      1.6821      1.8209      1.9273      2.8053      0.0000   -999.2500      0.3007      0.2769      1.8209   -999.2500      1.6821     -4.5588    -65.5000     -9.8700    -11.3969      0.2775      0.5782      0.5782      1.9273
    763.5000      1.6808      1.8229      1.9516      2.8087      0.0000   -999.2500      0.3045      0.2762      1.8229   -999.2500      1.6808     -4.2860    -65.5000     -9.6010    -10.7150      0.2810      0.5855      0.5855      1.9516
    764.0000      1.6813      1.8248      2.0027      2.8158      0.0000   -999.2500      0.3124      0.2746      1.8248   -999.2500      1.6813     -3.7123    -65.5000     -9.0310     -9.2806      0.2884      0.6008      0.6008      2.0027
    764.5000      1.6798      1.8352      2.0419      2.8212      0.0000   -999.2500      0.3185      0.2735      1.8352   -999.2500      1.6798     -3.2725    -65.5000     -8.5950     -8.1813      0.2940      0.6126      0.6126      2.0419
    765.0000      1.6784      1.8389      2.0455      2.8217      0.0000   -999.2500      0.3191      0.2733      1.8389   -999.2500      1.6784     -3.2317    -65.5000     -8.5580     -8.0794      0.2946      0.6137      0.6137      2.0455
    765.5000      1.6754      1.8492      2.0491      2.8222      0.0000   -999.2500      0.3197      0.2732      1.8492   -999.2500      1.6754     -3.1920    -65.5000     -8.5220     -7.9800      0.2951      0.6147      0.6147      2.0491
    766.0000      1.6757      1.8561      2.0437      2.8214      0.0000   -999.2500      0.3188      0.2734      1.8561   -999.2500      1.6757     -3.2523    -65.5000     -8.5860     -8.1306      0.2943      0.6131      0.6131      2.0437
    766.5000      1.6760      1.8697      2.0308      2.8197      0.0000   -999.2500      0.3168      0.2737      1.8697   -999.2500      1.6760     -3.3965    -65.5000     -8.7340     -8.4913      0.2924      0.6093      0.6093      2.0308
    767.0000      1.6764      1.8800      2.0181      2.8179      0.0000   -999.2500      0.3148      0.2741      1.8800   -999.2500      1.6764     -3.5397    -65.5000     -8.8810     -8.8494      0.2906      0.6054      0.6054      2.0181
    767.5000      1.6749      1.8869      1.9921      2.8143      0.0000   -999.2500      0.3108      0.2749      1.8869   -999.2500      1.6749     -3.8320    -65.5000     -9.1770     -9.5800      0.2869      0.5976      0.5976      1.9921
