~V
VERS. 2.00: Ver 2.00
WRAP.   NO:        
~W
 STRT.FT 20:
 STOP.FT 3810:
 STEP.FT 0.5:
 NULL. -999.250000:
 COMP. Western Gulf (Chevron):Company
 WELL. KCL-SAN EMIDIO #4:Well
 FLD. :Field
 LOC. S19 T11N R22W:Location
 STAT. CA:State
 SRVC. :Service Company
 SON. :Service Order #
 DATE. :Log Date
 UWI. 2025000:Unique Well ID
~C
 DEPT.FT :
 A10".OHMM :
 AO8..OHMM :
 LTHE. :
 MM. :
 PHES. :
 PHMX. :
 PHTS. :
 PHZC. :
 RM.OHMM :
 ROS. :
 RS.OHMM :
 SBL.MV :
 SCLN. :
 SP.MV :
 SPN. :
 VCDS. :
 VCLY. :
 VCWS. :
 VSHS. :
~P
~A
# ...
    615.0000      2.3791      3.3580   -999.2500   -999.2500   -999.2500   -999.2500   -999.2500   -999.2500      3.3580   -999.2500      2.3791     -4.9690   -999.2500     -9.9690    -12.4225   -999.2500   -999.2500   -999.2500   -999.2500
    615.5000      2.1610      3.2526   -999.2500   -999.2500   -999.2500   -999.2500   -999.2500   -999.2500      3.2526   -999.2500      2.1610     -4.8990   -999.2500     -9.8990    -12.2475   -999.2500   -999.2500   -999.2500   -999.2500
    616.0000      1.9132      3.0911      1.9061      2.8024      0.0000   -999.2500      0.2974      0.2805      3.0911   -999.2500      1.9132     -4.7970    -65.5000     -9.7970    -11.9925      0.2745      0.5718      0.5718      1.9061
    616.5000      1.6422      2.9396      1.9153      2.8037      0.0000   -999.2500      0.2988      0.2802      2.9396   -999.2500      1.6422     -4.6940    -65.5000     -9.6940    -11.7350      0.2758      0.5746      0.5746      1.9153
    617.0000      1.5398      2.7650      1.9245      2.8049      0.0000   -999.2500      0.3002      0.2799      2.7650   -999.2500      1.5398     -4.5910    -65.5000     -9.5910    -11.4775      0.2771      0.5773      0.5773      1.9245
    617.5000      1.4605      2.6464      1.9544      2.8091      0.0000   -999.2500      0.3049      0.2790      2.6464   -999.2500      1.4605     -4.2550    -65.5000     -9.2550    -10.6375      0.2814      0.5863      0.5863      1.9544
    618.0000      1.4241      2.5015      1.9755      2.8120      0.0000   -999.2500      0.3082      0.2784      2.5015   -999.2500      1.4241     -4.0180    -65.5000     -9.0180    -10.0450      0.2845      0.5926      0.5926      1.9755
    618.5000      1.4140      2.4257      1.9905      2.8141      0.0000   -999.2500      0.3105      0.2779      2.4257   -999.2500      1.4140     -3.8490    -65.5000     -8.8490     -9.6225      0.2866      0.5972      0.5972      1.9905
    619.0000      1.4039      2.3598      2.0324      2.8199      0.0000   -999.2500      0.3171      0.2766      2.3598   -999.2500      1.4039     -3.3790    -65.5000     -8.3790     -8.4475      0.2927      0.6097      0.6097      2.0324
    619.5000      1.3974      2.2973      2.0684      2.8249      0.0000   -999.2500      0.3227      0.2756      2.2973   -999.2500      1.3974     -2.9750    -65.5000     -7.9750     -7.4375      0.2978      0.6205      0.6205      2.0684
    620.0000      1.3976      2.2512      2.0819      2.8267      0.0000   -999.2500      0.3248      0.2751      2.2512   -999.2500      1.3976     -2.8230    -65.5000     -7.8230     -7.0575      0.2998      0.6246      0.6246      2.0819
    620.5000      1.3977      2.2184      2.0955      2.8286      0.0000   -999.2500      0.3269      0.2747      2.2184   -999.2500      1.3977     -2.6710    -65.5000     -7.6710     -6.6775      0.3017      0.6286      0.6286      2.0955
    621.0000      1.3979      2.1920      2.1136      2.8311      0.0000   -999.2500      0.3297      0.2742      2.1920   -999.2500      1.3979     -2.4670    -65.5000     -7.4670     -6.1675      0.3044      0.6341      0.6341      2.1136
    621.5000      1.4014      2.1789      2.1228      2.8324      0.0000   -999.2500      0.3312      0.2739      2.1789   -999.2500      1.4014     -2.3640    -65.5000     -7.3640     -5.9100      0.3057      0.6368      0.6368      2.1228
    622.0000      1.4049      2.1625      2.1260      2.8328      0.0000   -999.2500      0.3317      0.2738      2.1625   -999.2500      1.4049     -2.3280    -65.5000     -7.3280     -5.8200      0.3061      0.6378      0.6378      2.1260
    622.5000      1.4084      2.1494      2.1263      2.8329      0.0000   -999.2500      0.3317      0.2738      2.1494   -999.2500      1.4084     -2.3250    -65.5000     -7.3250     -5.8125      0.3062      0.6379      0.6379      2.1263
    623.0000      1.4119      2.1264      2.1147      2.8313      0.0000   -999.2500      0.3299      0.2741      2.1264   -999.2500      1.4119     -2.4550    -65.5000     -7.4550     -6.1375      0.3045      0.6344      0.6344      2.1147
    623.5000      1.4153      2.1066      2.0763      2.8260      0.0000   -999.2500      0.3239      0.2752      2.1066   -999.2500      1.4153     -2.8860    -65.5000     -7.8860     -7.2150      0.2990      0.6229      0.6229      2.0763
    624.0000      1.4157      2.1214      2.0320      2.8198      0.0000   -999.2500      0.3170      0.2766      2.1214   -999.2500      1.4157     -3.3830    -65.5000     -8.3830     -8.4575      0.2926      0.6096      0.6096      2.0320
    624.5000      1.4259      2.1363      1.9966      2.8149      0.0000   -999.2500      0.3115      0.2776      2.1363   -999.2500      1.4259     -3.7810    -65.5000     -8.7810     -9.4525      0.2875      0.5990      0.5990      1.9966
    625.0000      1.4328      2.1498      1.9376      2.8067      0.0000   -999.2500      0.3023      0.2794      2.1498   -999.2500      1.4328     -4.4440    -65.5000     -9.4440    -11.1100      0.2790      0.5813      0.5813      1.9376
    625.5000      1.4428      2.1497      1.9035      2.8020      0.0000   -999.2500      0.2970      0.2804      2.1497   -999.2500      1.4428     -4.8260    -65.5000     -9.8260    -12.0650      0.2741      0.5711      0.5711      1.9035
    626.0000      1.4513      2.1333      1.8696      2.7973      0.0000   -999.2500      0.2917      0.2814      2.1333   -999.2500      1.4513     -5.2070    -65.5000    -10.2070    -13.0175      0.2692      0.5609      0.5609      1.8696
    626.5000      1.4597      2.1169      1.8165      2.7900      0.0000   -999.2500      0.2834      0.2830      2.1169   -999.2500      1.4597     -5.8030    -65.5000    -10.8030    -14.5075      0.2616      0.5450      0.5450      1.8165
    627.0000      1.4832      2.0972      1.7901      2.7863      0.0000   -999.2500      0.2793      0.2838      2.0972   -999.2500      1.4832     -6.1000    -65.5000    -11.1000    -15.2500      0.2578      0.5370      0.5370      1.7901
    627.5000      1.4900      2.0709      1.7874      2.7859      0.0000   -999.2500      0.2788      0.2838      2.0709   -999.2500      1.4900     -6.1300    -65.5000    -11.1300    -15.3250      0.2574      0.5362      0.5362      1.7874
    628.0000      1.4967      2.0808      1.7936      2.7868      0.0000   -999.2500      0.2798      0.2836      2.0808   -999.2500      1.4967     -6.0600    -65.5000    -11.0600    -15.1500      0.2583      0.5381      0.5381      1.7936
    628.5000      1.5104      2.0842      1.8058      2.7885      0.0000   -999.2500      0.2817      0.2833      2.0842   -999.2500      1.5104     -5.9240    -65.5000    -10.9240    -14.8100      0.2600      0.5417      0.5417      1.8058
    629.0000      1.5105      2.0744      1.8120      2.7894      0.0000   -999.2500      0.2827      0.2831      2.0744   -999.2500      1.5105     -5.8540    -65.5000    -10.8540    -14.6350      0.2609      0.5436      0.5436      1.8120
    629.5000      1.5140      2.0647      1.8211      2.7906      0.0000   -999.2500      0.2841      0.2828      2.0647   -999.2500      1.5140     -5.7520    -65.5000    -10.7520    -14.3800      0.2622      0.5463      0.5463      1.8211
    630.0000      1.5177      2.0483      1.8302      2.7919      0.0000   -999.2500      0.2855      0.2825      2.0483   -999.2500      1.5177     -5.6500    -65.5000    -10.6500    -14.1250      0.2635      0.5490      0.5490      1.8302
    630.5000      1.5194      2.0417      1.8662      2.7969      0.0000   -999.2500      0.2911      0.2814      2.0417   -999.2500      1.5194     -5.2450    -65.5000    -10.2450    -13.1125      0.2687      0.5599      0.5599      1.8662
    631.0000      1.5212      2.0352      1.8932      2.8006      0.0000   -999.2500      0.2953      0.2806      2.0352   -999.2500      1.5212     -4.9420    -65.5000     -9.9420    -12.3550      0.2726      0.5680      0.5680      1.8932
    631.5000      1.5448      2.0286      1.9083      2.8027      0.0000   -999.2500      0.2977      0.2801      2.0286   -999.2500      1.5448     -4.7730    -65.5000     -9.7730    -11.9325      0.2748      0.5725      0.5725      1.9083
