~V
VERS. 2.00: Ver 2.00
WRAP.   NO:        
~W
 STRT.FT 20:
 STOP.FT 3810:
 STEP.FT 0.5:
 NULL. -999.250000:
 COMP. Western Gulf (Chevron):Company
 WELL. KCL-SAN EMIDIO #4:Well
 FLD. :Field
 LOC. S19 T11N R22W:Location
 STAT. CA:State
 SRVC. :Service Company
 SON. :Service Order #
 DATE. :Log Date
 UWI. 2025000:Unique Well ID
~C
 DEPT.FT :
 A10".OHMM :
 AO8..OHMM :
 LTHE. :
 MM. :
 PHES. :
 PHMX. :
 PHTS. :
 PHZC. :
 RM.OHMM :
 ROS. :
 RS.OHMM :
 SBL.MV :
 SCLN. :
 SP.MV :
 SPN. :
 VCDS. :
 VCLY. :
 VCWS. :
 VSHS. :
~P
~A
# ...
   2450.5000     16.4480      1.9572      1.0000      2.7473      0.0000      0.1607      0.3731      0.4239      1.9572      2.5179     16.4480     -1.6969    -44.6211     -9.7790     -4.2422      0.2262      0.4525      0.4525      1.0000
   2451.0000     16.1190      2.0066      1.0000      2.7463      0.0000      0.1608      0.3735      0.4245      2.0066      2.5114     16.1190     -1.7772    -44.6339     -9.8600     -4.4429      0.2251      0.4502      0.4502      1.0000
   2451.5000     15.7900      2.0559      1.0000      2.7463      0.0000      0.1608      0.3734      0.4245      2.0559      2.5115     15.7900     -1.7755    -44.6466     -9.8590     -4.4387      0.2251      0.4503      0.4503      1.0000
   2452.0000     15.6250      2.1546      1.0000      2.7432      0.0000      0.1611      0.3745      0.4263      2.1546      2.4922     15.6250     -1.9388    -44.6594    -10.0230     -4.8470      0.2218      0.4436      0.4436      1.0000
   2452.5000     15.4600      2.2204      1.0000      2.7384      0.0000      0.1616      0.3763      0.4291      2.2204      2.4629     15.4600     -2.1861    -44.6722    -10.2710     -5.4653      0.2166      0.4332      0.4332      1.0000
   2453.0000     15.2960      2.2533      1.0000      2.7352      0.0000      0.1620      0.3774      0.4309      2.2533      2.4438     15.2960     -2.3504    -44.6850    -10.4360     -5.8761      0.2132      0.4264      0.4264      1.0000
   2453.5000     14.9670      2.2862      1.0000      2.7321      0.0000      0.1623      0.3785      0.4328      2.2862      2.4250     14.9670     -2.5148    -44.6977    -10.6010     -6.2869      0.2098      0.4195      0.4195      1.0000
   2454.0000     14.8030      2.2944      1.0000      2.7313      0.0000      0.1624      0.3788      0.4332      2.2944      2.4205     14.8030     -2.5541    -44.7105    -10.6410     -6.3852      0.2089      0.4179      0.4179      1.0000
   2454.5000     14.8030      2.3027      1.0000      2.7306      0.0000      0.1625      0.3790      0.4336      2.3027      2.4161     14.8030     -2.5934    -44.7233    -10.6810     -6.4835      0.2081      0.4163      0.4163      1.0000
   2455.0000     14.8030      2.3191      1.0000      2.7314      0.0000      0.1624      0.3787      0.4331      2.3191      2.4211     14.8030     -2.5497    -44.7360    -10.6380     -6.3743      0.2091      0.4181      0.4181      1.0000
   2455.5000     14.8030      2.3191      1.0000      2.7323      0.0000      0.1623      0.3784      0.4326      2.3191      2.4262     14.8030     -2.5060    -44.7488    -10.5950     -6.2650      0.2100      0.4200      0.4200      1.0000
   2456.0000     14.8030      2.3191      1.0000      2.7356      0.0000      0.1619      0.3772      0.4307      2.3191      2.4456     14.8030     -2.3373    -44.7616    -10.4270     -5.8433      0.2135      0.4271      0.4271      1.0000
   2456.5000     14.8030      2.3191      1.0000      2.7389      0.0000      0.1616      0.3760      0.4287      2.3191      2.4654     14.8030     -2.1677    -44.7743    -10.2580     -5.4191      0.2171      0.4342      0.4342      1.0000
   2457.0000     14.9670      2.3273      1.0000      2.7293      0.0000      0.1626      0.3794      0.4343      2.3273      2.4083     14.9670     -2.6650    -44.7871    -10.7560     -6.6624      0.2067      0.4134      0.4134      1.0000
   2457.5000     15.1320      2.3355      1.0000      2.7293      0.0000      0.1626      0.3794      0.4343      2.3355      2.4087     15.1320     -2.6623    -44.7999    -10.7540     -6.6557      0.2068      0.4136      0.4136      1.0000
   2458.0000     15.2960      2.3356      1.0000      2.7294      0.0000      0.1626      0.3794      0.4342      2.3356      2.4089     15.2960     -2.6606    -44.8126    -10.7530     -6.6515      0.2068      0.4137      0.4137      1.0000
   2458.5000     15.9540      2.3355      1.0000      2.7295      0.0000      0.1626      0.3793      0.4342      2.3355      2.4093     15.9540     -2.6579    -44.8254    -10.7510     -6.6448      0.2069      0.4138      0.4138      1.0000
   2459.0000     16.1190      2.3355      1.0000      2.7279      0.0000      0.1627      0.3799      0.4351      2.3355      2.4002     16.1190     -2.7392    -44.8382    -10.8330     -6.8481      0.2052      0.4105      0.4105      1.0000
   2459.5000     16.2830      2.3356      1.0000      2.7280      0.0000      0.1627      0.3798      0.4350      2.3356      2.4006     16.2830     -2.7365    -44.8509    -10.8310     -6.8414      0.2053      0.4106      0.4106      1.0000
   2460.0000     16.9410      2.3356      1.0000      2.7248      0.0000      0.1631      0.3810      0.4369      2.3356      2.3824     16.9410     -2.9009    -44.8637    -10.9960     -7.2522      0.2019      0.4038      0.4038      1.0000
   2460.5000     17.2700      2.3849      1.0000      2.7217      0.0000      0.1634      0.3821      0.4387      2.3849      2.3645     17.2700     -3.0652    -44.8765    -11.1610     -7.6629      0.1985      0.3969      0.3969      1.0000
   2461.0000     17.3250      2.4671      1.0000      2.7201      0.0000      0.1636      0.3826      0.4396      2.4671      2.3559     17.3250     -3.1455    -44.8892    -11.2420     -7.8637      0.1968      0.3936      0.3936      1.0000
   2461.5000     17.3800      2.5329      1.0000      2.7170      0.0000      0.1639      0.3837      0.4414      2.5329      2.3384     17.3800     -3.3098    -44.9020    -11.4070     -8.2745      0.1934      0.3868      0.3868      1.0000
   2462.0000     17.4340      2.6645      1.0000      2.7122      0.0000      0.1644      0.3854      0.4442      2.6645      2.3124     17.4340     -3.5571    -44.9148    -11.6550     -8.8928      0.1883      0.3765      0.3765      1.0000
   2462.5000     17.2700      2.7385      1.0000      2.7091      0.0000      0.1647      0.3865      0.4460      2.7385      2.2955     17.2700     -3.7214    -44.9275    -11.8200     -9.3036      0.1848      0.3697      0.3697      1.0000
   2463.0000     20.3950      2.8125      1.0000      2.7068      0.0000      0.1650      0.3873      0.4474      2.8125      2.2831     20.3950     -3.8438    -44.9403    -11.9430     -9.6094      0.1823      0.3646      0.3646      1.0000
   2463.5000     21.5460      2.9277      1.0000      2.7044      0.0000      0.1652      0.3881      0.4487      2.9277      2.2707     21.5460     -3.9671    -44.9531    -12.0670     -9.9177      0.1798      0.3595      0.3595      1.0000
   2464.0000     21.5460      3.0099      1.0000      2.7061      0.0000      0.1650      0.3875      0.4477      3.0099      2.2794     21.5460     -3.8814    -44.9659    -11.9820     -9.7035      0.1816      0.3632      0.3632      1.0000
   2464.5000     21.3820      2.9935      1.0000      2.7077      0.0000      0.1649      0.3869      0.4468      2.9935      2.2882     21.3820     -3.7957    -44.9786    -11.8970     -9.4893      0.1834      0.3668      0.3668      1.0000
   2465.0000     21.2170      2.7796      1.0000      2.7094      0.0000      0.1647      0.3863      0.4458      2.7796      2.2971     21.2170     -3.7100    -44.9914    -11.8120     -9.2750      0.1852      0.3704      0.3704      1.0000
   2465.5000     20.5590      2.5987      1.0000      2.7127      0.0000      0.1643      0.3851      0.4438      2.5987      2.3146     20.5590     -3.5413    -45.0042    -11.6440     -8.8533      0.1887      0.3775      0.3775      1.0000
   2466.0000     20.2300      2.4589      1.0000      2.7159      0.0000      0.1640      0.3840      0.4419      2.4589      2.3324     20.2300     -3.3726    -45.0169    -11.4760     -8.4316      0.1923      0.3845      0.3845      1.0000
   2466.5000     19.7370      2.3190      1.0000      2.7192      0.0000      0.1636      0.3828      0.4400      2.3190      2.3505     19.7370     -3.2030    -45.0297    -11.3070     -8.0074      0.1958      0.3916      0.3916      1.0000
   2467.0000     19.2430      2.1875      1.0000      2.7225      0.0000      0.1633      0.3816      0.4381      2.1875      2.3687     19.2430     -3.0343    -45.0425    -11.1390     -7.5857      0.1993      0.3987      0.3987      1.0000
