~V
VERS. 2.00: Ver 2.00
WRAP.   NO:        
~W
 STRT.FT 20:
 STOP.FT 3810:
 STEP.FT 0.5:
 NULL. -999.250000:
 COMP. Western Gulf (Chevron):Company
 WELL. KCL-SAN EMIDIO #4:Well
 FLD. :Field
 LOC. S19 T11N R22W:Location
 STAT. CA:State
 SRVC. :Service Company
 SON. :Service Order #
 DATE. :Log Date
 UWI. 2025000:Unique Well ID
~C
 DEPT.FT :
 A10".OHMM :
 AO8..OHMM :
 LTHE. :
 MM. :
 PHES. :
 PHMX. :
 PHTS. :
 PHZC. :
 RM.OHMM :
 ROS. :
 RS.OHMM :
 SBL.MV :
 SCLN. :
 SP.MV :
 SPN. :
 VCDS. :
 VCLY. :
 VCWS. :
 VSHS. :
~P
~A
# ...
   1277.5000      1.8086      2.0931      1.9094      2.8028      0.0000   -999.2500      0.2979      0.2699      2.0931   -999.2500      1.8086     -4.7600    -65.5000    -16.9600    -11.9000      0.2750      0.5728      0.5728      1.9094
   1278.0000      1.8090      2.1131      1.9032      2.8020      0.0000   -999.2500      0.2969      0.2701      2.1131   -999.2500      1.8090     -4.8297    -65.5000    -17.0240    -12.0743      0.2741      0.5710      0.5710      1.9032
   1278.5000      1.8093      2.1431      1.9030      2.8019      0.0000   -999.2500      0.2969      0.2701      2.1431   -999.2500      1.8093     -4.8324    -65.5000    -17.0210    -12.0811      0.2740      0.5709      0.5709      1.9030
   1279.0000      1.8096      2.1598      1.8849      2.7994      0.0000   -999.2500      0.2940      0.2707      2.1598   -999.2500      1.8096     -5.0351    -65.5000    -17.2180    -12.5879      0.2714      0.5655      0.5655      1.8849
   1279.5000      1.8232      2.1682      1.8786      2.7986      0.0000   -999.2500      0.2931      0.2708      2.1682   -999.2500      1.8232     -5.1059    -65.5000    -17.2830    -12.7646      0.2705      0.5636      0.5636      1.8786
   1280.0000      1.8334      2.1765      1.8636      2.7965      0.0000   -999.2500      0.2907      0.2713      2.1765   -999.2500      1.8334     -5.2746    -65.5000    -17.4460    -13.1864      0.2684      0.5591      0.5591      1.8636
   1280.5000      1.8404      2.1737      1.8396      2.7932      0.0000   -999.2500      0.2870      0.2720      2.1737   -999.2500      1.8404     -5.5443    -65.5000    -17.7100    -13.8607      0.2649      0.5519      0.5519      1.8396
   1281.0000      1.8407      2.1574      1.8334      2.7923      0.0000   -999.2500      0.2860      0.2722      2.1574   -999.2500      1.8407     -5.6140    -65.5000    -17.7740    -14.0350      0.2640      0.5500      0.5500      1.8334
   1281.5000      1.8477      2.1444      1.8390      2.7931      0.0000   -999.2500      0.2869      0.2720      2.1444   -999.2500      1.8477     -5.5507    -65.5000    -17.7050    -13.8768      0.2648      0.5517      0.5517      1.8390
   1282.0000      1.8612      2.1249      1.8477      2.7943      0.0000   -999.2500      0.2882      0.2717      2.1249   -999.2500      1.8612     -5.4524    -65.5000    -17.6010    -13.6311      0.2661      0.5543      0.5543      1.8477
   1282.5000      1.8829      2.1185      1.8624      2.7963      0.0000   -999.2500      0.2905      0.2713      2.1185   -999.2500      1.8829     -5.2881    -65.5000    -17.4310    -13.2204      0.2682      0.5587      0.5587      1.8624
   1283.0000      1.9046      2.1120      1.8769      2.7983      0.0000   -999.2500      0.2928      0.2709      2.1120   -999.2500      1.9046     -5.1249    -65.5000    -17.2620    -12.8121      0.2703      0.5631      0.5631      1.8769
   1283.5000      1.9183      2.0927      1.8797      2.7987      0.0000   -999.2500      0.2932      0.2708      2.0927   -999.2500      1.9183     -5.0936    -65.5000    -17.2250    -12.7339      0.2707      0.5639      0.5639      1.8797
   1284.0000      1.9253      2.0797      1.8764      2.7983      0.0000   -999.2500      0.2927      0.2709      2.0797   -999.2500      1.9253     -5.1303    -65.5000    -17.2560    -12.8257      0.2702      0.5629      0.5629      1.8764
   1284.5000      1.9322      2.0734      1.8791      2.7986      0.0000   -999.2500      0.2931      0.2708      2.0734   -999.2500      1.9322     -5.1000    -65.5000    -17.2200    -12.7500      0.2706      0.5637      0.5637      1.8791
   1285.0000      1.9390      2.0702      1.8818      2.7990      0.0000   -999.2500      0.2936      0.2707      2.0702   -999.2500      1.9390     -5.0697    -65.5000    -17.1840    -12.6743      0.2710      0.5645      0.5645      1.8818
   1285.5000      1.9459      2.0672      1.8846      2.7994      0.0000   -999.2500      0.2940      0.2706      2.0672   -999.2500      1.9459     -5.0384    -65.5000    -17.1470    -12.5961      0.2714      0.5654      0.5654      1.8846
   1286.0000      1.9464      2.0740      1.8992      2.8014      0.0000   -999.2500      0.2963      0.2702      2.0740   -999.2500      1.9464     -4.8741    -65.5000    -16.9770    -12.1854      0.2735      0.5698      0.5698      1.8992
   1286.5000      1.9500      2.0775      1.9138      2.8034      0.0000   -999.2500      0.2986      0.2697      2.0775   -999.2500      1.9500     -4.7109    -65.5000    -16.8080    -11.7771      0.2756      0.5741      0.5741      1.9138
   1287.0000      1.9503      2.0777      1.9344      2.8063      0.0000   -999.2500      0.3018      0.2691      2.0777   -999.2500      1.9503     -4.4796    -65.5000    -16.5710    -11.1989      0.2786      0.5803      0.5803      1.9344
   1287.5000      1.9572      2.0879      1.9385      2.8069      0.0000   -999.2500      0.3024      0.2690      2.0879   -999.2500      1.9572     -4.4333    -65.5000    -16.5190    -11.0832      0.2791      0.5816      0.5816      1.9385
   1288.0000      1.9641      2.1013      1.9426      2.8074      0.0000   -999.2500      0.3031      0.2688      2.1013   -999.2500      1.9641     -4.3870    -65.5000    -16.4670    -10.9675      0.2797      0.5828      0.5828      1.9426
   1288.5000      1.9678      2.1115      1.9544      2.8091      0.0000   -999.2500      0.3049      0.2685      2.1115   -999.2500      1.9678     -4.2547    -65.5000    -16.3290    -10.6368      0.2814      0.5863      0.5863      1.9544
   1289.0000      1.9715      2.1182      1.9615      2.8101      0.0000   -999.2500      0.3060      0.2683      2.1182   -999.2500      1.9715     -4.1754    -65.5000    -16.2440    -10.4386      0.2825      0.5884      0.5884      1.9615
   1289.5000      1.9719      2.1448      1.9685      2.8110      0.0000   -999.2500      0.3071      0.2680      2.1448   -999.2500      1.9719     -4.0961    -65.5000    -16.1590    -10.2404      0.2835      0.5906      0.5906      1.9685
   1290.0000      1.9821      2.1664      1.9863      2.8135      0.0000   -999.2500      0.3099      0.2675      2.1664   -999.2500      1.9821     -3.8969    -65.5000    -15.9540     -9.7421      0.2860      0.5959      0.5959      1.9863
   1290.5000      1.9857      2.1880      1.9949      2.8147      0.0000   -999.2500      0.3112      0.2672      2.1880   -999.2500      1.9857     -3.7996    -65.5000    -15.8510     -9.4989      0.2873      0.5985      0.5985      1.9949
   1291.0000      1.9860      2.2444      2.0184      2.8179      0.0000   -999.2500      0.3149      0.2665      2.2444   -999.2500      1.9860     -3.5363    -65.5000    -15.5820     -8.8407      0.2906      0.6055      0.6055      2.0184
   1291.5000      1.9912      2.3073      2.0390      2.8208      0.0000   -999.2500      0.3181      0.2659      2.3073   -999.2500      1.9912     -3.3050    -65.5000    -15.3450     -8.2625      0.2936      0.6117      0.6117      2.0390
   1292.0000      1.9964      2.3404      2.0328      2.8199      0.0000   -999.2500      0.3171      0.2661      2.3404   -999.2500      1.9964     -3.3747    -65.5000    -15.4090     -8.4368      0.2927      0.6098      0.6098      2.0328
   1292.5000      2.0135      2.4067      2.0147      2.8174      0.0000   -999.2500      0.3143      0.2666      2.4067   -999.2500      2.0135     -3.5774    -65.5000    -15.6060     -8.9436      0.2901      0.6044      0.6044      2.0147
   1293.0000      2.0303      2.4530      1.9908      2.8141      0.0000   -999.2500      0.3106      0.2673      2.4530   -999.2500      2.0303     -3.8461    -65.5000    -15.8690     -9.6154      0.2867      0.5972      0.5972      1.9908
   1293.5000      2.1363      2.5126      1.9697      2.8112      0.0000   -999.2500      0.3073      0.2680      2.5126   -999.2500      2.1363     -4.0829    -65.5000    -16.1000    -10.2071      0.2836      0.5909      0.5909      1.9697
   1294.0000      2.3381      2.5441      1.9516      2.8087      0.0000   -999.2500      0.3044      0.2685      2.5441   -999.2500      2.3381     -4.2866    -65.5000    -16.2980    -10.7164      0.2810      0.5855      0.5855      1.9516
