~V
VERS. 2.00: Ver 2.00
WRAP.   NO:        
~W
 STRT.FT 20:
 STOP.FT 3810:
 STEP.FT 0.5:
 NULL. -999.250000:
 COMP. Western Gulf (Chevron):Company
 WELL. KCL-SAN EMIDIO #4:Well
 FLD. :Field
 LOC. S19 T11N R22W:Location
 STAT. CA:State
 SRVC. :Service Company
 SON. :Service Order #
 DATE. :Log Date
 UWI. 2025000:Unique Well ID
~C
 DEPT.FT :
 A10".OHMM :
 AO8..OHMM :
 LTHE. :
 MM. :
 PHES. :
 PHMX. :
 PHTS. :
 PHZC. :
 RM.OHMM :
 ROS. :
 RS.OHMM :
 SBL.MV :
 SCLN. :
 SP.MV :
 SPN. :
 VCDS. :
 VCLY. :
 VCWS. :
 VSHS. :
~P
~A
# ...
   2331.5000     24.0740      3.7890      1.0000      2.7500      0.0000      0.1609      0.3750      0.4250      3.7890      2.5442     24.0740     -1.4148    -42.4250     -9.3340     -3.5369      0.2292      0.4583      0.4583      1.0000
   2332.0000     24.8950      3.9204      1.0000      2.7489      0.0000      0.1610      0.3754      0.4256      3.9204      2.5369     24.8950     -1.4981    -42.4250     -9.4180     -3.7452      0.2279      0.4559      0.4559      1.0000
   2332.5000     25.3870      4.0518      1.0000      2.7477      0.0000      0.1611      0.3758      0.4263      4.0518      2.5295     25.3870     -1.5824    -42.4250     -9.5030     -3.9560      0.2267      0.4534      0.4534      1.0000
   2333.0000     25.8780      4.6273      1.0000      2.7434      0.0000      0.1616      0.3774      0.4288      4.6273      2.5022     25.8780     -1.8317    -42.4250     -9.7530     -4.5793      0.2220      0.4440      0.4440      1.0000
   2333.5000     26.3700      5.2193      1.0000      2.7459      0.0000      0.1613      0.3764      0.4273      5.2193      2.5182     26.3700     -1.7070    -42.4250     -9.6290     -4.2676      0.2248      0.4496      0.4496      1.0000
   2334.0000     27.3550      5.3014      1.0000      2.7477      0.0000      0.1611      0.3758      0.4262      5.3014      2.5294     27.3550     -1.5823    -42.4250     -9.5050     -3.9559      0.2267      0.4534      0.4534      1.0000
   2334.5000     28.5050      5.1449      1.0000      2.7500      0.0000      0.1609      0.3750      0.4249      5.1449      2.5439     28.5050     -1.4157    -42.4250     -9.3390     -3.5391      0.2291      0.4583      0.4583      1.0000
   2335.0000     28.9970      4.9885      1.0000      2.7534      0.0000      0.1605      0.3737      0.4229      4.9885      2.5659     28.9970     -1.1660    -42.4250     -9.0900     -2.9149      0.2328      0.4656      0.4656      1.0000
   2335.5000     28.3370      4.6594      1.0000      2.7568      0.0000      0.1602      0.3725      0.4209      4.6594      2.5883     28.3370     -0.9163    -42.4250     -8.8410     -2.2907      0.2365      0.4730      0.4730      1.0000
   2336.0000     27.3490      4.3961      1.0000      2.7613      0.0000      0.1597      0.3708      0.4183      4.3961      2.6186     27.3490     -0.5836    -42.4250     -8.5090     -1.4590      0.2414      0.4828      0.4828      1.0000
   2336.5000     26.1960      4.1656      1.0000      2.7658      0.0000      0.1592      0.3692      0.4156      4.1656      2.6496     26.1960     -0.2509    -42.4250     -8.1770     -0.6273      0.2463      0.4926      0.4926      1.0000
   2337.0000     24.8780      3.7707      1.0000      2.7686      0.0000      0.1589      0.3681      0.4139      3.7707      2.6692     24.8780     -0.0432    -42.4250     -7.9700     -0.1081      0.2494      0.4987      0.4987      1.0000
   2337.5000     23.3970      3.4910      1.0000      2.7692      0.0000      0.1588      0.3679      0.4136      3.4910      2.6733     23.3970      0.1644    -42.4250     -7.7630      0.4111      0.2500      0.5000      0.5000      1.0000
   2338.0000     22.0790      3.1619      1.0000      2.7692      0.0000      0.1588      0.3679      0.4136      3.1619      2.6733     22.0790      0.4561    -42.4250     -7.4720      1.1403      0.2500      0.5000      0.5000      1.0000
   2338.5000     20.9260      2.7998      1.0000      2.7692      0.0000      0.1588      0.3679      0.4136      2.7998      2.6732     20.9260      0.7468    -42.4250     -7.1820      1.8670      0.2500      0.5000      0.5000      1.0000
   2339.0000     19.9380      2.1089      1.0000      2.7692      0.0000      0.1588      0.3678      0.4135      2.1089      2.6732     19.9380      0.8715    -42.4250     -7.0580      2.1788      0.2500      0.5000      0.5000      1.0000
   2339.5000     19.6070      1.8620      1.0000      2.7692      0.0000      0.1588      0.3678      0.4135      1.8620      2.6731     19.6070      0.9962    -42.4250     -6.9340      2.4905      0.2500      0.5000      0.5000      1.0000
   2340.0000     19.4410      1.7138      1.0000      2.7692      0.0000      0.1588      0.3678      0.4135      1.7138      2.6731     19.4410      0.6639    -42.4250     -7.2670      1.6597      0.2500      0.5000      0.5000      1.0000
   2340.5000     19.2750      1.6479      1.0000      2.7692      0.0000      0.1588      0.3678      0.4135      1.6479      2.6730     19.2750      0.4136    -42.4250     -7.5180      1.0339      0.2500      0.5000      0.5000      1.0000
   2341.0000     18.7800      1.5819      1.0000      2.7681      0.0000      0.1589      0.3682      0.4142      1.5819      2.6648     18.7800     -0.0858    -42.4250     -8.0180     -0.2144      0.2487      0.4975      0.4975      1.0000
   2341.5000     18.6140      1.5653      1.0000      2.7624      0.0000      0.1595      0.3703      0.4175      1.5653      2.6257     18.6140     -0.5021    -42.4250     -8.4350     -1.2552      0.2426      0.4852      0.4852      1.0000
   2342.0000     18.1190      1.6145      1.0000      2.7545      0.0000      0.1604      0.3731      0.4221      1.6145      2.5725     18.1190     -1.0854    -42.4250     -9.0190     -2.7135      0.2340      0.4680      0.4680      1.0000
   2342.5000     17.7880      1.7624      1.0000      2.7488      0.0000      0.1610      0.3752      0.4254      1.7624      2.5357     17.7880     -1.5017    -42.4250     -9.4360     -3.7543      0.2279      0.4558      0.4558      1.0000
   2343.0000     17.4570      1.8773      1.0000      2.7465      0.0000      0.1612      0.3760      0.4267      1.8773      2.5212     17.4570     -1.6680    -42.4250     -9.6030     -4.1701      0.2254      0.4509      0.4509      1.0000
   2343.5000     16.7980      1.9594      1.0000      2.7450      0.0000      0.1614      0.3765      0.4276      1.9594      2.5117     16.7980     -1.7513    -42.4250     -9.6870     -4.3783      0.2238      0.4476      0.4476      1.0000
   2344.0000     16.4670      2.0414      1.0000      2.7433      0.0000      0.1616      0.3771      0.4286      2.0414      2.5008     16.4670     -1.8357    -42.4250     -9.7720     -4.5891      0.2219      0.4439      0.4439      1.0000
   2344.5000     15.9720      2.2058      1.0000      2.7416      0.0000      0.1617      0.3777      0.4296      2.2058      2.4903     15.9720     -1.9180    -42.4250     -9.8550     -4.7949      0.2201      0.4402      0.4402      1.0000
   2345.0000     15.4770      2.3865      1.0000      2.7416      0.0000      0.1617      0.3777      0.4296      2.3865      2.4903     15.4770     -1.9183    -42.4250     -9.8560     -4.7957      0.2201      0.4402      0.4402      1.0000
   2345.5000     15.3110      2.4604      1.0000      2.7416      0.0000      0.1617      0.3777      0.4295      2.4604      2.4902     15.3110     -1.9186    -42.4250     -9.8570     -4.7965      0.2201      0.4402      0.4402      1.0000
   2346.0000     15.3090      2.5342      1.0000      2.7399      0.0000      0.1619      0.3783      0.4305      2.5342      2.4796     15.3090     -2.0019    -42.4250     -9.9410     -5.0048      0.2183      0.4365      0.4365      1.0000
   2346.5000     15.4720      2.5505      1.0000      2.7399      0.0000      0.1619      0.3783      0.4305      2.5505      2.4795     15.4720     -2.0022    -42.4250     -9.9420     -5.0056      0.2183      0.4365      0.4365      1.0000
   2347.0000     15.6350      2.5175      1.0000      2.7399      0.0000      0.1619      0.3783      0.4305      2.5175      2.4795     15.6350     -2.0025    -42.4250     -9.9430     -5.0064      0.2182      0.4365      0.4365      1.0000
   2347.5000     16.1270      2.5337      1.0000      2.7391      0.0000      0.1620      0.3786      0.4310      2.5337      2.4742     16.1270     -2.0439    -42.4250     -9.9850     -5.1097      0.2173      0.4347      0.4347      1.0000
   2348.0000     16.4540      2.6158      1.0000      2.7382      0.0000      0.1621      0.3789      0.4315      2.6158      2.4689     16.4540     -2.0862    -42.4250    -10.0280     -5.2154      0.2164      0.4328      0.4328      1.0000
