~V
VERS. 2.00: Ver 2.00
WRAP.   NO:        
~W
 STRT.FT 20:
 STOP.FT 3810:
 STEP.FT 0.5:
 NULL. -999.250000:
 COMP. Western Gulf (Chevron):Company
 WELL. KCL-SAN EMIDIO #4:Well
 FLD. :Field
 LOC. S19 T11N R22W:Location
 STAT. CA:State
 SRVC. :Service Company
 SON. :Service Order #
 DATE. :Log Date
 UWI. 2025000:Unique Well ID
~C
 DEPT.FT :
 A10".OHMM :
 AO8..OHMM :
 LTHE. :
 MM. :
 PHES. :
 PHMX. :
 PHTS. :
 PHZC. :
 RM.OHMM :
 ROS. :
 RS.OHMM :
 SBL.MV :
 SCLN. :
 SP.MV :
 SPN. :
 VCDS. :
 VCLY. :
 VCWS. :
 VSHS. :
~P
~A
# ...
   2586.5000     16.1190      1.4474      1.0000      2.7376      0.0000      0.1619      0.3758      0.4307      1.4474      2.4258     16.1190     -2.7847    -48.0940    -11.0530     -6.9617      0.2082      0.4164      0.4164      1.0000
   2587.0000     15.4610      1.4391      1.0000      2.7399      0.0000      0.1617      0.3750      0.4293      1.4391      2.4393     15.4610     -2.6580    -48.1068    -10.9270     -6.6450      0.2107      0.4214      0.4214      1.0000
   2587.5000     15.1320      1.4309      1.0000      2.7422      0.0000      0.1614      0.3741      0.4280      1.4309      2.4530     15.1320     -2.5313    -48.1196    -10.8010     -6.3283      0.2132      0.4264      0.4264      1.0000
   2588.0000     14.8030      1.4967      1.0000      2.7483      0.0000      0.1608      0.3719      0.4244      1.4967      2.4895     14.8030     -2.1966    -48.1323    -10.4670     -5.4916      0.2197      0.4394      0.4394      1.0000
   2588.5000     14.4740      1.5378      1.0000      2.7514      0.0000      0.1605      0.3708      0.4226      1.5378      2.5082     14.4740     -2.0290    -48.1451    -10.3000     -5.0724      0.2230      0.4460      0.4460      1.0000
   2589.0000     14.1450      1.5789      1.0000      2.7530      0.0000      0.1603      0.3703      0.4217      1.5789      2.5179     14.1450     -1.9443    -48.1579    -10.2160     -4.8607      0.2247      0.4493      0.4493      1.0000
   2589.5000     13.9800      1.6612      1.0000      2.7551      0.0000      0.1601      0.3695      0.4205      1.6612      2.5313     13.9800     -1.7766    -48.1706    -10.0490     -4.4415      0.2269      0.4539      0.4539      1.0000
   2590.0000     13.8160      1.6777      1.0000      2.7562      0.0000      0.1600      0.3691      0.4199      1.6777      2.5378     13.8160     -1.6919    -48.1834     -9.9650     -4.2297      0.2281      0.4561      0.4561      1.0000
   2590.5000     13.4870      1.7270      1.0000      2.7547      0.0000      0.1601      0.3696      0.4207      1.7270      2.5286     13.4870     -1.8152    -48.1962    -10.0890     -4.5380      0.2265      0.4529      0.4529      1.0000
   2591.0000     13.4870      1.7270      1.0000      2.7533      0.0000      0.1603      0.3702      0.4216      1.7270      2.5190     13.4870     -1.9385    -48.2089    -10.2130     -4.8463      0.2248      0.4496      0.4496      1.0000
   2591.5000     13.4870      1.7434      1.0000      2.7554      0.0000      0.1601      0.3694      0.4204      1.7434      2.5322     13.4870     -1.7698    -48.2217    -10.0450     -4.4246      0.2271      0.4541      0.4541      1.0000
   2592.0000     13.6520      1.7599      1.0000      2.7564      0.0000      0.1600      0.3690      0.4198      1.7599      2.5387     13.6520     -1.6852    -48.2345     -9.9610     -4.2129      0.2282      0.4563      0.4563      1.0000
   2592.5000     13.6520      1.7599      1.0000      2.7565      0.0000      0.1600      0.3690      0.4197      1.7599      2.5390     13.6520     -1.6835    -48.2472     -9.9600     -4.2087      0.2282      0.4564      0.4564      1.0000
   2593.0000     13.7340      1.7599      1.0000      2.7566      0.0000      0.1599      0.3690      0.4197      1.7599      2.5391     13.7340     -1.6828    -48.2600     -9.9600     -4.2070      0.2282      0.4564      0.4564      1.0000
   2593.5000     13.8160      1.7599      1.0000      2.7536      0.0000      0.1603      0.3700      0.4214      1.7599      2.5205     13.8160     -1.9311    -48.2728    -10.2090     -4.8278      0.2250      0.4500      0.4500      1.0000
   2594.0000     13.8980      1.7763      1.0000      2.7209      0.0000      0.1637      0.3818      0.4406      1.7763      2.3295     13.8980     -3.7604    -48.2855    -12.0390     -9.4011      0.1895      0.3790      0.3790      1.0000
   2594.5000     13.9800      1.7763      1.0000      2.7105      0.0000      0.1649      0.3854      0.4467      1.7763      2.2744     13.9800     -4.3417    -48.2983    -12.6210    -10.8543      0.1782      0.3564      0.3564      1.0000
   2595.0000     13.9810      1.7928      1.0000      2.7091      0.0000      0.1650      0.3859      0.4475      1.7928      2.2670     13.9810     -4.4231    -48.3111    -12.7030    -11.0576      0.1767      0.3533      0.3533      1.0000
   2595.5000     13.9810      1.7928      1.0000      2.7107      0.0000      0.1648      0.3854      0.4466      1.7928      2.2751     13.9810     -4.3384    -48.3239    -12.6190    -10.8459      0.1783      0.3567      0.3567      1.0000
   2596.0000     13.8160      1.7928      1.0000      2.7123      0.0000      0.1647      0.3848      0.4457      1.7928      2.2831     13.8160     -4.2537    -48.3366    -12.5350    -10.6342      0.1800      0.3600      0.3600      1.0000
   2596.5000     13.8160      1.7599      1.0000      2.7139      0.0000      0.1645      0.3843      0.4448      1.7599      2.2912     13.8160     -4.1690    -48.3494    -12.4510    -10.4225      0.1817      0.3633      0.3633      1.0000
   2597.0000     13.6520      1.7270      1.0000      2.7154      0.0000      0.1643      0.3837      0.4439      1.7270      2.2994     13.6520     -4.0843    -48.3622    -12.3670    -10.2108      0.1833      0.3667      0.3667      1.0000
   2597.5000     13.4870      1.7106      1.0000      2.7155      0.0000      0.1643      0.3837      0.4438      1.7106      2.2997     13.4870     -4.0826    -48.3749    -12.3660    -10.2066      0.1834      0.3668      0.3668      1.0000
   2598.0000     13.3230      1.6941      1.0000      2.7112      0.0000      0.1648      0.3852      0.4464      1.6941      2.2766     13.3230     -4.3309    -48.3877    -12.6150    -10.8274      0.1786      0.3572      0.3572      1.0000
   2598.5000     13.3230      1.6448      1.0000      2.7083      0.0000      0.1651      0.3863      0.4481      1.6448      2.2615     13.3230     -4.4963    -48.4005    -12.7810    -11.2407      0.1754      0.3508      0.3508      1.0000
   2599.0000     13.3230      1.6283      1.0000      2.7006      0.0000      0.1653      0.3868      0.4489      1.6283      2.2409     13.3230     -4.5776    -48.4132    -12.8630    -11.4439      0.1739      0.3477      0.3477      1.0000
   2599.5000     13.3240      1.6119      1.0000      2.6700      0.0000      0.1657      0.3883      0.4515      1.6119      2.1646     13.3240     -4.8259    -48.4260    -13.1120    -12.0647      0.1691      0.3381      0.3381      1.0000
   2600.0000     13.3240      1.5901      1.0000      2.6807      0.0000      0.1656      0.3877      0.4506      1.5901      2.1908     13.3240     -4.7412    -48.4388    -13.0280    -11.8530      0.1707      0.3415      0.3415      1.0000
   2600.5000     13.3250      1.5682   -999.2500   -999.2500   -999.2500   -999.2500   -999.2500   -999.2500      1.5682   -999.2500     13.3250     -4.6575   -999.2500    -12.9450    -11.6438   -999.2500   -999.2500   -999.2500   -999.2500
   2601.0000     13.3260      1.5464   -999.2500   -999.2500   -999.2500   -999.2500   -999.2500   -999.2500      1.5464   -999.2500     13.3260     -4.5738   -999.2500    -12.8620    -11.4346   -999.2500   -999.2500   -999.2500   -999.2500
   2601.5000     13.3270      1.5137   -999.2500   -999.2500   -999.2500   -999.2500   -999.2500   -999.2500      1.5137   -999.2500     13.3270     -4.4062   -999.2500    -12.6950    -11.0154   -999.2500   -999.2500   -999.2500   -999.2500
   2602.0000     13.0000      1.5138   -999.2500   -999.2500   -999.2500   -999.2500   -999.2500   -999.2500      1.5138   -999.2500     13.0000     -4.2395   -999.2500    -12.5290    -10.5987   -999.2500   -999.2500   -999.2500   -999.2500
   2602.5000     13.0020      1.5140   -999.2500   -999.2500   -999.2500   -999.2500   -999.2500   -999.2500      1.5140   -999.2500     13.0020     -4.0718   -999.2500    -12.3620    -10.1795   -999.2500   -999.2500   -999.2500   -999.2500
   2603.0000     13.0040      1.5142   -999.2500   -999.2500   -999.2500   -999.2500   -999.2500   -999.2500      1.5142   -999.2500     13.0040     -3.7381   -999.2500    -12.0290     -9.3453   -999.2500   -999.2500   -999.2500   -999.2500
