~V
VERS. 2.00: Ver 2.00
WRAP.   NO:        
~W
 STRT.FT 20:
 STOP.FT 3810:
 STEP.FT 0.5:
 NULL. -999.250000:
 COMP. Western Gulf (Chevron):Company
 WELL. KCL-SAN EMIDIO #4:Well
 FLD. :Field
 LOC. S19 T11N R22W:Location
 STAT. CA:State
 SRVC. :Service Company
 SON. :Service Order #
 DATE. :Log Date
 UWI. 2025000:Unique Well ID
~C
 DEPT.FT :
 A10".OHMM :
 AO8..OHMM :
 LTHE. :
 MM. :
 PHES. :
 PHMX. :
 PHTS. :
 PHZC. :
 RM.OHMM :
 ROS. :
 RS.OHMM :
 SBL.MV :
 SCLN. :
 SP.MV :
 SPN. :
 VCDS. :
 VCLY. :
 VCWS. :
 VSHS. :
~P
~A
# ...
   1396.5000      2.2933      2.8445      1.7430      2.7798      0.0000   -999.2500      0.2719      0.2737      2.8445   -999.2500      2.2933     -6.6287    -65.5000     -9.7620    -16.5717      0.2510      0.5229      0.5229      1.7430
   1397.0000      2.2968      2.8516      1.7224      2.7769      0.0000   -999.2500      0.2687      0.2744      2.8516   -999.2500      2.2968     -6.8603    -65.5000     -9.9270    -17.1508      0.2480      0.5167      0.5167      1.7224
   1397.5000      2.2939      2.8753      1.7019      2.7741      0.0000   -999.2500      0.2655      0.2750      2.8753   -999.2500      2.2939     -7.0900    -65.5000    -10.0900    -17.7250      0.2451      0.5106      0.5106      1.7019
   1398.0000      2.3041      2.8891      1.6954      2.7732      0.0000   -999.2500      0.2645      0.2752      2.8891   -999.2500      2.3041     -7.1630    -65.5000    -10.2530    -17.9075      0.2441      0.5086      0.5086      1.6954
   1398.5000      2.3142      2.9028      1.6976      2.7735      0.0000   -999.2500      0.2648      0.2751      2.9028   -999.2500      2.3142     -7.1380    -65.5000    -10.3180    -17.8450      0.2445      0.5093      0.5093      1.6976
   1399.0000      2.3194      2.9148      1.6971      2.7734      0.0000   -999.2500      0.2647      0.2751      2.9148   -999.2500      2.3194     -7.1440    -65.5000    -10.4140    -17.8600      0.2444      0.5091      0.5091      1.6971
   1399.5000      2.3245      2.9268      1.7112      2.7754      0.0000   -999.2500      0.2669      0.2747      2.9268   -999.2500      2.3245     -6.9860    -65.5000    -10.3460    -17.4650      0.2464      0.5134      0.5134      1.7112
   1400.0000      2.3447      2.9493      1.7299      2.7780      0.0000   -999.2500      0.2699      0.2741      2.9493   -999.2500      2.3447     -6.7760    -65.5000    -10.2260    -16.9400      0.2491      0.5190      0.5190      1.7299
   1400.5000      2.3499      2.9719      1.7486      2.7806      0.0000   -999.2500      0.2728      0.2735      2.9719   -999.2500      2.3499     -6.5660    -65.5000    -10.1060    -16.4150      0.2518      0.5246      0.5246      1.7486
   1401.0000      2.3550      2.9944      1.7628      2.7825      0.0000   -999.2500      0.2750      0.2731      2.9944   -999.2500      2.3550     -6.4060    -65.5000    -10.0360    -16.0150      0.2538      0.5288      0.5288      1.7628
   1401.5000      2.3819      3.0182      1.7770      2.7845      0.0000   -999.2500      0.2772      0.2727      3.0182   -999.2500      2.3819     -6.2470    -65.5000     -9.9670    -15.6175      0.2559      0.5331      0.5331      1.7770
   1402.0000      2.4053      3.0368      1.7971      2.7873      0.0000   -999.2500      0.2803      0.2721      3.0368   -999.2500      2.4053     -6.0210    -65.5000     -9.8310    -15.0525      0.2588      0.5391      0.5391      1.7971
   1402.5000      2.4352      3.0554      1.7817      2.7852      0.0000   -999.2500      0.2779      0.2725      3.0554   -999.2500      2.4352     -6.1940    -65.5000    -10.0940    -15.4850      0.2566      0.5345      0.5345      1.7817
   1403.0000      2.4983      3.0824      1.7692      2.7834      0.0000   -999.2500      0.2760      0.2729      3.0824   -999.2500      2.4983     -6.3340    -65.5000    -10.3240    -15.8350      0.2548      0.5308      0.5308      1.7692
   1403.5000      2.5745      3.1094      1.7300      2.7780      0.0000   -999.2500      0.2699      0.2741      3.1094   -999.2500      2.5745     -6.7750    -65.5000    -10.8550    -16.9375      0.2491      0.5190      0.5190      1.7300
   1404.0000      2.6342      3.1396      1.6491      2.7668      0.0000   -999.2500      0.2573      0.2765      3.1396   -999.2500      2.6342     -7.6830    -65.5000    -11.8530    -19.2075      0.2375      0.4947      0.4947      1.6491
   1404.5000      2.7336      3.1666      1.5089      2.7474      0.0000   -999.2500      0.2354      0.2807      3.1666   -999.2500      2.7336     -9.2570    -65.5000    -13.5170    -23.1425      0.2173      0.4527      0.4527      1.5089
   1405.0000      2.8264      3.1902      1.3922      2.7312      0.0000   -999.2500      0.2172      0.2842      3.1902   -999.2500      2.8264    -10.1640    -65.5000    -14.5140    -25.4100      0.2005      0.4177      0.4177      1.3922
   1405.5000      2.9257      3.2171      1.0000      2.6804      0.0000   -999.2500      0.3064      0.2916      3.2171   -999.2500      2.9257    -12.0050    -65.5000    -16.4450    -30.0125      0.1651      0.3439      0.3439      1.0000
   1406.0000      3.0681      3.2506      0.9093      2.4529      0.0000   -999.2500      0.3104      0.2987      3.2506   -999.2500      3.0681    -13.7790    -65.5000    -18.3090    -34.4475      0.1309      0.2728      0.2728      0.9093
   1406.5000      3.1443      3.2775      0.7525      2.3024      0.0000   -999.2500      0.3131      0.3034      3.2775   -999.2500      3.1443    -14.9530    -65.5000    -19.5730    -37.3825      0.1084      0.2257      0.2257      0.7525
   1407.0000      3.2932      3.3044      0.4349      1.9975      0.0000   -999.2500      0.3185      0.3129      3.3044   -999.2500      3.2932    -18.0610    -65.5000    -22.7710    -45.1525      0.0626      0.1305      0.1305      0.4349
   1407.5000      3.4454      3.3379      0.3650      1.9304      0.0000   -999.2500      0.3197      0.3150      3.3379   -999.2500      3.4454    -19.3690    -65.5000    -24.1690    -48.4225      0.0526      0.1095      0.1095      0.3650
   1408.0000      3.5811      3.3714      0.3415      1.9078      0.0000   -999.2500      0.3201      0.3157      3.3714   -999.2500      3.5811    -19.8090    -65.5000    -24.6990    -49.5225      0.0492      0.1025      0.1025      0.3415
   1408.5000      3.6970      3.4282      0.3376      1.9041      0.0000   -999.2500      0.3202      0.3158      3.4282   -999.2500      3.6970    -19.8820    -65.5000    -24.8620    -49.7050      0.0486      0.1013      0.1013      0.3376
   1409.0000      3.7699      3.4452      0.3533      1.9191      0.0000   -999.2500      0.3199      0.3153      3.4452   -999.2500      3.7699    -19.5890    -65.5000    -24.6590    -48.9725      0.0509      0.1060      0.1060      0.3533
   1409.5000      3.7636      3.4821      0.3743      1.9393      0.0000   -999.2500      0.3195      0.3147      3.4821   -999.2500      3.7636    -19.1960    -65.5000    -24.3560    -47.9900      0.0539      0.1123      0.1123      0.3743
   1410.0000      3.7342      3.5222      0.4291      1.9919      0.0000   -999.2500      0.3186      0.3130      3.5222   -999.2500      3.7342    -18.1700    -65.5000    -23.4200    -45.4250      0.0618      0.1287      0.1287      0.4291
   1410.5000      3.6980      3.5457      0.4893      2.0497      0.0000   -999.2500      0.3176      0.3112      3.5457   -999.2500      3.6980    -17.0430    -65.5000    -22.3830    -42.6075      0.0705      0.1468      0.1468      0.4893
   1411.0000      3.6686      3.5793      0.5835      2.1401      0.0000   -999.2500      0.3159      0.3084      3.5793   -999.2500      3.6686    -16.2180    -65.5000    -21.6480    -40.5450      0.0840      0.1750      0.1750      0.5835
   1411.5000      3.6622      3.6062      0.5692      2.1264      0.0000   -999.2500      0.3162      0.3088      3.6062   -999.2500      3.6622    -16.3250    -65.5000    -21.8450    -40.8125      0.0820      0.1708      0.1708      0.5692
   1412.0000      3.7054      3.6265      0.4204      1.9836      0.0000   -999.2500      0.3187      0.3133      3.6265   -999.2500      3.7054    -18.3320    -65.5000    -23.9420    -45.8300      0.0605      0.1261      0.1261      0.4204
   1412.5000      3.7751      3.6467      0.3452      1.9114      0.0000   -999.2500      0.3200      0.3155      3.6467   -999.2500      3.7751    -19.7390    -65.5000    -25.4390    -49.3475      0.0497      0.1036      0.1036      0.3452
   1413.0000      3.8646      3.7134      0.2718      1.8815      0.0000   -999.2500      0.3212      0.3177      3.7134   -999.2500      3.8646    -21.1130    -65.5000    -26.9030    -52.7825      0.0391      0.0815      0.0815      0.2718
