~V
VERS. 2.00: Ver 2.00
WRAP.   NO:        
~W
 STRT.FT 20:
 STOP.FT 3810:
 STEP.FT 0.5:
 NULL. -999.250000:
 COMP. Western Gulf (Chevron):Company
 WELL. KCL-SAN EMIDIO #4:Well
 FLD. :Field
 LOC. S19 T11N R22W:Location
 STAT. CA:State
 SRVC. :Service Company
 SON. :Service Order #
 DATE. :Log Date
 UWI. 2025000:Unique Well ID
~C
 DEPT.FT :
 A10".OHMM :
 AO8..OHMM :
 LTHE. :
 MM. :
 PHES. :
 PHMX. :
 PHTS. :
 PHZC. :
 RM.OHMM :
 ROS. :
 RS.OHMM :
 SBL.MV :
 SCLN. :
 SP.MV :
 SPN. :
 VCDS. :
 VCLY. :
 VCWS. :
 VSHS. :
~P
~A
# ...
   1142.0000      1.8969      2.2661      2.1646      2.8382      0.0000   -999.2500      0.3377      0.2636      2.2661   -999.2500      1.8969     -1.8941    -65.5000    -11.0860     -4.7354      0.3117      0.6494      0.6494      2.1646
   1142.5000      1.9240      2.2762      2.1200      2.8320      0.0000   -999.2500      0.3307      0.2650      2.2762   -999.2500      1.9240     -2.3951    -65.5000    -11.6160     -5.9877      0.3053      0.6360      0.6360      2.1200
   1143.0000      1.9342      2.2864      2.0605      2.8238      0.0000   -999.2500      0.3214      0.2668      2.2864   -999.2500      1.9342     -3.0630    -65.5000    -12.3130     -7.6575      0.2967      0.6182      0.6182      2.0605
   1143.5000      1.9494      2.2966      2.0159      2.8176      0.0000   -999.2500      0.3145      0.2681      2.2966   -999.2500      1.9494     -3.5639    -65.5000    -12.8430     -8.9098      0.2903      0.6048      0.6048      2.0159
   1144.0000      1.9646      2.3001      1.9682      2.8110      0.0000   -999.2500      0.3070      0.2695      2.3001   -999.2500      1.9646     -4.0999    -65.5000    -13.4080    -10.2497      0.2834      0.5905      0.5905      1.9682
   1144.5000      2.0147      2.3037      1.9176      2.8040      0.0000   -999.2500      0.2991      0.2710      2.3037   -999.2500      2.0147     -4.6678    -65.5000    -14.0050    -11.6695      0.2761      0.5753      0.5753      1.9176
   1145.0000      2.0349      2.3088      1.8789      2.7986      0.0000   -999.2500      0.2931      0.2722      2.3088   -999.2500      2.0349     -5.1027    -65.5000    -14.4690    -12.7568      0.2706      0.5637      0.5637      1.8789
   1145.5000      2.0501      2.3139      1.8520      2.7949      0.0000   -999.2500      0.2889      0.2730      2.3139   -999.2500      2.0501     -5.4047    -65.5000    -14.8000    -13.5116      0.2667      0.5556      0.5556      1.8520
   1146.0000      2.0653      2.3175      1.8015      2.7879      0.0000   -999.2500      0.2810      0.2745      2.3175   -999.2500      2.0653     -5.9716    -65.5000    -15.3960    -14.9290      0.2594      0.5405      0.5405      1.8015
   1146.5000      2.0740      2.3210      1.7894      2.7862      0.0000   -999.2500      0.2791      0.2749      2.3210   -999.2500      2.0740     -6.1075    -65.5000    -15.5610    -15.2688      0.2577      0.5368      0.5368      1.7894
   1147.0000      2.0827      2.3280      1.7566      2.7817      0.0000   -999.2500      0.2740      0.2758      2.3280   -999.2500      2.0827     -6.4754    -65.5000    -15.9580    -16.1886      0.2530      0.5270      0.5270      1.7566
   1147.5000      2.0931      2.3299      1.7357      2.7788      0.0000   -999.2500      0.2708      0.2765      2.3299   -999.2500      2.0931     -6.7104    -65.5000    -16.2220    -16.7759      0.2499      0.5207      0.5207      1.7357
   1148.0000      2.0967      2.3317      1.7119      2.7755      0.0000   -999.2500      0.2670      0.2772      2.3317   -999.2500      2.0967     -6.9783    -65.5000    -16.5190    -17.4458      0.2465      0.5136      0.5136      1.7119
   1148.5000      2.1020      2.3420      1.6910      2.7726      0.0000   -999.2500      0.2638      0.2778      2.3420   -999.2500      2.1020     -7.2122    -65.5000    -16.7820    -18.0306      0.2435      0.5073      0.5073      1.6910
   1149.0000      2.1073      2.3471      1.6671      2.7693      0.0000   -999.2500      0.2601      0.2785      2.3471   -999.2500      2.1073     -7.4812    -65.5000    -17.0800    -18.7029      0.2401      0.5001      0.5001      1.6671
   1149.5000      2.1159      2.3523      1.6255      2.7635      0.0000   -999.2500      0.2536      0.2797      2.3523   -999.2500      2.1159     -7.9481    -65.5000    -17.5760    -19.8702      0.2341      0.4876      0.4876      1.6255
   1150.0000      2.1246      2.3659      1.6105      2.7615      0.0000   -999.2500      0.2512      0.2802      2.3659   -999.2500      2.1246     -8.1160    -65.5000    -17.7730    -20.2901      0.2319      0.4832      0.4832      1.6105
   1150.5000      2.1384      2.3761      1.5925      2.7590      0.0000   -999.2500      0.2484      0.2807      2.3761   -999.2500      2.1384     -8.3180    -65.5000    -18.0040    -20.7949      0.2293      0.4778      0.4778      1.5925
   1151.0000      2.1455      2.3829      1.6786      2.7709      0.0000   -999.2500      0.2619      0.2781      2.3829   -999.2500      2.1455     -7.3519    -65.5000    -17.0670    -18.3797      0.2417      0.5036      0.5036      1.6786
   1151.5000      2.1525      2.3898      1.7259      2.7774      0.0000   -999.2500      0.2692      0.2767      2.3898   -999.2500      2.1525     -6.8208    -65.5000    -16.5650    -17.0520      0.2485      0.5178      0.5178      1.7259
   1152.0000      2.1594      2.3965      1.7703      2.7836      0.0000   -999.2500      0.2762      0.2754      2.3965   -999.2500      2.1594     -6.3217    -65.5000    -16.0950    -15.8044      0.2549      0.5311      0.5311      1.7703
   1152.5000      2.1631      2.4033      1.7850      2.7856      0.0000   -999.2500      0.2785      0.2749      2.4033   -999.2500      2.1631     -6.1567    -65.5000    -15.9590    -15.3917      0.2570      0.5355      0.5355      1.7850
   1153.0000      2.1734      2.4169      1.7997      2.7877      0.0000   -999.2500      0.2808      0.2745      2.4169   -999.2500      2.1734     -5.9916    -65.5000    -15.8230    -14.9790      0.2592      0.5399      0.5399      1.7997
   1153.5000      2.1837      2.4270      1.8294      2.7918      0.0000   -999.2500      0.2854      0.2736      2.4270   -999.2500      2.1837     -5.6585    -65.5000    -15.5190    -14.1463      0.2634      0.5488      0.5488      1.8294
   1154.0000      2.1907      2.4438      1.8500      2.7946      0.0000   -999.2500      0.2886      0.2730      2.4438   -999.2500      2.1907     -5.4275    -65.5000    -15.3170    -13.5687      0.2664      0.5550      0.5550      1.8500
   1154.5000      2.2010      2.4638      1.9152      2.8036      0.0000   -999.2500      0.2988      0.2710      2.4638   -999.2500      2.2010     -4.6954    -65.5000    -14.6140    -11.7385      0.2758      0.5746      0.5746      1.9152
   1155.0000      2.2180      2.4773      1.9894      2.8139      0.0000   -999.2500      0.3103      0.2688      2.4773   -999.2500      2.2180     -3.8623    -65.5000    -13.8100     -9.6558      0.2865      0.5968      0.5968      1.9894
   1155.5000      2.2250      2.4974      2.0487      2.8221      0.0000   -999.2500      0.3196      0.2670      2.4974   -999.2500      2.2250     -3.1963    -65.5000    -13.1730     -7.9906      0.2950      0.6146      0.6146      2.0487
   1156.0000      2.2253      2.5075      2.0990      2.8291      0.0000   -999.2500      0.3274      0.2655      2.5075   -999.2500      2.2253     -2.6312    -65.5000    -12.6370     -6.5780      0.3023      0.6297      0.6297      2.0990
   1156.5000      2.2290      2.5243      2.1493      2.8361      0.0000   -999.2500      0.3353      0.2640      2.5243   -999.2500      2.2290     -2.0661    -65.5000    -12.1010     -5.1653      0.3095      0.6448      0.6448      2.1493
   1157.0000      2.2328      2.5542      2.1788      2.8401      0.0000   -999.2500      0.3399      0.2631      2.5542   -999.2500      2.2328     -1.7350    -65.5000    -11.7990     -4.3376      0.3137      0.6536      0.6536      2.1788
   1157.5000      2.2298      2.5808      2.1729      2.8393      0.0000   -999.2500      0.3390      0.2632      2.5808   -999.2500      2.2298     -1.8020    -65.5000    -11.8950     -4.5049      0.3129      0.6519      0.6519      2.1729
   1158.0000      2.2369      2.6107      2.1609      2.8377      0.0000   -999.2500      0.3371      0.2636      2.6107   -999.2500      2.2369     -1.9359    -65.5000    -12.0580     -4.8398      0.3112      0.6483      0.6483      2.1609
   1158.5000      2.2933      2.6406      2.1548      2.8368      0.0000   -999.2500      0.3361      0.2638      2.6406   -999.2500      2.2933     -2.0048    -65.5000    -12.1560     -5.0121      0.3103      0.6464      0.6464      2.1548
