~V
VERS. 2.00: Ver 2.00
WRAP.   NO:        
~W
 STRT.FT 20:
 STOP.FT 3810:
 STEP.FT 0.5:
 NULL. -999.250000:
 COMP. Western Gulf (Chevron):Company
 WELL. KCL-SAN EMIDIO #4:Well
 FLD. :Field
 LOC. S19 T11N R22W:Location
 STAT. CA:State
 SRVC. :Service Company
 SON. :Service Order #
 DATE. :Log Date
 UWI. 2025000:Unique Well ID
~C
 DEPT.FT :
 A10".OHMM :
 AO8..OHMM :
 LTHE. :
 MM. :
 PHES. :
 PHMX. :
 PHTS. :
 PHZC. :
 RM.OHMM :
 ROS. :
 RS.OHMM :
 SBL.MV :
 SCLN. :
 SP.MV :
 SPN. :
 VCDS. :
 VCLY. :
 VCWS. :
 VSHS. :
~P
~A
# ...
   1668.5000      2.0703      2.9875      1.7401      2.7794      0.0000   -999.2500      0.2715      0.2711      2.9875   -999.2500      2.0703     -6.6614    -65.5000    -13.6730    -16.6534      0.2506      0.5220      0.5220      1.7401
   1669.0000      2.1730      2.9617      1.7255      2.7774      0.0000   -999.2500      0.2692      0.2715      2.9617   -999.2500      2.1730     -6.8247    -65.5000    -13.8370    -17.0617      0.2485      0.5177      0.5177      1.7255
   1669.5000      2.3319      2.9131      1.7022      2.7741      0.0000   -999.2500      0.2655      0.2722      2.9131   -999.2500      2.3319     -7.0870    -65.5000    -14.1000    -17.7175      0.2451      0.5107      0.5107      1.7022
   1670.0000      2.5239      2.8741      1.6995      2.7738      0.0000   -999.2500      0.2651      0.2723      2.8741   -999.2500      2.5239     -7.1173    -65.5000    -14.1310    -17.7933      0.2447      0.5098      0.5098      1.6995
   1670.5000      2.6168      2.8381      1.6968      2.7734      0.0000   -999.2500      0.2647      0.2724      2.8381   -999.2500      2.6168     -7.1476    -65.5000    -14.1620    -17.8691      0.2443      0.5090      0.5090      1.6968
   1671.0000      2.7329      2.8153      1.7596      2.7821      0.0000   -999.2500      0.2745      0.2705      2.8153   -999.2500      2.7329     -6.4419    -65.5000    -13.4570    -16.1049      0.2534      0.5279      0.5279      1.7596
   1671.5000      2.8193      2.8418      1.8163      2.7900      0.0000   -999.2500      0.2833      0.2688      2.8418   -999.2500      2.8193     -5.8053    -65.5000    -12.8210    -14.5131      0.2616      0.5449      0.5449      1.8163
   1672.0000      2.9057      2.8683      1.8612      2.7962      0.0000   -999.2500      0.2903      0.2674      2.8683   -999.2500      2.9057     -5.3016    -65.5000    -12.3180    -13.2539      0.2680      0.5584      0.5584      1.8612
   1672.5000      2.9458      2.9512      1.9002      2.8016      0.0000   -999.2500      0.2964      0.2663      2.9512   -999.2500      2.9458     -4.8639    -65.5000    -11.8810    -12.1597      0.2736      0.5700      0.5700      1.9002
   1673.0000      2.9530      3.0140      1.9256      2.8051      0.0000   -999.2500      0.3004      0.2655      3.0140   -999.2500      2.9530     -4.5782    -65.5000    -11.5960    -11.4455      0.2773      0.5777      0.5777      1.9256
   1673.5000      2.9534      3.0735      1.9510      2.8086      0.0000   -999.2500      0.3044      0.2647      3.0735   -999.2500      2.9534     -4.2925    -65.5000    -11.3110    -10.7313      0.2810      0.5853      0.5853      1.9510
   1674.0000      2.9538      3.1627      1.9722      2.8115      0.0000   -999.2500      0.3077      0.2641      3.1627   -999.2500      2.9538     -4.0548    -65.5000    -11.0740    -10.1371      0.2840      0.5917      0.5917      1.9722
   1674.5000      2.9214      3.2421      1.9933      2.8145      0.0000   -999.2500      0.3110      0.2635      3.2421   -999.2500      2.9214     -3.8182    -65.5000    -10.8380     -9.5454      0.2870      0.5980      0.5980      1.9933
   1675.0000      2.8525      3.2917      1.9997      2.8153      0.0000   -999.2500      0.3119      0.2633      3.2917   -999.2500      2.8525     -3.7465    -65.5000    -10.7670     -9.3662      0.2880      0.5999      0.5999      1.9997
   1675.5000      2.7505      3.0184      1.9851      2.8133      0.0000   -999.2500      0.3097      0.2637      3.0184   -999.2500      2.7505     -3.9098    -65.5000    -10.9310     -9.7745      0.2859      0.5955      0.5955      1.9851
   1676.0000      2.5793      2.9197      1.9587      2.8097      0.0000   -999.2500      0.3056      0.2645      2.9197   -999.2500      2.5793     -4.2061    -65.5000    -11.2280    -10.5152      0.2821      0.5876      0.5876      1.9587
   1676.5000      2.4906      2.7947      1.9234      2.8048      0.0000   -999.2500      0.3001      0.2655      2.7947   -999.2500      2.4906     -4.6024    -65.5000    -11.6250    -11.5060      0.2770      0.5770      0.5770      1.9234
   1677.0000      2.4019      2.6763      1.8822      2.7991      0.0000   -999.2500      0.2936      0.2668      2.6763   -999.2500      2.4019     -5.0657    -65.5000    -12.0890    -12.6643      0.2710      0.5647      0.5647      1.8822
   1677.5000      2.2901      2.5249      1.8381      2.7930      0.0000   -999.2500      0.2867      0.2681      2.5249   -999.2500      2.2901     -5.5610    -65.5000    -12.5850    -13.9026      0.2647      0.5514      0.5514      1.8381
   1678.0000      2.2080      2.4725      1.8176      2.7901      0.0000   -999.2500      0.2835      0.2687      2.4725   -999.2500      2.2080     -5.7914    -65.5000    -12.8160    -14.4784      0.2617      0.5453      0.5453      1.8176
   1678.5000      2.1622      2.4742      1.8074      2.7887      0.0000   -999.2500      0.2820      0.2690      2.4742   -999.2500      2.1622     -5.9057    -65.5000    -12.9310    -14.7642      0.2603      0.5422      0.5422      1.8074
   1679.0000      2.1297      2.4760      1.7973      2.7873      0.0000   -999.2500      0.2804      0.2693      2.4760   -999.2500      2.1297     -6.0190    -65.5000    -13.0450    -15.0475      0.2588      0.5392      0.5392      1.7973
   1679.5000      2.1252      2.4894      1.7829      2.7853      0.0000   -999.2500      0.2781      0.2697      2.4894   -999.2500      2.1252     -6.1803    -65.5000    -13.2070    -15.4508      0.2567      0.5349      0.5349      1.7829
   1680.0000      2.1207      2.5028      1.7951      2.7870      0.0000   -999.2500      0.2800      0.2693      2.5028   -999.2500      2.1207     -6.0436    -65.5000    -13.0710    -15.1091      0.2585      0.5385      0.5385      1.7951
   1680.5000      2.1196      2.5593      1.8192      2.7904      0.0000   -999.2500      0.2838      0.2686      2.5593   -999.2500      2.1196     -5.7729    -65.5000    -12.8010    -14.4323      0.2620      0.5458      0.5458      1.8192
   1681.0000      2.1184      2.5809      1.8432      2.7937      0.0000   -999.2500      0.2875      0.2679      2.5809   -999.2500      2.1184     -5.5033    -65.5000    -12.5320    -13.7581      0.2654      0.5530      0.5530      1.8432
   1681.5000      2.1224      2.6024      1.8970      2.8011      0.0000   -999.2500      0.2959      0.2663      2.6024   -999.2500      2.1224     -4.8996    -65.5000    -11.9290    -12.2489      0.2732      0.5691      0.5691      1.8970
   1682.0000      2.1393      2.6622      1.9478      2.8082      0.0000   -999.2500      0.3039      0.2647      2.6622   -999.2500      2.1393     -4.3289    -65.5000    -11.3590    -10.8222      0.2805      0.5843      0.5843      1.9478
   1682.5000      2.1563      2.6788      2.0045      2.8160      0.0000   -999.2500      0.3127      0.2630      2.6788   -999.2500      2.1563     -3.6922    -65.5000    -10.7230     -9.2305      0.2886      0.6014      0.6014      2.0045
   1683.0000      2.1931      2.7087      2.0553      2.8230      0.0000   -999.2500      0.3206      0.2615      2.7087   -999.2500      2.1931     -3.1215    -65.5000    -10.1530     -7.8038      0.2960      0.6166      0.6166      2.0553
   1683.5000      2.2200      2.7287      2.0719      2.8253      0.0000   -999.2500      0.3232      0.2610      2.7287   -999.2500      2.2200     -2.9358    -65.5000     -9.9680     -7.3396      0.2983      0.6216      0.6216      2.0719
   1684.0000      2.2668      2.7487      2.0885      2.8276      0.0000   -999.2500      0.3258      0.2605      2.7487   -999.2500      2.2668     -2.7491    -65.5000     -9.7820     -6.8729      0.3007      0.6265      0.6265      2.0885
   1684.5000      2.2970      2.7786      2.1038      2.8298      0.0000   -999.2500      0.3282      0.2600      2.7786   -999.2500      2.2970     -2.5775    -65.5000     -9.6110     -6.4437      0.3029      0.6311      0.6311      2.1038
   1685.0000      2.3503      2.8152      2.0834      2.8269      0.0000   -999.2500      0.3250      0.2606      2.8152   -999.2500      2.3503     -2.8068    -65.5000     -9.8410     -7.0169      0.3000      0.6250      0.6250      2.0834
