~V
VERS. 2.00: Ver 2.00
WRAP.   NO:        
~W
 STRT.FT 20:
 STOP.FT 3810:
 STEP.FT 0.5:
 NULL. -999.250000:
 COMP. Western Gulf (Chevron):Company
 WELL. KCL-SAN EMIDIO #4:Well
 FLD. :Field
 LOC. S19 T11N R22W:Location
 STAT. CA:State
 SRVC. :Service Company
 SON. :Service Order #
 DATE. :Log Date
 UWI. 2025000:Unique Well ID
~C
 DEPT.FT :
 A10".OHMM :
 AO8..OHMM :
 LTHE. :
 MM. :
 PHES. :
 PHMX. :
 PHTS. :
 PHZC. :
 RM.OHMM :
 ROS. :
 RS.OHMM :
 SBL.MV :
 SCLN. :
 SP.MV :
 SPN. :
 VCDS. :
 VCLY. :
 VCWS. :
 VSHS. :
~P
~A
# ...
   2059.5000     29.8010      2.6018      1.0000      2.6379      0.0000      0.1683      0.4027      0.4654      2.6018      2.1197     29.8010     -4.3991    -42.4250    -11.9460    -10.9978      0.1653      0.3306      0.3306      1.0000
   2060.0000     29.9670      2.6184      1.0000      2.5555      0.0000      0.1695      0.4068      0.4724      2.6184      1.9369     29.9670     -4.9814    -42.4250    -12.5290    -12.4536      0.1524      0.3048      0.3048      1.0000
   2060.5000     29.9690      2.6350      1.0000      2.4968      0.0000      0.1704      0.4097      0.4773      2.6350      1.8185     29.9690     -5.3967    -42.4250    -12.9450    -13.4919      0.1432      0.2865      0.2865      0.9550
   2061.0000     29.9710      2.6845      1.0000      2.4969      0.0000      0.1704      0.4097      0.4773      2.6845      1.8186     29.9710     -5.3961    -42.4250    -12.9450    -13.4902      0.1433      0.2865      0.2865      0.9551
   2061.5000     29.8080      2.7340      1.0000      2.5440      0.0000      0.1697      0.4073      0.4733      2.7340      1.9130     29.8080     -5.0624    -42.4250    -12.6120    -12.6559      0.1506      0.3013      0.3013      1.0000
   2062.0000     29.7270      2.7671      1.0000      2.5559      0.0000      0.1695      0.4067      0.4723      2.7671      1.9376     29.7270     -4.9787    -42.4250    -12.5290    -12.4467      0.1525      0.3050      0.3050      1.0000
   2062.5000     29.6460      2.8002      1.0000      2.5560      0.0000      0.1695      0.4067      0.4723      2.8002      1.9378     29.6460     -4.9780    -42.4250    -12.5290    -12.4450      0.1525      0.3050      0.3050      1.0000
   2063.0000     29.3190      2.8168      1.0000      2.4972      0.0000      0.1704      0.4096      0.4772      2.8168      1.8193     29.3190     -5.3933    -42.4250    -12.9450    -13.4833      0.1433      0.2866      0.2866      0.9555
   2063.5000     28.8280      2.8169      1.0000      2.4856      0.0000      0.1706      0.4102      0.4782      2.8169      1.7968     28.8280     -5.4756    -42.4250    -13.0280    -13.6891      0.1415      0.2830      0.2830      0.9433
   2064.0000     28.3360      2.8171      1.0000      2.4974      0.0000      0.1704      0.4096      0.4772      2.8171      1.8196     28.3360     -5.3920    -42.4250    -12.9450    -13.4799      0.1433      0.2867      0.2867      0.9557
   2064.5000     28.1730      2.7844      1.0000      2.5446      0.0000      0.1697      0.4072      0.4732      2.7844      1.9140     28.1730     -5.0583    -42.4250    -12.6120    -12.6457      0.1507      0.3014      0.3014      1.0000
   2065.0000     28.6680      2.7681      1.0000      2.5683      0.0000      0.1693      0.4060      0.4712      2.7681      1.9637     28.6680     -4.8906    -42.4250    -12.4450    -12.2265      0.1544      0.3089      0.3089      1.0000
   2065.5000     29.1630      2.7354      1.0000      2.5919      0.0000      0.1689      0.4048      0.4692      2.7354      2.0148     29.1630     -4.7239    -42.4250    -12.2790    -11.8098      0.1581      0.3162      0.3162      1.0000
   2066.0000     29.8230      2.7191      1.0000      2.5980      0.0000      0.1688      0.4045      0.4687      2.7191      2.0281     29.8230     -4.6812    -42.4250    -12.2370    -11.7030      0.1591      0.3181      0.3181      1.0000
   2066.5000     29.8240      2.7193      1.0000      2.6038      0.0000      0.1688      0.4042      0.4681      2.7193      2.0412     29.8240     -4.6395    -42.4250    -12.1960    -11.5988      0.1600      0.3200      0.3200      1.0000
   2067.0000     29.7430      2.7194      1.0000      2.5334      0.0000      0.1698      0.4077      0.4741      2.7194      1.8907     29.7430     -5.1378    -42.4250    -12.6950    -12.8446      0.1490      0.2979      0.2979      0.9931
   2067.5000     29.6630      2.7031      1.0000      2.4510      0.0000      0.1711      0.4118      0.4810      2.7031      1.7321     29.6630     -5.7202    -42.4250    -13.2780    -14.3004      0.1361      0.2722      0.2722      0.9073
   2068.0000     29.9940      2.7033      1.0000      2.4040      0.0000      0.1718      0.4142      0.4850      2.7033      1.6490     29.9940     -6.0525    -42.4250    -13.6110    -15.1312      0.1288      0.2575      0.2575      0.8584
   2068.5000     30.3240      2.7199      1.0000      2.3335      0.0000      0.1729      0.4176      0.4909      2.7199      1.5336     30.3240     -6.5508    -42.4250    -14.1100    -16.3770      0.1177      0.2355      0.2355      0.7849
   2069.0000     30.6550      2.7447      1.0000      2.2512      0.0000      0.1742      0.4217      0.4979      2.7447      1.4114     30.6550     -7.1331    -42.4250    -14.6930    -17.8328      0.1049      0.2097      0.2097      0.6992
   2069.5000     31.4790      2.7696      1.0000      2.1925      0.0000      0.1751      0.4246      0.5028      2.7696      1.3317     31.4790     -7.5484    -42.4250    -15.1090    -18.8711      0.0957      0.1914      0.1914      0.6380
   2070.0000     32.3030      2.8108      1.0000      2.1689      0.0000      0.1754      0.4257      0.5048      2.8108      1.3014     32.3030     -7.7147    -42.4250    -15.2760    -19.2869      0.0920      0.1840      0.1840      0.6135
   2070.5000     32.7980      2.8521      1.0000      2.2044      0.0000      0.1749      0.4239      0.5018      2.8521      1.3474     32.7980     -7.4641    -42.4250    -15.0260    -18.6601      0.0976      0.1951      0.1951      0.6504
   2071.0000     33.6220      2.9099      1.0000      2.2281      0.0000      0.1745      0.4228      0.4998      2.9099      1.3793     33.6220     -7.2964    -42.4250    -14.8590    -18.2409      0.1013      0.2025      0.2025      0.6751
   2071.5000     33.7880      2.9676      1.0000      2.2753      0.0000      0.1738      0.4204      0.4958      2.9676      1.4457     33.7880     -6.9627    -42.4250    -14.5260    -17.4067      0.1086      0.2173      0.2173      0.7243
   2072.0000     34.0360      3.0171      1.0000      2.3106      0.0000      0.1732      0.4187      0.4928      3.0171      1.4980     34.0360     -6.7130    -42.4250    -14.2770    -16.7825      0.1142      0.2283      0.2283      0.7610
   2072.5000     34.2840      3.0666      1.0000      2.3461      0.0000      0.1727      0.4169      0.4898      3.0666      1.5531     34.2840     -6.4623    -42.4250    -14.0270    -16.1558      0.1197      0.2394      0.2394      0.7980
   2073.0000     36.2600      3.1161      1.0000      2.4169      0.0000      0.1716      0.4134      0.4838      3.1161      1.6708     36.2600     -5.9616    -42.4250    -13.5270    -14.9041      0.1308      0.2615      0.2615      0.8717
   2073.5000     36.4260      3.1492      1.0000      2.4993      0.0000      0.1703      0.4093      0.4768      3.1492      1.8225     36.4260     -5.3789    -42.4250    -12.9450    -13.4474      0.1436      0.2873      0.2873      0.9576
   2074.0000     36.2630      3.1823      1.0000      2.5818      0.0000      0.1691      0.4051      0.4698      3.1823      1.9921     36.2630     -4.7953    -42.4250    -12.3620    -11.9882      0.1565      0.3131      0.3131      1.0000
   2074.5000     35.4430      3.2317      1.0000      2.6525      0.0000      0.1680      0.4015      0.4639      3.2317      2.1533     35.4430     -4.2956    -42.4250    -11.8630    -10.7390      0.1676      0.3352      0.3352      1.0000
   2075.0000     34.7860      3.2812      1.0000      2.6703      0.0000      0.1677      0.4006      0.4624      3.2812      2.1963     34.7860     -4.1699    -42.4250    -11.7380    -10.4247      0.1704      0.3407      0.3407      1.0000
   2075.5000     34.1300      3.3637      1.0000      2.6880      0.0000      0.1674      0.3997      0.4608      3.3637      2.2404     34.1300     -4.0442    -42.4250    -11.6130    -10.1105      0.1731      0.3463      0.3463      1.0000
   2076.0000     33.3090      3.3803      1.0000      2.7051      0.0000      0.1667      0.3973      0.4569      3.3803      2.2982     33.3090     -3.7105    -42.4250    -11.2800     -9.2763      0.1805      0.3610      0.3610      1.0000
