~V
VERS. 2.00: Ver 2.00
WRAP.   NO:        
~W
 STRT.FT 20:
 STOP.FT 3810:
 STEP.FT 0.5:
 NULL. -999.250000:
 COMP. Western Gulf (Chevron):Company
 WELL. KCL-SAN EMIDIO #4:Well
 FLD. :Field
 LOC. S19 T11N R22W:Location
 STAT. CA:State
 SRVC. :Service Company
 SON. :Service Order #
 DATE. :Log Date
 UWI. 2025000:Unique Well ID
~C
 DEPT.FT :
 A10".OHMM :
 AO8..OHMM :
 LTHE. :
 MM. :
 PHES. :
 PHMX. :
 PHTS. :
 PHZC. :
 RM.OHMM :
 ROS. :
 RS.OHMM :
 SBL.MV :
 SCLN. :
 SP.MV :
 SPN. :
 VCDS. :
 VCLY. :
 VCWS. :
 VSHS. :
~P
~A
# ...
   1532.5000      2.5461      2.5487      2.0161      2.8176      0.0000   -999.2500      0.3145      0.2642      2.5487   -999.2500      2.5461     -3.5624    -65.5000    -16.6520     -8.9061      0.2903      0.6048      0.6048      2.0161
   1533.0000      2.5068      2.5654      1.9770      2.8122      0.0000   -999.2500      0.3084      0.2654      2.5654   -999.2500      2.5068     -4.0013    -65.5000    -17.0670    -10.0033      0.2847      0.5931      0.5931      1.9770
   1533.5000      2.5007      2.5789      1.8951      2.8009      0.0000   -999.2500      0.2956      0.2678      2.5789   -999.2500      2.5007     -4.9212    -65.5000    -17.9630    -12.3030      0.2729      0.5685      0.5685      1.8951
   1534.0000      2.5043      2.5924      1.8457      2.7940      0.0000   -999.2500      0.2879      0.2693      2.5924   -999.2500      2.5043     -5.4751    -65.5000    -18.4930    -13.6877      0.2658      0.5537      0.5537      1.8457
   1534.5000      2.5343      2.6009      1.8142      2.7897      0.0000   -999.2500      0.2830      0.2702      2.6009   -999.2500      2.5343     -5.8290    -65.5000    -18.8230    -14.5724      0.2612      0.5443      0.5443      1.8142
   1535.0000      2.5643      2.6093      1.7885      2.7861      0.0000   -999.2500      0.2790      0.2710      2.6093   -999.2500      2.5643     -6.1179    -65.5000    -19.0880    -15.2946      0.2575      0.5365      0.5365      1.7885
   1535.5000      2.6903      2.6559      1.7689      2.7834      0.0000   -999.2500      0.2759      0.2716      2.6559   -999.2500      2.6903     -6.3377    -65.5000    -19.2840    -15.8443      0.2547      0.5307      0.5307      1.7689
   1536.0000      2.8030      2.7056      1.7610      2.7823      0.0000   -999.2500      0.2747      0.2718      2.7056   -999.2500      2.8030     -6.4266    -65.5000    -19.3490    -16.0665      0.2536      0.5283      0.5283      1.7610
   1536.5000      2.9454      2.7554      1.7533      2.7812      0.0000   -999.2500      0.2735      0.2720      2.7554   -999.2500      2.9454     -6.5135    -65.5000    -19.4120    -16.2837      0.2525      0.5260      0.5260      1.7533
   1537.0000      3.0977      2.8447      1.7499      2.7808      0.0000   -999.2500      0.2730      0.2721      2.8447   -999.2500      3.0977     -6.5514    -65.5000    -19.4260    -16.3784      0.2520      0.5250      0.5250      1.7499
   1537.5000      3.3359      2.9175      1.7465      2.7803      0.0000   -999.2500      0.2725      0.2722      2.9175   -999.2500      3.3359     -6.5893    -65.5000    -19.4400    -16.4731      0.2515      0.5240      0.5240      1.7465
   1538.0000      3.4948      3.0166      1.7447      2.7800      0.0000   -999.2500      0.2722      0.2723      3.0166   -999.2500      3.4948     -6.6091    -65.5000    -19.4360    -16.5228      0.2512      0.5234      0.5234      1.7447
   1538.5000      3.6637      3.1225      1.7340      2.7785      0.0000   -999.2500      0.2705      0.2726      3.1225   -999.2500      3.6637     -6.7300    -65.5000    -19.5330    -16.8250      0.2497      0.5202      0.5202      1.7340
   1539.0000      3.9019      3.2084      1.7261      2.7775      0.0000   -999.2500      0.2693      0.2728      3.2084   -999.2500      3.9019     -6.8189    -65.5000    -19.5980    -17.0472      0.2486      0.5178      0.5178      1.7261
   1539.5000      4.0740      3.3142      1.7034      2.7743      0.0000   -999.2500      0.2657      0.2735      3.3142   -999.2500      4.0740     -7.0738    -65.5000    -19.8290    -17.6844      0.2453      0.5110      0.5110      1.7034
   1540.0000      4.3684      3.4266      1.6868      2.7720      0.0000   -999.2500      0.2631      0.2740      3.4266   -999.2500      4.3684     -7.2597    -65.5000    -19.9910    -18.1491      0.2429      0.5060      0.5060      1.6868
   1540.5000      4.5736      3.4960      1.6759      2.7705      0.0000   -999.2500      0.2614      0.2743      3.4960   -999.2500      4.5736     -7.3815    -65.5000    -20.0890    -18.4538      0.2413      0.5028      0.5028      1.6759
   1541.0000      4.8018      3.6018      1.6532      2.7674      0.0000   -999.2500      0.2579      0.2750      3.6018   -999.2500      4.8018     -7.6374    -65.5000    -20.3210    -19.0935      0.2381      0.4959      0.4959      1.6532
   1541.5000      5.0070      3.7010      1.6305      2.7642      0.0000   -999.2500      0.2544      0.2757      3.7010   -999.2500      5.0070     -7.8923    -65.5000    -20.5520    -19.7307      0.2348      0.4891      0.4891      1.6305
   1542.0000      5.1561      3.7804      1.5871      2.7582      0.0000   -999.2500      0.2476      0.2770      3.7804   -999.2500      5.1561     -8.3792    -65.5000    -21.0150    -20.9479      0.2285      0.4761      0.4761      1.5871
   1542.5000      5.2720      3.9026      1.5436      2.7522      0.0000   -999.2500      0.2408      0.2783      3.9026   -999.2500      5.2720     -8.8671    -65.5000    -21.4790    -22.1676      0.2223      0.4631      0.4631      1.5436
   1543.0000      5.3748      4.0446      1.4604      2.7407      0.0000   -999.2500      0.2278      0.2808      4.0446   -999.2500      5.3748     -9.6539    -65.5000    -22.2420    -24.1349      0.2103      0.4381      0.4381      1.4604
   1543.5000      5.4083      4.1571      1.3953      2.7317      0.0000   -999.2500      0.2177      0.2827      4.1571   -999.2500      5.4083    -10.1408    -65.5000    -22.7050    -25.3521      0.2009      0.4186      0.4186      1.3953
   1544.0000      5.4151      4.2067      1.3391      2.7239      0.0000   -999.2500      0.2089      0.2844      4.2067   -999.2500      5.4151    -10.5617    -65.5000    -23.1020    -26.4043      0.1928      0.4017      0.4017      1.3391
   1544.5000      5.4552      4.2697      1.3184      2.7210      0.0000   -999.2500      0.2057      0.2850      4.2697   -999.2500      5.4552    -10.7166    -65.5000    -23.2330    -26.7915      0.1898      0.3955      0.3955      1.3184
   1545.0000      5.4952      4.3161      1.3065      2.7194      0.0000   -999.2500      0.2038      0.2854      4.3161   -999.2500      5.4952    -10.8055    -65.5000    -23.2980    -27.0137      0.1881      0.3920      0.3920      1.3065
   1545.5000      5.5616      4.3757      1.2948      2.7177      0.0000   -999.2500      0.2020      0.2857      4.3757   -999.2500      5.5616    -10.8933    -65.5000    -23.3620    -27.2334      0.1864      0.3884      0.3884      1.2948
   1546.0000      5.6181      4.4618      1.3723      2.7285      0.0000   -999.2500      0.2141      0.2834      4.4618   -999.2500      5.6181    -10.3132    -65.5000    -22.7580    -25.7831      0.1976      0.4117      0.4117      1.3723
   1546.5000      5.6383      4.5280      1.4162      2.7346      0.0000   -999.2500      0.2209      0.2820      4.5280   -999.2500      5.6383     -9.9841    -65.5000    -22.4050    -24.9603      0.2039      0.4249      0.4249      1.4162
   1547.0000      5.6221      4.6074      1.4601      2.7406      0.0000   -999.2500      0.2278      0.2807      4.6074   -999.2500      5.6221     -9.6560    -65.5000    -22.0530    -24.1400      0.2103      0.4380      0.4380      1.4601
   1547.5000      5.5631      4.6604      1.5310      2.7504      0.0000   -999.2500      0.2388      0.2786      4.6604   -999.2500      5.5631     -9.0089    -65.5000    -21.3820    -22.5222      0.2205      0.4593      0.4593      1.5310
   1548.0000      5.2397      4.7299      1.5886      2.7584      0.0000   -999.2500      0.2478      0.2769      4.7299   -999.2500      5.2397     -8.3627    -65.5000    -20.7120    -20.9069      0.2288      0.4766      0.4766      1.5886
   1548.5000      4.7710      4.8291      1.6402      2.7656      0.0000   -999.2500      0.2559      0.2753      4.8291   -999.2500      4.7710     -7.7826    -65.5000    -20.1080    -19.4566      0.2362      0.4921      0.4921      1.6402
   1549.0000      4.3155      4.9282      1.6710      2.7698      0.0000   -999.2500      0.2607      0.2744      4.9282   -999.2500      4.3155     -7.4375    -65.5000    -19.7390    -18.5938      0.2406      0.5013      0.5013      1.6710
